~Version Information Block
 VERS.                2.00:     CWLS LOG ASCII STANDARD - VERSION 2.000000
 WRAP.                  NO:     One Line Per Depth Step
#
~Well Information Block
#MNEM.UNIT                     Data                         Information
#----------   ------------------------------------------   ----------------
 STRT.FT                                       70.0000:     START DEPTH
 STOP.FT                                    10050.0000:     STOP DEPTH
 STEP.FT                                        0.5000:     STEP
 NULL.                                       -999.2500:     NULL VALUE
 COMP.                 Columbia Natural Resources, Inc:     COMPANY
 WELL.                         Gertrude Harbin #824457:     WELL
 FLD .                                        Rockport:     FIELD
 LOC .                                                :     LOCATION
 LONG.                                  -81.6230090000:     LONGITUDE
 LATI.                                   38.9667430000:     LATITUDE
 CNTY.                                         Jackson:     COUNTY
 STAT.                                              WV:     STATE
 CTRY.                                             USA:     COUNTRY
 SRVC.                                    Schlumberger:     SERVICE COMPANY
 DATE.                                                :     DATE
 API .                                      4703502482:     API NUMBER
 UWI .                                      4703502482:     UWI NUMBER
 SLAT.                                       38.966743:     Surface latitude
 SLON.                                      -81.623009:     surface longitude
 TVD .                                              NO:     TVD flag
 WSTA.                                             LOC:     Well status
#
~Curve Information Block
#MNEM.UNIT       API CODE      Curve Description
#----------    -------------   -------------------
 DEPT.FT                   :   Depth in Feet
 GR  .GAPI     35 310 01 01:   Gamma Ray
 TEN .LBF                  :   
 CALI.IN       70 280 01 01:   Caliper
 TDELTAT.DC/K                 :   
 RHOZ.G/C3                 :   Standard Res Formation Density
 PEFZ.B/E                  :   Standard Res Formation Photo-electric
 ENPH.V/V                  :   Epithermal Neutron Porosity
 DPHZ.V/V                  :   Std. Res. Density Porosity
 TEMP.DEGF                 :   Temperature
 AUD1.MV                   :   
 AUD2.MV                   :   
 RHOC.G/C3                 :   Density Correction
 NPHI.V/V      42 890 03 01:   Neutron Porosity
 AHF90.OHMM                 :   AIT-H 90 Inch Investigation
 AHF60.OHMM                 :   AHF60
 HRM .OHMM                 :   Filtered Mud Resistivity from Deep Measure
 RXOZ.OHMM                 :   Standard Res Invaded Zone Resistivity
 LLS .OHMM     10 220 09 01:   Latero-Log Shallow (Resistivity)
 LLD .OHMM     10 220 10 01:   LLD
 HD  .IN                   :   Hole Diameter
 COHS.----                 :   Coherence Value At Shear Peak
 COHC.----                 :   Coherence Value At Compressional Peak
#
~Parameter Information Block
#MNEM.UNIT            Value               Description
#----------    --------------------    -------------------
 DATE.                   4/20/2001:    Date As Month-Day-Year
 RUN .                         ONE:    Run Number
 PDAT.                          GL:    Permanent Datum
 EPD .FT                  705.0000:    Elevation Of Perm. Datum
 LMF .                          KB:    Log Measured From
 FAPD.FT                   15.0000:    Feet Above Perm. Datum
 DMF .                          KB:    Drilling Measured From
 EKB .FT                  720.0000:    Elevation Of Kelly Bushing
 EDF .FT                  719.0000:    Elevation Of Derrick Floor
 EGL .FT                  705.0000:    Elevation Of Ground Level
 TD  .FT                10035.0000:    Total Depth
 DD  .FT                 5122.0000:    Depth Driller
 DL  .FT                 5122.0000:    Depth Logger
 BLI .FT                 5104.0000:    Bottom Log Interval
 TLI .FT                    0.0000:    Top Log Interval
 DFT .                         AIR:    Drilling Fluid Type
 MRT .DEGF                108.0000:    Maximum Recorded Temperature
 DGBY.                          GC:    
 WSTA.                         LOC:    
 NEXT.RUN                         :
 DATE.                   5/12/2001:    Date As Month-Day-Year
 RUN .                         TWO:    Run Number
 DD  .FT                 8429.0000:    Depth Driller
 DL  .FT                 8345.0000:    Depth Logger
 BLI .FT                 8327.0000:    Bottom Log Interval
 TLI .FT                 5104.0000:    Top Log Interval
 DFT .                     KCL Mud:    Drilling Fluid Type
 MRT .DEGF                147.0000:    Maximum Recorded Temperature
 NEXT.RUN                         :
 DATE.                   5/25/2001:    Date As Month-Day-Year
 RUN .                       THREE:    Run Number
 DD  .FT                10073.0000:    Depth Driller
 DL  .FT                10035.0000:    Depth Logger
 BLI .FT                10030.0000:    Bottom Log Interval
 TLI .FT                 8100.0000:    Top Log Interval
 DFT .                      3% KCL:    Drilling Fluid Type
 MRT .DEGF                168.0000:    Maximum Recorded Temperature
#
~Other Information Block
<DescLogPlotStart>   NEURALOG PLOT DEFINITION
PLOTDEFVERSION: 3
LASFILE: C:\Documents and Settings\gcase.WVGS\Desktop\PriorityWells\Jackson\470
DEPTHSCALE: 239.999996
RESOLUTION: 200
DEPTHLABELFREQ: 100.000000
HEAVYGRIDFREQ: 100.000000
MEDIUMGRIDFREQ: 50.000000
LIGHTGRIDFREQ: 10.000000
#
#   TRACK 1
#
STARTTRACK: 
 LEFTX: 0.500000 inch
 RIGHTX: 3.000000 inch
 SCALETYPE: Linear
 NUMCHARTDIVISIONS: 10
CURVE: GR    0.000000   200.000000 (0,0,255)      Solid             2     Y    
BACKUP: 200.000000 400.000000 (0,0,255)      Solid             2    
BACKUP: 400.000000 600.000000 (0,0,255)      Solid             2    
CURVE: TEN   10000.000000 0.000000   (0,131,131)    Dot               2     N  
CURVE: CALI  5.000000   15.000000  (255,0,255)    Short_Dash        2     N    
CURVE: TDELTAT -1.000000  1.000000   (255,0,0)      Medium_Dash       2     Y  
BACKUP: -3.000000  -1.000000  (255,0,0)      Medium_Dash       2    
BACKUP: 1.000000   3.000000   (255,0,0)      Medium_Dash       2    
CURVE: HRM   0.000000   0.200000   (255,0,255)    Solid             2     N    
CURVE: HD    7.000000   17.000000  (0,0,255)      Solid             2     N    
ENDTRACK: 
#
#   TRACK 2
#
STARTTRACK: 
 LEFTX: 3.500000 inch
 RIGHTX: 6.000000 inch
 SCALETYPE: Log
 NUMCYCLES: 4
 STARTCYCLE: 2
CURVE: AHF90 0.200000   2000.000000 (0,0,255)      Dot               2     N   
CURVE: AHF60 0.200000   2000.000000 (0,131,131)    Short_Dash        2     N   
CURVE: RXOZ  0.200000   2000.000000 (255,0,0)      Solid             2     Y   
BACKUP: 2000.000000 20000000.000000 (255,0,0)      Solid             2    
CURVE: LLS   0.200000   2000.000000 (255,131,0)    Long_Dash         2     Y   
BACKUP: 2000.000000 20000000.000000 (255,131,0)    Dot               2    
CURVE: LLD   0.200000   2000.000000 (0,0,0)        Dot               2     Y   
BACKUP: 2000.000000 20000000.000000 (0,0,0)        Dot               2    
ENDTRACK: 
#
#   TRACK 3
#
STARTTRACK: 
 LEFTX: 3.500000 inch
 RIGHTX: 8.500000 inch
 SCALETYPE: Linear
 NUMCHARTDIVISIONS: 10
CURVE: RHOZ  2.000000   3.000000   (255,255,0)    Solid             2     N    
CURVE: PEFZ  0.000000   10.000000  (0,0,255)      Dot               2     N    
CURVE: ENPH  0.300000   -0.100000  (0,131,131)    Short_Dash        2     N    
CURVE: DPHZ  0.300000   -0.100000  (255,0,255)    Medium_Dash       2     N    
CURVE: TEMP  80.000000  90.000000  (255,0,0)      Long_Dash         2     Y    
BACKUP: 90.000000  100.000000 (255,0,0)      Long_Dash         2    
BACKUP: 100.000000 110.000000 (255,0,0)      Long_Dash         2    
BACKUP: 110.000000 120.000000 (255,0,0)      Long_Dash         2    
CURVE: AUD1  0.000000   500.000000 (255,131,0)    Short_Dash/Dot    2     N    
CURVE: AUD2  500.000000 0.000000   (255,255,0)    Medium_Dash/Dot   2     N    
CURVE: NPHI  0.300000   -0.100000  (0,0,255)      Solid             2     Y    
BACKUP: 0.700000   0.300000   (0,0,255)      Solid             2    
ENDTRACK: 
#
#   TRACK 4
#
STARTTRACK: 
 LEFTX: 6.000000 inch
 RIGHTX: 8.500000 inch
 SCALETYPE: Linear
 NUMCHARTDIVISIONS: 10
CURVE: RHOC  0.450000   -0.050000  (255,131,0)    Solid             2     Y    
BACKUP: -0.050000  -0.550000  (255,131,0)    Solid             2    
BACKUP: 0.950000   0.450000   (255,131,0)    Solid             2    
CURVE: COHS  -1.000000  9.000000   (0,131,131)    Solid             2     N    
CURVE: COHC  0.000000   10.000000  (255,0,255)    Dot               2     N    
ENDTRACK: 
<DescLogPlotEnd>
<Merge Data>
 Curve Name   Start    Splice   Stop    
 GR1 DA1 SA1  70.0     N/A      14660.0 
 TEN1 DA1 SA2 70.0     N/A      14660.0 
 CALI1 DA1 SA3 70.0     N/A      14660.0 
 TDELTAT1 DA1 SA4 70.0     N/A      10050.0 
 RHOZ1 DA3 SA1 70.0     N/A      14660.0 
 PEFZ1 DA3 SA2 70.0     N/A      14660.0 
 ENPH1 DA3 SA3 70.0     N/A      10050.0 
 DPHZ1 DA3 SA4 70.0     N/A      10050.0 
 TEMP1 DA3 SA5 70.0     N/A      10050.0 
 AUD11 DA3 SA6 70.0     N/A      10050.0 
 AUD21 DA3 SA7 70.0     N/A      10050.0 
 RHOC1 DA4 SA1 70.0     N/A      14660.0 
 NPHI1 DA3 SA8 70.0     N/A      14660.0 
 AHF901 DA2 SA1 70.0     N/A      10050.0 
 AHF601 DA2 SA2 70.0     N/A      10050.0 
 HRM1 DA1 SA5 70.0     N/A      12950.0 
 RXOZ1 DA2 SA3 70.0     N/A      12950.0 
 LLS1 DA2 SA4 70.0     N/A      12950.0 
 LLD1 DA2 SA5 70.0     N/A      12950.0 
 HD1 DA1 SA1  4680.0   N/A      10030.0 
 COHS1 DA2 SA1 4680.0   N/A      10030.0 
 COHC1 DA2 SA2 4680.0   N/A      10030.0 
</Merge Data>
~A DEPTH     GR               TEN              CALI             TDELTAT             RHOZ             PEFZ             ENPH             DPHZ             TEMP             AUD1             AUD2             RHOC             NPHI             AHF90             AHF60             HRM              RXOZ             LLS              LLD              HD               COHS             COHC            
# ...
    3325.000 146.23           2847.08          12.04            0.01             2.66             3.71             0.10             0.05             97.62            61.75            4.07             0.00             -999.25          45.43            45.43            -999.25          -999.25          -999.25          -999.25          -999.25          -999.25          -999.25         
    3325.500 151.83           2847.08          12.04            0.01             2.67             3.69             0.10             0.03             97.61            69.61            4.26             0.00             -999.25          45.43            45.43            -999.25          -999.25          -999.25          -999.25          -999.25          -999.25          -999.25         
    3326.000 152.63           2847.08          12.04            0.01             2.67             3.68             0.11             0.03             97.61            74.76            6.64             -0.01            -999.25          45.43            45.43            -999.25          -999.25          -999.25          -999.25          -999.25          -999.25          -999.25         
    3326.500 149.95           2847.08          12.04            0.01             2.67             3.66             0.11             0.03             97.61            81.51            8.27             -0.01            -999.25          45.43            45.43            -999.25          -999.25          -999.25          -999.25          -999.25          -999.25          -999.25         
    3327.000 145.85           2847.08          12.04            0.01             2.67             3.64             0.11             0.04             97.62            70.58            9.77             -0.01            -999.25          45.43            45.43            -999.25          -999.25          -999.25          -999.25          -999.25          -999.25          -999.25         
    3327.500 146.35           2847.08          12.04            0.01             2.65             3.62             0.11             0.04             97.62            59.35            15.78            -0.01            -999.25          44.60            44.60            -999.25          -999.25          -999.25          -999.25          -999.25          -999.25          -999.25         
    3328.000 151.24           2847.08          12.04            0.01             2.65             3.62             0.11             0.04             97.66            58.25            14.52            0.00             -999.25          43.70            43.70            -999.25          -999.25          -999.25          -999.25          -999.25          -999.25          -999.25         
    3328.500 153.85           2847.08          12.04            0.01             2.65             3.65             0.10             0.05             97.67            55.93            11.27            -0.01            -999.25          42.99            42.99            -999.25          -999.25          -999.25          -999.25          -999.25          -999.25          -999.25         
    3329.000 149.54           2847.08          12.04            0.01             2.62             3.68             0.10             0.05             97.68            50.93            4.26             0.00             -999.25          41.43            41.43            -999.25          -999.25          -999.25          -999.25          -999.25          -999.25          -999.25         
    3329.500 140.97           2847.08          12.04            0.01             2.63             3.70             0.10             0.05             97.69            49.09            3.76             0.00             -999.25          41.05            41.05            -999.25          -999.25          -999.25          -999.25          -999.25          -999.25          -999.25         
    3330.000 138.00           2847.08          12.04            0.01             2.65             3.66             0.10             0.04             97.70            54.65            4.26             0.00             -999.25          41.43            41.43            -999.25          -999.25          -999.25          -999.25          -999.25          -999.25          -999.25         
    3330.500 136.11           2847.08          12.04            0.01             2.65             3.63             0.10             0.04             97.70            59.31            4.26             0.00             -999.25          41.43            41.43            -999.25          -999.25          -999.25          -999.25          -999.25          -999.25          -999.25         
    3331.000 137.78           2847.08          12.04            0.01             2.66             3.60             0.10             0.04             97.70            56.92            4.26             0.00             -999.25          41.43            41.43            -999.25          -999.25          -999.25          -999.25          -999.25          -999.25          -999.25         
    3331.500 139.09           2847.08          12.04            0.01             2.66             3.58             0.10             0.03             97.71            57.40            4.27             0.00             -999.25          41.43            41.43            -999.25          -999.25          -999.25          -999.25          -999.25          -999.25          -999.25         
    3332.000 143.95           2847.08          12.04            0.01             2.66             3.57             0.10             0.03             97.71            55.70            3.90             0.00             -999.25          41.43            41.43            -999.25          -999.25          -999.25          -999.25          -999.25          -999.25          -999.25         
    3332.500 147.71           2847.08          12.03            0.01             2.67             3.59             0.10             0.03             97.71            51.48            4.60             -0.01            -999.25          41.42            41.42            -999.25          -999.25          -999.25          -999.25          -999.25          -999.25          -999.25         
    3333.000 149.81           2847.08          12.03            0.01             2.67             3.60             0.11             0.03             97.72            53.72            6.30             -0.01            -999.25          41.73            41.73            -999.25          -999.25          -999.25          -999.25          -999.25          -999.25          -999.25         
    3333.500 148.84           2847.08          12.03            0.01             2.67             3.61             0.11             0.02             97.75            48.85            6.54             0.00             -999.25          41.43            41.43            -999.25          -999.25          -999.25          -999.25          -999.25          -999.25          -999.25         
    3334.000 145.92           2847.08          12.03            0.01             2.68             3.63             0.11             0.02             97.79            42.02            6.41             0.00             -999.25          41.82            41.82            -999.25          -999.25          -999.25          -999.25          -999.25          -999.25          -999.25         
    3334.500 143.49           2847.08          12.03            0.01             2.67             3.64             0.11             0.02             97.79            39.68            5.76             0.01             -999.25          42.59            42.59            -999.25          -999.25          -999.25          -999.25          -999.25          -999.25          -999.25         
    3335.000 143.43           2847.08          12.03            0.01             2.68             3.59             0.11             0.02             97.77            49.83            5.76             0.01             -999.25          42.60            42.60            -999.25          -999.25          -999.25          -999.25          -999.25          -999.25          -999.25         
