~Version Information Block
 VERS.                2.00:     CWLS LOG ASCII STANDARD - VERSION 2.000000
 WRAP.                  NO:     One Line Per Depth Step
#
~Well Information Block
#MNEM.UNIT                     Data                         Information
#----------   ------------------------------------------   ----------------
 STRT.FT                                       70.0000:     START DEPTH
 STOP.FT                                    10050.0000:     STOP DEPTH
 STEP.FT                                        0.5000:     STEP
 NULL.                                       -999.2500:     NULL VALUE
 COMP.                 Columbia Natural Resources, Inc:     COMPANY
 WELL.                         Gertrude Harbin #824457:     WELL
 FLD .                                        Rockport:     FIELD
 LOC .                                                :     LOCATION
 LONG.                                  -81.6230090000:     LONGITUDE
 LATI.                                   38.9667430000:     LATITUDE
 CNTY.                                         Jackson:     COUNTY
 STAT.                                              WV:     STATE
 CTRY.                                             USA:     COUNTRY
 SRVC.                                    Schlumberger:     SERVICE COMPANY
 DATE.                                                :     DATE
 API .                                      4703502482:     API NUMBER
 UWI .                                      4703502482:     UWI NUMBER
 SLAT.                                       38.966743:     Surface latitude
 SLON.                                      -81.623009:     surface longitude
 TVD .                                              NO:     TVD flag
 WSTA.                                             LOC:     Well status
#
~Curve Information Block
#MNEM.UNIT       API CODE      Curve Description
#----------    -------------   -------------------
 DEPT.FT                   :   Depth in Feet
 GR  .GAPI     35 310 01 01:   Gamma Ray
 TEN .LBF                  :   
 CALI.IN       70 280 01 01:   Caliper
 TDELTAT.DC/K                 :   
 RHOZ.G/C3                 :   Standard Res Formation Density
 PEFZ.B/E                  :   Standard Res Formation Photo-electric
 ENPH.V/V                  :   Epithermal Neutron Porosity
 DPHZ.V/V                  :   Std. Res. Density Porosity
 TEMP.DEGF                 :   Temperature
 AUD1.MV                   :   
 AUD2.MV                   :   
 RHOC.G/C3                 :   Density Correction
 NPHI.V/V      42 890 03 01:   Neutron Porosity
 AHF90.OHMM                 :   AIT-H 90 Inch Investigation
 AHF60.OHMM                 :   AHF60
 HRM .OHMM                 :   Filtered Mud Resistivity from Deep Measure
 RXOZ.OHMM                 :   Standard Res Invaded Zone Resistivity
 LLS .OHMM     10 220 09 01:   Latero-Log Shallow (Resistivity)
 LLD .OHMM     10 220 10 01:   LLD
 HD  .IN                   :   Hole Diameter
 COHS.----                 :   Coherence Value At Shear Peak
 COHC.----                 :   Coherence Value At Compressional Peak
#
~Parameter Information Block
#MNEM.UNIT            Value               Description
#----------    --------------------    -------------------
 DATE.                   4/20/2001:    Date As Month-Day-Year
 RUN .                         ONE:    Run Number
 PDAT.                          GL:    Permanent Datum
 EPD .FT                  705.0000:    Elevation Of Perm. Datum
 LMF .                          KB:    Log Measured From
 FAPD.FT                   15.0000:    Feet Above Perm. Datum
 DMF .                          KB:    Drilling Measured From
 EKB .FT                  720.0000:    Elevation Of Kelly Bushing
 EDF .FT                  719.0000:    Elevation Of Derrick Floor
 EGL .FT                  705.0000:    Elevation Of Ground Level
 TD  .FT                10035.0000:    Total Depth
 DD  .FT                 5122.0000:    Depth Driller
 DL  .FT                 5122.0000:    Depth Logger
 BLI .FT                 5104.0000:    Bottom Log Interval
 TLI .FT                    0.0000:    Top Log Interval
 DFT .                         AIR:    Drilling Fluid Type
 MRT .DEGF                108.0000:    Maximum Recorded Temperature
 DGBY.                          GC:    
 WSTA.                         LOC:    
 NEXT.RUN                         :
 DATE.                   5/12/2001:    Date As Month-Day-Year
 RUN .                         TWO:    Run Number
 DD  .FT                 8429.0000:    Depth Driller
 DL  .FT                 8345.0000:    Depth Logger
 BLI .FT                 8327.0000:    Bottom Log Interval
 TLI .FT                 5104.0000:    Top Log Interval
 DFT .                     KCL Mud:    Drilling Fluid Type
 MRT .DEGF                147.0000:    Maximum Recorded Temperature
 NEXT.RUN                         :
 DATE.                   5/25/2001:    Date As Month-Day-Year
 RUN .                       THREE:    Run Number
 DD  .FT                10073.0000:    Depth Driller
 DL  .FT                10035.0000:    Depth Logger
 BLI .FT                10030.0000:    Bottom Log Interval
 TLI .FT                 8100.0000:    Top Log Interval
 DFT .                      3% KCL:    Drilling Fluid Type
 MRT .DEGF                168.0000:    Maximum Recorded Temperature
#
~Other Information Block
<DescLogPlotStart>   NEURALOG PLOT DEFINITION
PLOTDEFVERSION: 3
LASFILE: C:\Documents and Settings\gcase.WVGS\Desktop\PriorityWells\Jackson\470
DEPTHSCALE: 239.999996
RESOLUTION: 200
DEPTHLABELFREQ: 100.000000
HEAVYGRIDFREQ: 100.000000
MEDIUMGRIDFREQ: 50.000000
LIGHTGRIDFREQ: 10.000000
#
#   TRACK 1
#
STARTTRACK: 
 LEFTX: 0.500000 inch
 RIGHTX: 3.000000 inch
 SCALETYPE: Linear
 NUMCHARTDIVISIONS: 10
CURVE: GR    0.000000   200.000000 (0,0,255)      Solid             2     Y    
BACKUP: 200.000000 400.000000 (0,0,255)      Solid             2    
BACKUP: 400.000000 600.000000 (0,0,255)      Solid             2    
CURVE: TEN   10000.000000 0.000000   (0,131,131)    Dot               2     N  
CURVE: CALI  5.000000   15.000000  (255,0,255)    Short_Dash        2     N    
CURVE: TDELTAT -1.000000  1.000000   (255,0,0)      Medium_Dash       2     Y  
BACKUP: -3.000000  -1.000000  (255,0,0)      Medium_Dash       2    
BACKUP: 1.000000   3.000000   (255,0,0)      Medium_Dash       2    
CURVE: HRM   0.000000   0.200000   (255,0,255)    Solid             2     N    
CURVE: HD    7.000000   17.000000  (0,0,255)      Solid             2     N    
ENDTRACK: 
#
#   TRACK 2
#
STARTTRACK: 
 LEFTX: 3.500000 inch
 RIGHTX: 6.000000 inch
 SCALETYPE: Log
 NUMCYCLES: 4
 STARTCYCLE: 2
CURVE: AHF90 0.200000   2000.000000 (0,0,255)      Dot               2     N   
CURVE: AHF60 0.200000   2000.000000 (0,131,131)    Short_Dash        2     N   
CURVE: RXOZ  0.200000   2000.000000 (255,0,0)      Solid             2     Y   
BACKUP: 2000.000000 20000000.000000 (255,0,0)      Solid             2    
CURVE: LLS   0.200000   2000.000000 (255,131,0)    Long_Dash         2     Y   
BACKUP: 2000.000000 20000000.000000 (255,131,0)    Dot               2    
CURVE: LLD   0.200000   2000.000000 (0,0,0)        Dot               2     Y   
BACKUP: 2000.000000 20000000.000000 (0,0,0)        Dot               2    
ENDTRACK: 
#
#   TRACK 3
#
STARTTRACK: 
 LEFTX: 3.500000 inch
 RIGHTX: 8.500000 inch
 SCALETYPE: Linear
 NUMCHARTDIVISIONS: 10
CURVE: RHOZ  2.000000   3.000000   (255,255,0)    Solid             2     N    
CURVE: PEFZ  0.000000   10.000000  (0,0,255)      Dot               2     N    
CURVE: ENPH  0.300000   -0.100000  (0,131,131)    Short_Dash        2     N    
CURVE: DPHZ  0.300000   -0.100000  (255,0,255)    Medium_Dash       2     N    
CURVE: TEMP  80.000000  90.000000  (255,0,0)      Long_Dash         2     Y    
BACKUP: 90.000000  100.000000 (255,0,0)      Long_Dash         2    
BACKUP: 100.000000 110.000000 (255,0,0)      Long_Dash         2    
BACKUP: 110.000000 120.000000 (255,0,0)      Long_Dash         2    
CURVE: AUD1  0.000000   500.000000 (255,131,0)    Short_Dash/Dot    2     N    
CURVE: AUD2  500.000000 0.000000   (255,255,0)    Medium_Dash/Dot   2     N    
CURVE: NPHI  0.300000   -0.100000  (0,0,255)      Solid             2     Y    
BACKUP: 0.700000   0.300000   (0,0,255)      Solid             2    
ENDTRACK: 
#
#   TRACK 4
#
STARTTRACK: 
 LEFTX: 6.000000 inch
 RIGHTX: 8.500000 inch
 SCALETYPE: Linear
 NUMCHARTDIVISIONS: 10
CURVE: RHOC  0.450000   -0.050000  (255,131,0)    Solid             2     Y    
BACKUP: -0.050000  -0.550000  (255,131,0)    Solid             2    
BACKUP: 0.950000   0.450000   (255,131,0)    Solid             2    
CURVE: COHS  -1.000000  9.000000   (0,131,131)    Solid             2     N    
CURVE: COHC  0.000000   10.000000  (255,0,255)    Dot               2     N    
ENDTRACK: 
<DescLogPlotEnd>
<Merge Data>
 Curve Name   Start    Splice   Stop    
 GR1 DA1 SA1  70.0     N/A      14660.0 
 TEN1 DA1 SA2 70.0     N/A      14660.0 
 CALI1 DA1 SA3 70.0     N/A      14660.0 
 TDELTAT1 DA1 SA4 70.0     N/A      10050.0 
 RHOZ1 DA3 SA1 70.0     N/A      14660.0 
 PEFZ1 DA3 SA2 70.0     N/A      14660.0 
 ENPH1 DA3 SA3 70.0     N/A      10050.0 
 DPHZ1 DA3 SA4 70.0     N/A      10050.0 
 TEMP1 DA3 SA5 70.0     N/A      10050.0 
 AUD11 DA3 SA6 70.0     N/A      10050.0 
 AUD21 DA3 SA7 70.0     N/A      10050.0 
 RHOC1 DA4 SA1 70.0     N/A      14660.0 
 NPHI1 DA3 SA8 70.0     N/A      14660.0 
 AHF901 DA2 SA1 70.0     N/A      10050.0 
 AHF601 DA2 SA2 70.0     N/A      10050.0 
 HRM1 DA1 SA5 70.0     N/A      12950.0 
 RXOZ1 DA2 SA3 70.0     N/A      12950.0 
 LLS1 DA2 SA4 70.0     N/A      12950.0 
 LLD1 DA2 SA5 70.0     N/A      12950.0 
 HD1 DA1 SA1  4680.0   N/A      10030.0 
 COHS1 DA2 SA1 4680.0   N/A      10030.0 
 COHC1 DA2 SA2 4680.0   N/A      10030.0 
</Merge Data>
~A DEPTH     GR               TEN              CALI             TDELTAT             RHOZ             PEFZ             ENPH             DPHZ             TEMP             AUD1             AUD2             RHOC             NPHI             AHF90             AHF60             HRM              RXOZ             LLS              LLD              HD               COHS             COHC            
# ...
    5414.500 27.46            296.46           9.16             -999.25          2.82             3.37             -999.25          -999.25          -999.25          -999.25          -999.25          0.01             0.04             -999.25          -999.25          0.14             294.69           960.27           960.27           9.04             0.61             0.50            
    5415.000 29.34            297.30           9.15             -999.25          2.83             3.42             -999.25          -999.25          -999.25          -999.25          -999.25          0.01             0.04             -999.25          -999.25          0.14             305.51           1005.62          1005.62          9.04             0.59             0.50            
    5415.500 30.01            298.13           9.14             -999.25          2.82             3.46             -999.25          -999.25          -999.25          -999.25          -999.25          0.01             0.04             -999.25          -999.25          0.14             317.27           1102.84          1102.84          9.04             0.63             0.52            
    5416.000 29.89            298.97           9.14             -999.25          2.81             3.55             -999.25          -999.25          -999.25          -999.25          -999.25          0.01             0.04             -999.25          -999.25          0.14             311.47           1165.63          1165.63          9.04             0.65             0.54            
    5416.500 29.54            299.80           9.13             -999.25          2.80             3.62             -999.25          -999.25          -999.25          -999.25          -999.25          0.01             0.04             -999.25          -999.25          0.14             341.58           1314.21          1314.21          9.04             0.65             0.54            
    5417.000 30.19            300.63           9.12             -999.25          2.80             3.53             -999.25          -999.25          -999.25          -999.25          -999.25          0.00             0.04             -999.25          -999.25          0.14             335.34           1798.61          1798.61          9.04             0.65             0.52            
    5417.500 31.12            301.47           9.11             -999.25          2.80             3.30             -999.25          -999.25          -999.25          -999.25          -999.25          0.00             0.04             -999.25          -999.25          0.14             311.47           1243.42          1243.42          9.04             0.65             0.48            
    5418.000 32.17            302.30           9.11             -999.25          2.79             3.20             -999.25          -999.25          -999.25          -999.25          -999.25          0.00             0.04             -999.25          -999.25          0.14             278.96           1123.39          1123.39          9.07             0.63             0.46            
    5418.500 33.50            303.14           9.10             -999.25          2.78             3.20             -999.25          -999.25          -999.25          -999.25          -999.25          0.00             0.04             -999.25          -999.25          0.14             245.02           1082.67          1082.67          9.08             0.60             0.46            
    5419.000 33.60            303.97           9.09             -999.25          2.79             3.20             -999.25          -999.25          -999.25          -999.25          -999.25          0.01             0.04             -999.25          -999.25          0.14             202.24           908.54           908.54           9.08             0.55             0.48            
    5419.500 33.17            304.80           9.08             -999.25          2.79             3.20             -999.25          -999.25          -999.25          -999.25          -999.25          0.00             0.04             -999.25          -999.25          0.14             120.41           329.68           329.68           9.08             0.50             0.50            
    5420.000 35.22            305.64           9.09             -999.25          2.78             3.21             -999.25          -999.25          -999.25          -999.25          -999.25          0.00             0.05             -999.25          -999.25          0.14             131.58           78.74            78.74            9.15             0.47             0.52            
    5420.500 41.00            306.47           9.00             -999.25          2.75             3.34             -999.25          -999.25          -999.25          -999.25          -999.25          0.00             0.06             -999.25          -999.25          0.14             60.82            78.74            68.56            9.14             0.47             0.54            
    5421.000 50.74            305.86           9.00             -999.25          2.75             3.62             -999.25          -999.25          -999.25          -999.25          -999.25          -0.01            0.08             -999.25          -999.25          0.14             44.85            78.74            68.32            9.15             0.49             0.54            
    5421.500 62.45            304.10           9.00             -999.25          2.78             3.91             -999.25          -999.25          -999.25          -999.25          -999.25          0.01             0.10             -999.25          -999.25          0.14             43.62            83.23            69.79            9.18             0.49             0.52            
    5422.000 65.22            302.35           9.00             -999.25          2.81             4.09             -999.25          -999.25          -999.25          -999.25          -999.25          0.03             0.11             -999.25          -999.25          0.14             44.43            91.27            71.16            9.18             0.51             0.50            
    5422.500 67.25            300.59           9.05             -999.25          2.83             4.09             -999.25          -999.25          -999.25          -999.25          -999.25          0.04             0.11             -999.25          -999.25          0.14             44.43            95.58            65.77            9.18             0.51             0.48            
    5423.000 70.14            298.79           9.09             -999.25          2.80             4.11             -999.25          -999.25          -999.25          -999.25          -999.25          0.03             0.10             -999.25          -999.25          0.14             64.28            102.91           102.91           9.18             0.49             0.54            
    5423.500 70.73            294.77           9.11             -999.25          2.76             4.16             -999.25          -999.25          -999.25          -999.25          -999.25          0.01             0.09             -999.25          -999.25          0.14             102.91           113.90           113.90           9.18             0.49             0.60            
    5424.000 65.88            294.77           9.13             -999.25          2.79             4.36             -999.25          -999.25          -999.25          -999.25          -999.25          0.00             0.07             -999.25          -999.25          0.14             122.74           157.27           157.38           9.18             0.49             0.66            
    5424.500 54.97            294.77           9.19             -999.25          2.85             4.58             -999.25          -999.25          -999.25          -999.25          -999.25          0.00             0.05             -999.25          -999.25          0.14             147.73           157.01           157.00           9.18             0.47             0.70            
