~Version Information Block
 VERS.                2.00:     CWLS LOG ASCII STANDARD - VERSION 2.000000
 WRAP.                  NO:     One Line Per Depth Step
#
~Well Information Block
#MNEM.UNIT                     Data                         Information
#----------   ------------------------------------------   ----------------
 STRT.FT                                       70.0000:     START DEPTH
 STOP.FT                                    10050.0000:     STOP DEPTH
 STEP.FT                                        0.5000:     STEP
 NULL.                                       -999.2500:     NULL VALUE
 COMP.                 Columbia Natural Resources, Inc:     COMPANY
 WELL.                         Gertrude Harbin #824457:     WELL
 FLD .                                        Rockport:     FIELD
 LOC .                                                :     LOCATION
 LONG.                                  -81.6230090000:     LONGITUDE
 LATI.                                   38.9667430000:     LATITUDE
 CNTY.                                         Jackson:     COUNTY
 STAT.                                              WV:     STATE
 CTRY.                                             USA:     COUNTRY
 SRVC.                                    Schlumberger:     SERVICE COMPANY
 DATE.                                                :     DATE
 API .                                      4703502482:     API NUMBER
 UWI .                                      4703502482:     UWI NUMBER
 SLAT.                                       38.966743:     Surface latitude
 SLON.                                      -81.623009:     surface longitude
 TVD .                                              NO:     TVD flag
 WSTA.                                             LOC:     Well status
#
~Curve Information Block
#MNEM.UNIT       API CODE      Curve Description
#----------    -------------   -------------------
 DEPT.FT                   :   Depth in Feet
 GR  .GAPI     35 310 01 01:   Gamma Ray
 TEN .LBF                  :   
 CALI.IN       70 280 01 01:   Caliper
 TDELTAT.DC/K                 :   
 RHOZ.G/C3                 :   Standard Res Formation Density
 PEFZ.B/E                  :   Standard Res Formation Photo-electric
 ENPH.V/V                  :   Epithermal Neutron Porosity
 DPHZ.V/V                  :   Std. Res. Density Porosity
 TEMP.DEGF                 :   Temperature
 AUD1.MV                   :   
 AUD2.MV                   :   
 RHOC.G/C3                 :   Density Correction
 NPHI.V/V      42 890 03 01:   Neutron Porosity
 AHF90.OHMM                 :   AIT-H 90 Inch Investigation
 AHF60.OHMM                 :   AHF60
 HRM .OHMM                 :   Filtered Mud Resistivity from Deep Measure
 RXOZ.OHMM                 :   Standard Res Invaded Zone Resistivity
 LLS .OHMM     10 220 09 01:   Latero-Log Shallow (Resistivity)
 LLD .OHMM     10 220 10 01:   LLD
 HD  .IN                   :   Hole Diameter
 COHS.----                 :   Coherence Value At Shear Peak
 COHC.----                 :   Coherence Value At Compressional Peak
#
~Parameter Information Block
#MNEM.UNIT            Value               Description
#----------    --------------------    -------------------
 DATE.                   4/20/2001:    Date As Month-Day-Year
 RUN .                         ONE:    Run Number
 PDAT.                          GL:    Permanent Datum
 EPD .FT                  705.0000:    Elevation Of Perm. Datum
 LMF .                          KB:    Log Measured From
 FAPD.FT                   15.0000:    Feet Above Perm. Datum
 DMF .                          KB:    Drilling Measured From
 EKB .FT                  720.0000:    Elevation Of Kelly Bushing
 EDF .FT                  719.0000:    Elevation Of Derrick Floor
 EGL .FT                  705.0000:    Elevation Of Ground Level
 TD  .FT                10035.0000:    Total Depth
 DD  .FT                 5122.0000:    Depth Driller
 DL  .FT                 5122.0000:    Depth Logger
 BLI .FT                 5104.0000:    Bottom Log Interval
 TLI .FT                    0.0000:    Top Log Interval
 DFT .                         AIR:    Drilling Fluid Type
 MRT .DEGF                108.0000:    Maximum Recorded Temperature
 DGBY.                          GC:    
 WSTA.                         LOC:    
 NEXT.RUN                         :
 DATE.                   5/12/2001:    Date As Month-Day-Year
 RUN .                         TWO:    Run Number
 DD  .FT                 8429.0000:    Depth Driller
 DL  .FT                 8345.0000:    Depth Logger
 BLI .FT                 8327.0000:    Bottom Log Interval
 TLI .FT                 5104.0000:    Top Log Interval
 DFT .                     KCL Mud:    Drilling Fluid Type
 MRT .DEGF                147.0000:    Maximum Recorded Temperature
 NEXT.RUN                         :
 DATE.                   5/25/2001:    Date As Month-Day-Year
 RUN .                       THREE:    Run Number
 DD  .FT                10073.0000:    Depth Driller
 DL  .FT                10035.0000:    Depth Logger
 BLI .FT                10030.0000:    Bottom Log Interval
 TLI .FT                 8100.0000:    Top Log Interval
 DFT .                      3% KCL:    Drilling Fluid Type
 MRT .DEGF                168.0000:    Maximum Recorded Temperature
#
~Other Information Block
<DescLogPlotStart>   NEURALOG PLOT DEFINITION
PLOTDEFVERSION: 3
LASFILE: C:\Documents and Settings\gcase.WVGS\Desktop\PriorityWells\Jackson\470
DEPTHSCALE: 239.999996
RESOLUTION: 200
DEPTHLABELFREQ: 100.000000
HEAVYGRIDFREQ: 100.000000
MEDIUMGRIDFREQ: 50.000000
LIGHTGRIDFREQ: 10.000000
#
#   TRACK 1
#
STARTTRACK: 
 LEFTX: 0.500000 inch
 RIGHTX: 3.000000 inch
 SCALETYPE: Linear
 NUMCHARTDIVISIONS: 10
CURVE: GR    0.000000   200.000000 (0,0,255)      Solid             2     Y    
BACKUP: 200.000000 400.000000 (0,0,255)      Solid             2    
BACKUP: 400.000000 600.000000 (0,0,255)      Solid             2    
CURVE: TEN   10000.000000 0.000000   (0,131,131)    Dot               2     N  
CURVE: CALI  5.000000   15.000000  (255,0,255)    Short_Dash        2     N    
CURVE: TDELTAT -1.000000  1.000000   (255,0,0)      Medium_Dash       2     Y  
BACKUP: -3.000000  -1.000000  (255,0,0)      Medium_Dash       2    
BACKUP: 1.000000   3.000000   (255,0,0)      Medium_Dash       2    
CURVE: HRM   0.000000   0.200000   (255,0,255)    Solid             2     N    
CURVE: HD    7.000000   17.000000  (0,0,255)      Solid             2     N    
ENDTRACK: 
#
#   TRACK 2
#
STARTTRACK: 
 LEFTX: 3.500000 inch
 RIGHTX: 6.000000 inch
 SCALETYPE: Log
 NUMCYCLES: 4
 STARTCYCLE: 2
CURVE: AHF90 0.200000   2000.000000 (0,0,255)      Dot               2     N   
CURVE: AHF60 0.200000   2000.000000 (0,131,131)    Short_Dash        2     N   
CURVE: RXOZ  0.200000   2000.000000 (255,0,0)      Solid             2     Y   
BACKUP: 2000.000000 20000000.000000 (255,0,0)      Solid             2    
CURVE: LLS   0.200000   2000.000000 (255,131,0)    Long_Dash         2     Y   
BACKUP: 2000.000000 20000000.000000 (255,131,0)    Dot               2    
CURVE: LLD   0.200000   2000.000000 (0,0,0)        Dot               2     Y   
BACKUP: 2000.000000 20000000.000000 (0,0,0)        Dot               2    
ENDTRACK: 
#
#   TRACK 3
#
STARTTRACK: 
 LEFTX: 3.500000 inch
 RIGHTX: 8.500000 inch
 SCALETYPE: Linear
 NUMCHARTDIVISIONS: 10
CURVE: RHOZ  2.000000   3.000000   (255,255,0)    Solid             2     N    
CURVE: PEFZ  0.000000   10.000000  (0,0,255)      Dot               2     N    
CURVE: ENPH  0.300000   -0.100000  (0,131,131)    Short_Dash        2     N    
CURVE: DPHZ  0.300000   -0.100000  (255,0,255)    Medium_Dash       2     N    
CURVE: TEMP  80.000000  90.000000  (255,0,0)      Long_Dash         2     Y    
BACKUP: 90.000000  100.000000 (255,0,0)      Long_Dash         2    
BACKUP: 100.000000 110.000000 (255,0,0)      Long_Dash         2    
BACKUP: 110.000000 120.000000 (255,0,0)      Long_Dash         2    
CURVE: AUD1  0.000000   500.000000 (255,131,0)    Short_Dash/Dot    2     N    
CURVE: AUD2  500.000000 0.000000   (255,255,0)    Medium_Dash/Dot   2     N    
CURVE: NPHI  0.300000   -0.100000  (0,0,255)      Solid             2     Y    
BACKUP: 0.700000   0.300000   (0,0,255)      Solid             2    
ENDTRACK: 
#
#   TRACK 4
#
STARTTRACK: 
 LEFTX: 6.000000 inch
 RIGHTX: 8.500000 inch
 SCALETYPE: Linear
 NUMCHARTDIVISIONS: 10
CURVE: RHOC  0.450000   -0.050000  (255,131,0)    Solid             2     Y    
BACKUP: -0.050000  -0.550000  (255,131,0)    Solid             2    
BACKUP: 0.950000   0.450000   (255,131,0)    Solid             2    
CURVE: COHS  -1.000000  9.000000   (0,131,131)    Solid             2     N    
CURVE: COHC  0.000000   10.000000  (255,0,255)    Dot               2     N    
ENDTRACK: 
<DescLogPlotEnd>
<Merge Data>
 Curve Name   Start    Splice   Stop    
 GR1 DA1 SA1  70.0     N/A      14660.0 
 TEN1 DA1 SA2 70.0     N/A      14660.0 
 CALI1 DA1 SA3 70.0     N/A      14660.0 
 TDELTAT1 DA1 SA4 70.0     N/A      10050.0 
 RHOZ1 DA3 SA1 70.0     N/A      14660.0 
 PEFZ1 DA3 SA2 70.0     N/A      14660.0 
 ENPH1 DA3 SA3 70.0     N/A      10050.0 
 DPHZ1 DA3 SA4 70.0     N/A      10050.0 
 TEMP1 DA3 SA5 70.0     N/A      10050.0 
 AUD11 DA3 SA6 70.0     N/A      10050.0 
 AUD21 DA3 SA7 70.0     N/A      10050.0 
 RHOC1 DA4 SA1 70.0     N/A      14660.0 
 NPHI1 DA3 SA8 70.0     N/A      14660.0 
 AHF901 DA2 SA1 70.0     N/A      10050.0 
 AHF601 DA2 SA2 70.0     N/A      10050.0 
 HRM1 DA1 SA5 70.0     N/A      12950.0 
 RXOZ1 DA2 SA3 70.0     N/A      12950.0 
 LLS1 DA2 SA4 70.0     N/A      12950.0 
 LLD1 DA2 SA5 70.0     N/A      12950.0 
 HD1 DA1 SA1  4680.0   N/A      10030.0 
 COHS1 DA2 SA1 4680.0   N/A      10030.0 
 COHC1 DA2 SA2 4680.0   N/A      10030.0 
</Merge Data>
~A DEPTH     GR               TEN              CALI             TDELTAT             RHOZ             PEFZ             ENPH             DPHZ             TEMP             AUD1             AUD2             RHOC             NPHI             AHF90             AHF60             HRM              RXOZ             LLS              LLD              HD               COHS             COHC            
# ...
    5834.500 42.53            306.84           9.21             -999.25          2.85             3.63             -999.25          -999.25          -999.25          -999.25          -999.25          0.01             0.03             -999.25          -999.25          0.14             192.75           297.42           297.42           9.14             0.08             0.35            
    5835.000 44.99            306.84           9.18             -999.25          2.85             3.64             -999.25          -999.25          -999.25          -999.25          -999.25          0.01             0.03             -999.25          -999.25          0.14             174.14           266.50           266.50           9.14             0.09             0.37            
    5835.500 43.87            306.84           9.13             -999.25          2.85             3.65             -999.25          -999.25          -999.25          -999.25          -999.25          0.01             0.03             -999.25          -999.25          0.14             158.79           243.82           243.82           9.19             0.10             0.38            
    5836.000 42.09            306.84           9.10             -999.25          2.83             3.65             -999.25          -999.25          -999.25          -999.25          -999.25          0.01             0.03             -999.25          -999.25          0.14             170.96           364.06           364.06           9.18             0.17             0.40            
    5836.500 40.74            306.84           9.04             -999.25          2.81             3.61             -999.25          -999.25          -999.25          -999.25          -999.25          0.01             0.04             -999.25          -999.25          0.14             184.06           433.22           433.22           9.22             0.24             0.42            
    5837.000 42.03            306.84           9.05             -999.25          2.79             3.55             -999.25          -999.25          -999.25          -999.25          -999.25          0.00             0.04             -999.25          -999.25          0.14             196.34           372.48           372.48           9.27             0.29             0.44            
    5837.500 45.63            306.84           8.96             -999.25          2.79             3.50             -999.25          -999.25          -999.25          -999.25          -999.25          0.00             0.05             -999.25          -999.25          0.14             196.34           304.04           304.04           9.29             0.28             0.46            
    5838.000 48.89            306.84           8.96             -999.25          2.83             3.46             -999.25          -999.25          -999.25          -999.25          -999.25          0.00             0.06             -999.25          -999.25          0.14             184.06           245.02           245.02           9.34             0.25             0.46            
    5838.500 47.18            306.84           8.96             -999.25          2.84             3.44             -999.25          -999.25          -999.25          -999.25          -999.25          0.00             0.06             -999.25          -999.25          0.14             124.92           217.32           217.32           9.38             0.17             0.46            
    5839.000 44.15            306.84           9.04             -999.25          2.86             3.46             -999.25          -999.25          -999.25          -999.25          -999.25          -0.01            0.06             -999.25          -999.25          0.14             110.79           192.75           192.75           9.43             0.10             0.46            
    5839.500 41.95            306.84           9.09             -999.25          2.83             3.50             -999.25          -999.25          -999.25          -999.25          -999.25          -0.02            0.06             -999.25          -999.25          0.14             106.78           179.03           179.03           9.42             0.09             0.46            
    5840.000 52.47            306.84           9.08             -999.25          2.81             3.54             -999.25          -999.25          -999.25          -999.25          -999.25          -0.02            0.06             -999.25          -999.25          0.14             106.78           170.96           170.96           9.42             0.09             0.46            
    5840.500 62.12            306.84           9.08             -999.25          2.81             3.57             -999.25          -999.25          -999.25          -999.25          -999.25          -0.02            0.07             -999.25          -999.25          0.14             118.19           164.76           164.76           9.42             0.09             0.43            
    5841.000 65.27            306.84           9.08             -999.25          2.81             3.62             -999.25          -999.25          -999.25          -999.25          -999.25          -0.01            0.07             -999.25          -999.25          0.14             109.46           158.79           158.79           9.42             0.09             0.34            
    5841.500 67.00            306.84           9.06             -999.25          2.82             3.65             -999.25          -999.25          -999.25          -999.25          -999.25          0.00             0.07             -999.25          -999.25          0.14             163.27           187.26           187.26           9.42             0.10             0.22            
    5842.000 67.88            306.84           9.01             -999.25          2.81             3.68             -999.25          -999.25          -999.25          -999.25          -999.25          0.00             0.10             -999.25          -999.25          0.14             135.76           226.44           226.44           9.42             0.23             0.21            
    5842.500 69.23            306.84           8.95             -999.25          2.80             3.68             -999.25          -999.25          -999.25          -999.25          -999.25          0.00             0.10             -999.25          -999.25          0.14             227.58           254.65           254.65           9.42             0.31             0.39            
    5843.000 69.61            306.84           8.96             -999.25          2.79             3.61             -999.25          -999.25          -999.25          -999.25          -999.25          -0.01            0.10             -999.25          -999.25          0.14             178.21           254.13           254.13           9.42             0.31             0.56            
    5843.500 66.59            306.84           9.00             -999.25          2.79             3.54             -999.25          -999.25          -999.25          -999.25          -999.25          -0.01            0.10             -999.25          -999.25          0.14             151.63           253.98           253.98           9.42             0.29             0.62            
    5844.000 60.83            306.84           9.00             -999.25          2.80             3.44             -999.25          -999.25          -999.25          -999.25          -999.25          -0.01            0.10             -999.25          -999.25          0.14             135.60           255.06           255.06           9.42             0.36             0.61            
    5844.500 54.66            306.84           9.00             -999.25          2.81             3.34             -999.25          -999.25          -999.25          -999.25          -999.25          -0.01            0.09             -999.25          -999.25          0.14             135.74           160.27           160.27           9.42             0.41             0.50            
