~Version Information Block
 VERS.                2.00:     CWLS LOG ASCII STANDARD - VERSION 2.000000
 WRAP.                  NO:     One Line Per Depth Step
#
~Well Information Block
#MNEM.UNIT                     Data                         Information
#----------   ------------------------------------------   ----------------
 STRT.FT                                       70.0000:     START DEPTH
 STOP.FT                                    10050.0000:     STOP DEPTH
 STEP.FT                                        0.5000:     STEP
 NULL.                                       -999.2500:     NULL VALUE
 COMP.                 Columbia Natural Resources, Inc:     COMPANY
 WELL.                         Gertrude Harbin #824457:     WELL
 FLD .                                        Rockport:     FIELD
 LOC .                                                :     LOCATION
 LONG.                                  -81.6230090000:     LONGITUDE
 LATI.                                   38.9667430000:     LATITUDE
 CNTY.                                         Jackson:     COUNTY
 STAT.                                              WV:     STATE
 CTRY.                                             USA:     COUNTRY
 SRVC.                                    Schlumberger:     SERVICE COMPANY
 DATE.                                                :     DATE
 API .                                      4703502482:     API NUMBER
 UWI .                                      4703502482:     UWI NUMBER
 SLAT.                                       38.966743:     Surface latitude
 SLON.                                      -81.623009:     surface longitude
 TVD .                                              NO:     TVD flag
 WSTA.                                             LOC:     Well status
#
~Curve Information Block
#MNEM.UNIT       API CODE      Curve Description
#----------    -------------   -------------------
 DEPT.FT                   :   Depth in Feet
 GR  .GAPI     35 310 01 01:   Gamma Ray
 TEN .LBF                  :   
 CALI.IN       70 280 01 01:   Caliper
 TDELTAT.DC/K                 :   
 RHOZ.G/C3                 :   Standard Res Formation Density
 PEFZ.B/E                  :   Standard Res Formation Photo-electric
 ENPH.V/V                  :   Epithermal Neutron Porosity
 DPHZ.V/V                  :   Std. Res. Density Porosity
 TEMP.DEGF                 :   Temperature
 AUD1.MV                   :   
 AUD2.MV                   :   
 RHOC.G/C3                 :   Density Correction
 NPHI.V/V      42 890 03 01:   Neutron Porosity
 AHF90.OHMM                 :   AIT-H 90 Inch Investigation
 AHF60.OHMM                 :   AHF60
 HRM .OHMM                 :   Filtered Mud Resistivity from Deep Measure
 RXOZ.OHMM                 :   Standard Res Invaded Zone Resistivity
 LLS .OHMM     10 220 09 01:   Latero-Log Shallow (Resistivity)
 LLD .OHMM     10 220 10 01:   LLD
 HD  .IN                   :   Hole Diameter
 COHS.----                 :   Coherence Value At Shear Peak
 COHC.----                 :   Coherence Value At Compressional Peak
#
~Parameter Information Block
#MNEM.UNIT            Value               Description
#----------    --------------------    -------------------
 DATE.                   4/20/2001:    Date As Month-Day-Year
 RUN .                         ONE:    Run Number
 PDAT.                          GL:    Permanent Datum
 EPD .FT                  705.0000:    Elevation Of Perm. Datum
 LMF .                          KB:    Log Measured From
 FAPD.FT                   15.0000:    Feet Above Perm. Datum
 DMF .                          KB:    Drilling Measured From
 EKB .FT                  720.0000:    Elevation Of Kelly Bushing
 EDF .FT                  719.0000:    Elevation Of Derrick Floor
 EGL .FT                  705.0000:    Elevation Of Ground Level
 TD  .FT                10035.0000:    Total Depth
 DD  .FT                 5122.0000:    Depth Driller
 DL  .FT                 5122.0000:    Depth Logger
 BLI .FT                 5104.0000:    Bottom Log Interval
 TLI .FT                    0.0000:    Top Log Interval
 DFT .                         AIR:    Drilling Fluid Type
 MRT .DEGF                108.0000:    Maximum Recorded Temperature
 DGBY.                          GC:    
 WSTA.                         LOC:    
 NEXT.RUN                         :
 DATE.                   5/12/2001:    Date As Month-Day-Year
 RUN .                         TWO:    Run Number
 DD  .FT                 8429.0000:    Depth Driller
 DL  .FT                 8345.0000:    Depth Logger
 BLI .FT                 8327.0000:    Bottom Log Interval
 TLI .FT                 5104.0000:    Top Log Interval
 DFT .                     KCL Mud:    Drilling Fluid Type
 MRT .DEGF                147.0000:    Maximum Recorded Temperature
 NEXT.RUN                         :
 DATE.                   5/25/2001:    Date As Month-Day-Year
 RUN .                       THREE:    Run Number
 DD  .FT                10073.0000:    Depth Driller
 DL  .FT                10035.0000:    Depth Logger
 BLI .FT                10030.0000:    Bottom Log Interval
 TLI .FT                 8100.0000:    Top Log Interval
 DFT .                      3% KCL:    Drilling Fluid Type
 MRT .DEGF                168.0000:    Maximum Recorded Temperature
#
~Other Information Block
<DescLogPlotStart>   NEURALOG PLOT DEFINITION
PLOTDEFVERSION: 3
LASFILE: C:\Documents and Settings\gcase.WVGS\Desktop\PriorityWells\Jackson\470
DEPTHSCALE: 239.999996
RESOLUTION: 200
DEPTHLABELFREQ: 100.000000
HEAVYGRIDFREQ: 100.000000
MEDIUMGRIDFREQ: 50.000000
LIGHTGRIDFREQ: 10.000000
#
#   TRACK 1
#
STARTTRACK: 
 LEFTX: 0.500000 inch
 RIGHTX: 3.000000 inch
 SCALETYPE: Linear
 NUMCHARTDIVISIONS: 10
CURVE: GR    0.000000   200.000000 (0,0,255)      Solid             2     Y    
BACKUP: 200.000000 400.000000 (0,0,255)      Solid             2    
BACKUP: 400.000000 600.000000 (0,0,255)      Solid             2    
CURVE: TEN   10000.000000 0.000000   (0,131,131)    Dot               2     N  
CURVE: CALI  5.000000   15.000000  (255,0,255)    Short_Dash        2     N    
CURVE: TDELTAT -1.000000  1.000000   (255,0,0)      Medium_Dash       2     Y  
BACKUP: -3.000000  -1.000000  (255,0,0)      Medium_Dash       2    
BACKUP: 1.000000   3.000000   (255,0,0)      Medium_Dash       2    
CURVE: HRM   0.000000   0.200000   (255,0,255)    Solid             2     N    
CURVE: HD    7.000000   17.000000  (0,0,255)      Solid             2     N    
ENDTRACK: 
#
#   TRACK 2
#
STARTTRACK: 
 LEFTX: 3.500000 inch
 RIGHTX: 6.000000 inch
 SCALETYPE: Log
 NUMCYCLES: 4
 STARTCYCLE: 2
CURVE: AHF90 0.200000   2000.000000 (0,0,255)      Dot               2     N   
CURVE: AHF60 0.200000   2000.000000 (0,131,131)    Short_Dash        2     N   
CURVE: RXOZ  0.200000   2000.000000 (255,0,0)      Solid             2     Y   
BACKUP: 2000.000000 20000000.000000 (255,0,0)      Solid             2    
CURVE: LLS   0.200000   2000.000000 (255,131,0)    Long_Dash         2     Y   
BACKUP: 2000.000000 20000000.000000 (255,131,0)    Dot               2    
CURVE: LLD   0.200000   2000.000000 (0,0,0)        Dot               2     Y   
BACKUP: 2000.000000 20000000.000000 (0,0,0)        Dot               2    
ENDTRACK: 
#
#   TRACK 3
#
STARTTRACK: 
 LEFTX: 3.500000 inch
 RIGHTX: 8.500000 inch
 SCALETYPE: Linear
 NUMCHARTDIVISIONS: 10
CURVE: RHOZ  2.000000   3.000000   (255,255,0)    Solid             2     N    
CURVE: PEFZ  0.000000   10.000000  (0,0,255)      Dot               2     N    
CURVE: ENPH  0.300000   -0.100000  (0,131,131)    Short_Dash        2     N    
CURVE: DPHZ  0.300000   -0.100000  (255,0,255)    Medium_Dash       2     N    
CURVE: TEMP  80.000000  90.000000  (255,0,0)      Long_Dash         2     Y    
BACKUP: 90.000000  100.000000 (255,0,0)      Long_Dash         2    
BACKUP: 100.000000 110.000000 (255,0,0)      Long_Dash         2    
BACKUP: 110.000000 120.000000 (255,0,0)      Long_Dash         2    
CURVE: AUD1  0.000000   500.000000 (255,131,0)    Short_Dash/Dot    2     N    
CURVE: AUD2  500.000000 0.000000   (255,255,0)    Medium_Dash/Dot   2     N    
CURVE: NPHI  0.300000   -0.100000  (0,0,255)      Solid             2     Y    
BACKUP: 0.700000   0.300000   (0,0,255)      Solid             2    
ENDTRACK: 
#
#   TRACK 4
#
STARTTRACK: 
 LEFTX: 6.000000 inch
 RIGHTX: 8.500000 inch
 SCALETYPE: Linear
 NUMCHARTDIVISIONS: 10
CURVE: RHOC  0.450000   -0.050000  (255,131,0)    Solid             2     Y    
BACKUP: -0.050000  -0.550000  (255,131,0)    Solid             2    
BACKUP: 0.950000   0.450000   (255,131,0)    Solid             2    
CURVE: COHS  -1.000000  9.000000   (0,131,131)    Solid             2     N    
CURVE: COHC  0.000000   10.000000  (255,0,255)    Dot               2     N    
ENDTRACK: 
<DescLogPlotEnd>
<Merge Data>
 Curve Name   Start    Splice   Stop    
 GR1 DA1 SA1  70.0     N/A      14660.0 
 TEN1 DA1 SA2 70.0     N/A      14660.0 
 CALI1 DA1 SA3 70.0     N/A      14660.0 
 TDELTAT1 DA1 SA4 70.0     N/A      10050.0 
 RHOZ1 DA3 SA1 70.0     N/A      14660.0 
 PEFZ1 DA3 SA2 70.0     N/A      14660.0 
 ENPH1 DA3 SA3 70.0     N/A      10050.0 
 DPHZ1 DA3 SA4 70.0     N/A      10050.0 
 TEMP1 DA3 SA5 70.0     N/A      10050.0 
 AUD11 DA3 SA6 70.0     N/A      10050.0 
 AUD21 DA3 SA7 70.0     N/A      10050.0 
 RHOC1 DA4 SA1 70.0     N/A      14660.0 
 NPHI1 DA3 SA8 70.0     N/A      14660.0 
 AHF901 DA2 SA1 70.0     N/A      10050.0 
 AHF601 DA2 SA2 70.0     N/A      10050.0 
 HRM1 DA1 SA5 70.0     N/A      12950.0 
 RXOZ1 DA2 SA3 70.0     N/A      12950.0 
 LLS1 DA2 SA4 70.0     N/A      12950.0 
 LLD1 DA2 SA5 70.0     N/A      12950.0 
 HD1 DA1 SA1  4680.0   N/A      10030.0 
 COHS1 DA2 SA1 4680.0   N/A      10030.0 
 COHC1 DA2 SA2 4680.0   N/A      10030.0 
</Merge Data>
~A DEPTH     GR               TEN              CALI             TDELTAT             RHOZ             PEFZ             ENPH             DPHZ             TEMP             AUD1             AUD2             RHOC             NPHI             AHF90             AHF60             HRM              RXOZ             LLS              LLD              HD               COHS             COHC            
# ...
    2075.500 113.09           2491.89          12.11            0.01             -999.25          3.38             0.07             0.06             85.48            58.10            4.95             0.00             -999.25          44.69            44.69            -999.25          -999.25          -999.25          -999.25          -999.25          -999.25          -999.25         
    2076.000 106.80           2505.03          12.11            0.01             -999.25          3.41             0.07             0.06             85.48            58.38            5.76             0.00             -999.25          49.47            49.47            -999.25          -999.25          -999.25          -999.25          -999.25          -999.25          -999.25         
    2076.500 103.73           2525.15          12.15            0.01             2.63             3.43             0.07             0.06             85.47            60.23            5.76             -0.01            -999.25          49.40            49.40            -999.25          -999.25          -999.25          -999.25          -999.25          -999.25          -999.25         
    2077.000 104.45           2505.03          12.15            0.01             2.64             3.33             0.07             0.05             85.50            62.98            5.26             -0.01            -999.25          49.74            49.74            -999.25          -999.25          -999.25          -999.25          -999.25          -999.25          -999.25         
    2077.500 108.08           2472.66          12.20            0.01             2.65             3.18             0.08             0.04             85.50            63.82            5.07             -0.02            -999.25          49.99            49.99            -999.25          -999.25          -999.25          -999.25          -999.25          -999.25          -999.25         
    2078.000 112.44           2444.41          12.20            0.01             2.65             3.14             0.08             0.04             85.50            63.87            10.50            -0.01            -999.25          50.24            50.24            -999.25          -999.25          -999.25          -999.25          -999.25          -999.25          -999.25         
    2078.500 113.92           2493.04          12.24            0.01             2.64             3.17             0.08             0.04             85.53            63.88            18.50            0.00             -999.25          50.49            50.49            -999.25          -999.25          -999.25          -999.25          -999.25          -999.25          -999.25         
    2079.000 111.11           2545.27          12.19            0.01             2.65             3.21             0.08             0.04             85.56            63.88            34.13            0.00             -999.25          50.75            50.75            -999.25          -999.25          -999.25          -999.25          -999.25          -999.25          -999.25         
    2079.500 109.59           2511.62          12.08            0.01             2.67             3.24             0.08             0.03             85.57            63.87            34.54            0.00             -999.25          49.82            49.82            -999.25          -999.25          -999.25          -999.25          -999.25          -999.25          -999.25         
    2080.000 113.73           2453.65          12.08            0.01             2.67             3.24             0.08             0.03             85.55            63.86            25.80            0.00             -999.25          48.02            48.02            -999.25          -999.25          -999.25          -999.25          -999.25          -999.25          -999.25         
    2080.500 121.26           2424.55          12.00            0.01             2.66             3.24             0.08             0.02             85.56            63.93            17.28            0.01             -999.25          46.71            46.71            -999.25          -999.25          -999.25          -999.25          -999.25          -999.25          -999.25         
    2081.000 130.53           2525.15          12.02            0.01             2.64             3.23             0.07             0.03             85.59            65.36            11.08            0.00             -999.25          45.86            45.86            -999.25          -999.25          -999.25          -999.25          -999.25          -999.25          -999.25         
    2081.500 134.09           2508.58          12.03            0.01             2.65             3.23             0.07             0.04             85.62            68.97            12.32            -0.01            -999.25          42.20            42.20            -999.25          -999.25          -999.25          -999.25          -999.25          -999.25          -999.25         
    2082.000 130.15           2525.15          12.03            0.01             2.65             3.26             0.08             0.04             85.64            77.61            13.07            -0.01            -999.25          42.99            42.99            -999.25          -999.25          -999.25          -999.25          -999.25          -999.25          -999.25         
    2082.500 122.85           2444.67          12.03            0.01             2.67             3.38             0.07             0.02             85.64            76.06            10.27            -0.01            -999.25          44.20            44.20            -999.25          -999.25          -999.25          -999.25          -999.25          -999.25          -999.25         
    2083.000 116.80           2499.17          12.05            0.01             2.69             3.45             0.07             0.01             85.61            74.66            8.77             -0.02            -999.25          45.86            45.86            -999.25          -999.25          -999.25          -999.25          -999.25          -999.25          -999.25         
    2083.500 118.88           2561.66          12.08            0.01             2.70             3.42             0.07             0.01             85.59            75.07            5.23             -0.02            -999.25          46.71            46.71            -999.25          -999.25          -999.25          -999.25          -999.25          -999.25          -999.25         
    2084.000 126.73           2605.63          12.14            0.01             2.69             3.30             0.08             0.02             85.57            69.95            5.76             -0.02            -999.25          47.58            47.58            -999.25          -999.25          -999.25          -999.25          -999.25          -999.25          -999.25         
    2084.500 134.56           2565.39          12.15            0.01             2.67             3.16             0.08             0.02             85.57            75.18            7.89             -0.01            -999.25          45.86            45.86            -999.25          -999.25          -999.25          -999.25          -999.25          -999.25          -999.25         
    2085.000 136.56           2540.13          12.14            0.01             2.65             3.09             0.09             0.03             85.57            79.13            9.77             0.00             -999.25          45.86            45.86            -999.25          -999.25          -999.25          -999.25          -999.25          -999.25          -999.25         
    2085.500 133.84           2504.22          12.27            0.01             2.60             3.06             0.09             0.06             85.54            75.93            16.68            -0.01            -999.25          46.71            46.71            -999.25          -999.25          -999.25          -999.25          -999.25          -999.25          -999.25         
