~Version Information Block
 VERS.                2.00:     CWLS LOG ASCII STANDARD - VERSION 2.000000
 WRAP.                  NO:     One Line Per Depth Step
#
~Well Information Block
#MNEM.UNIT                     Data                         Information
#----------   ------------------------------------------   ----------------
 STRT.FT                                       70.0000:     START DEPTH
 STOP.FT                                    10050.0000:     STOP DEPTH
 STEP.FT                                        0.5000:     STEP
 NULL.                                       -999.2500:     NULL VALUE
 COMP.                 Columbia Natural Resources, Inc:     COMPANY
 WELL.                         Gertrude Harbin #824457:     WELL
 FLD .                                        Rockport:     FIELD
 LOC .                                                :     LOCATION
 LONG.                                  -81.6230090000:     LONGITUDE
 LATI.                                   38.9667430000:     LATITUDE
 CNTY.                                         Jackson:     COUNTY
 STAT.                                              WV:     STATE
 CTRY.                                             USA:     COUNTRY
 SRVC.                                    Schlumberger:     SERVICE COMPANY
 DATE.                                                :     DATE
 API .                                      4703502482:     API NUMBER
 UWI .                                      4703502482:     UWI NUMBER
 SLAT.                                       38.966743:     Surface latitude
 SLON.                                      -81.623009:     surface longitude
 TVD .                                              NO:     TVD flag
 WSTA.                                             LOC:     Well status
#
~Curve Information Block
#MNEM.UNIT       API CODE      Curve Description
#----------    -------------   -------------------
 DEPT.FT                   :   Depth in Feet
 GR  .GAPI     35 310 01 01:   Gamma Ray
 TEN .LBF                  :   
 CALI.IN       70 280 01 01:   Caliper
 TDELTAT.DC/K                 :   
 RHOZ.G/C3                 :   Standard Res Formation Density
 PEFZ.B/E                  :   Standard Res Formation Photo-electric
 ENPH.V/V                  :   Epithermal Neutron Porosity
 DPHZ.V/V                  :   Std. Res. Density Porosity
 TEMP.DEGF                 :   Temperature
 AUD1.MV                   :   
 AUD2.MV                   :   
 RHOC.G/C3                 :   Density Correction
 NPHI.V/V      42 890 03 01:   Neutron Porosity
 AHF90.OHMM                 :   AIT-H 90 Inch Investigation
 AHF60.OHMM                 :   AHF60
 HRM .OHMM                 :   Filtered Mud Resistivity from Deep Measure
 RXOZ.OHMM                 :   Standard Res Invaded Zone Resistivity
 LLS .OHMM     10 220 09 01:   Latero-Log Shallow (Resistivity)
 LLD .OHMM     10 220 10 01:   LLD
 HD  .IN                   :   Hole Diameter
 COHS.----                 :   Coherence Value At Shear Peak
 COHC.----                 :   Coherence Value At Compressional Peak
#
~Parameter Information Block
#MNEM.UNIT            Value               Description
#----------    --------------------    -------------------
 DATE.                   4/20/2001:    Date As Month-Day-Year
 RUN .                         ONE:    Run Number
 PDAT.                          GL:    Permanent Datum
 EPD .FT                  705.0000:    Elevation Of Perm. Datum
 LMF .                          KB:    Log Measured From
 FAPD.FT                   15.0000:    Feet Above Perm. Datum
 DMF .                          KB:    Drilling Measured From
 EKB .FT                  720.0000:    Elevation Of Kelly Bushing
 EDF .FT                  719.0000:    Elevation Of Derrick Floor
 EGL .FT                  705.0000:    Elevation Of Ground Level
 TD  .FT                10035.0000:    Total Depth
 DD  .FT                 5122.0000:    Depth Driller
 DL  .FT                 5122.0000:    Depth Logger
 BLI .FT                 5104.0000:    Bottom Log Interval
 TLI .FT                    0.0000:    Top Log Interval
 DFT .                         AIR:    Drilling Fluid Type
 MRT .DEGF                108.0000:    Maximum Recorded Temperature
 DGBY.                          GC:    
 WSTA.                         LOC:    
 NEXT.RUN                         :
 DATE.                   5/12/2001:    Date As Month-Day-Year
 RUN .                         TWO:    Run Number
 DD  .FT                 8429.0000:    Depth Driller
 DL  .FT                 8345.0000:    Depth Logger
 BLI .FT                 8327.0000:    Bottom Log Interval
 TLI .FT                 5104.0000:    Top Log Interval
 DFT .                     KCL Mud:    Drilling Fluid Type
 MRT .DEGF                147.0000:    Maximum Recorded Temperature
 NEXT.RUN                         :
 DATE.                   5/25/2001:    Date As Month-Day-Year
 RUN .                       THREE:    Run Number
 DD  .FT                10073.0000:    Depth Driller
 DL  .FT                10035.0000:    Depth Logger
 BLI .FT                10030.0000:    Bottom Log Interval
 TLI .FT                 8100.0000:    Top Log Interval
 DFT .                      3% KCL:    Drilling Fluid Type
 MRT .DEGF                168.0000:    Maximum Recorded Temperature
#
~Other Information Block
<DescLogPlotStart>   NEURALOG PLOT DEFINITION
PLOTDEFVERSION: 3
LASFILE: C:\Documents and Settings\gcase.WVGS\Desktop\PriorityWells\Jackson\470
DEPTHSCALE: 239.999996
RESOLUTION: 200
DEPTHLABELFREQ: 100.000000
HEAVYGRIDFREQ: 100.000000
MEDIUMGRIDFREQ: 50.000000
LIGHTGRIDFREQ: 10.000000
#
#   TRACK 1
#
STARTTRACK: 
 LEFTX: 0.500000 inch
 RIGHTX: 3.000000 inch
 SCALETYPE: Linear
 NUMCHARTDIVISIONS: 10
CURVE: GR    0.000000   200.000000 (0,0,255)      Solid             2     Y    
BACKUP: 200.000000 400.000000 (0,0,255)      Solid             2    
BACKUP: 400.000000 600.000000 (0,0,255)      Solid             2    
CURVE: TEN   10000.000000 0.000000   (0,131,131)    Dot               2     N  
CURVE: CALI  5.000000   15.000000  (255,0,255)    Short_Dash        2     N    
CURVE: TDELTAT -1.000000  1.000000   (255,0,0)      Medium_Dash       2     Y  
BACKUP: -3.000000  -1.000000  (255,0,0)      Medium_Dash       2    
BACKUP: 1.000000   3.000000   (255,0,0)      Medium_Dash       2    
CURVE: HRM   0.000000   0.200000   (255,0,255)    Solid             2     N    
CURVE: HD    7.000000   17.000000  (0,0,255)      Solid             2     N    
ENDTRACK: 
#
#   TRACK 2
#
STARTTRACK: 
 LEFTX: 3.500000 inch
 RIGHTX: 6.000000 inch
 SCALETYPE: Log
 NUMCYCLES: 4
 STARTCYCLE: 2
CURVE: AHF90 0.200000   2000.000000 (0,0,255)      Dot               2     N   
CURVE: AHF60 0.200000   2000.000000 (0,131,131)    Short_Dash        2     N   
CURVE: RXOZ  0.200000   2000.000000 (255,0,0)      Solid             2     Y   
BACKUP: 2000.000000 20000000.000000 (255,0,0)      Solid             2    
CURVE: LLS   0.200000   2000.000000 (255,131,0)    Long_Dash         2     Y   
BACKUP: 2000.000000 20000000.000000 (255,131,0)    Dot               2    
CURVE: LLD   0.200000   2000.000000 (0,0,0)        Dot               2     Y   
BACKUP: 2000.000000 20000000.000000 (0,0,0)        Dot               2    
ENDTRACK: 
#
#   TRACK 3
#
STARTTRACK: 
 LEFTX: 3.500000 inch
 RIGHTX: 8.500000 inch
 SCALETYPE: Linear
 NUMCHARTDIVISIONS: 10
CURVE: RHOZ  2.000000   3.000000   (255,255,0)    Solid             2     N    
CURVE: PEFZ  0.000000   10.000000  (0,0,255)      Dot               2     N    
CURVE: ENPH  0.300000   -0.100000  (0,131,131)    Short_Dash        2     N    
CURVE: DPHZ  0.300000   -0.100000  (255,0,255)    Medium_Dash       2     N    
CURVE: TEMP  80.000000  90.000000  (255,0,0)      Long_Dash         2     Y    
BACKUP: 90.000000  100.000000 (255,0,0)      Long_Dash         2    
BACKUP: 100.000000 110.000000 (255,0,0)      Long_Dash         2    
BACKUP: 110.000000 120.000000 (255,0,0)      Long_Dash         2    
CURVE: AUD1  0.000000   500.000000 (255,131,0)    Short_Dash/Dot    2     N    
CURVE: AUD2  500.000000 0.000000   (255,255,0)    Medium_Dash/Dot   2     N    
CURVE: NPHI  0.300000   -0.100000  (0,0,255)      Solid             2     Y    
BACKUP: 0.700000   0.300000   (0,0,255)      Solid             2    
ENDTRACK: 
#
#   TRACK 4
#
STARTTRACK: 
 LEFTX: 6.000000 inch
 RIGHTX: 8.500000 inch
 SCALETYPE: Linear
 NUMCHARTDIVISIONS: 10
CURVE: RHOC  0.450000   -0.050000  (255,131,0)    Solid             2     Y    
BACKUP: -0.050000  -0.550000  (255,131,0)    Solid             2    
BACKUP: 0.950000   0.450000   (255,131,0)    Solid             2    
CURVE: COHS  -1.000000  9.000000   (0,131,131)    Solid             2     N    
CURVE: COHC  0.000000   10.000000  (255,0,255)    Dot               2     N    
ENDTRACK: 
<DescLogPlotEnd>
<Merge Data>
 Curve Name   Start    Splice   Stop    
 GR1 DA1 SA1  70.0     N/A      14660.0 
 TEN1 DA1 SA2 70.0     N/A      14660.0 
 CALI1 DA1 SA3 70.0     N/A      14660.0 
 TDELTAT1 DA1 SA4 70.0     N/A      10050.0 
 RHOZ1 DA3 SA1 70.0     N/A      14660.0 
 PEFZ1 DA3 SA2 70.0     N/A      14660.0 
 ENPH1 DA3 SA3 70.0     N/A      10050.0 
 DPHZ1 DA3 SA4 70.0     N/A      10050.0 
 TEMP1 DA3 SA5 70.0     N/A      10050.0 
 AUD11 DA3 SA6 70.0     N/A      10050.0 
 AUD21 DA3 SA7 70.0     N/A      10050.0 
 RHOC1 DA4 SA1 70.0     N/A      14660.0 
 NPHI1 DA3 SA8 70.0     N/A      14660.0 
 AHF901 DA2 SA1 70.0     N/A      10050.0 
 AHF601 DA2 SA2 70.0     N/A      10050.0 
 HRM1 DA1 SA5 70.0     N/A      12950.0 
 RXOZ1 DA2 SA3 70.0     N/A      12950.0 
 LLS1 DA2 SA4 70.0     N/A      12950.0 
 LLD1 DA2 SA5 70.0     N/A      12950.0 
 HD1 DA1 SA1  4680.0   N/A      10030.0 
 COHS1 DA2 SA1 4680.0   N/A      10030.0 
 COHC1 DA2 SA2 4680.0   N/A      10030.0 
</Merge Data>
~A DEPTH     GR               TEN              CALI             TDELTAT             RHOZ             PEFZ             ENPH             DPHZ             TEMP             AUD1             AUD2             RHOC             NPHI             AHF90             AHF60             HRM              RXOZ             LLS              LLD              HD               COHS             COHC            
# ...
    4994.500 24.81            3350.10          11.89            0.20             2.65             3.33             0.02             0.04             85.45            165.42           1.75             0.00             -999.25          128.78           128.78           -999.25          -999.25          -999.25          -999.25          9.08             0.07             0.36            
    4995.000 22.69            3450.70          11.89            0.17             2.64             3.35             0.02             0.04             85.14            165.26           8.27             0.00             -999.25          127.60           127.60           -999.25          -999.25          -999.25          -999.25          9.08             0.06             0.36            
    4995.500 21.51            3350.10          11.89            0.13             2.64             3.55             0.02             0.04             84.84            166.24           8.27             0.01             -999.25          127.60           127.60           -999.25          -999.25          -999.25          -999.25          9.08             0.06             0.39            
    4996.000 21.59            3357.76          11.89            -0.01            2.64             3.31             0.02             0.04             84.53            196.79           1.75             0.01             -999.25          127.60           127.60           -999.25          -999.25          -999.25          -999.25          9.08             0.07             0.40            
    4996.500 23.18            3370.22          11.89            -0.03            2.65             3.45             0.02             0.04             84.22            194.28           5.76             0.00             -999.25          139.92           139.92           -999.25          -999.25          -999.25          -999.25          9.08             0.07             0.39            
    4997.000 26.77            3410.46          11.89            -0.04            2.65             4.05             0.02             0.04             83.92            196.06           5.26             0.00             -999.25          147.88           147.88           -999.25          -999.25          -999.25          -999.25          9.08             0.07             0.29            
    4997.500 32.71            3410.93          11.89            -0.31            2.65             3.87             0.02             0.04             83.61            197.22           6.26             0.00             -999.25          171.38           171.38           -999.25          -999.25          -999.25          -999.25          9.08             0.06             0.15            
    4998.000 40.16            3410.61          11.89            -0.58            2.64             3.63             0.02             0.04             83.37            197.13           6.41             0.00             -999.25          206.08           206.08           -999.25          -999.25          -999.25          -999.25          9.15             0.15             0.15            
    4998.500 43.68            3399.34          11.89            -0.80            2.65             3.99             0.02             0.03             83.24            197.14           11.77            0.00             -999.25          264.33           303.54           -999.25          -999.25          -999.25          -999.25          9.14             0.31             0.15            
    4999.000 53.23            3390.34          11.89            -1.02            2.66             3.10             0.02             0.04             83.20            197.14           10.77            0.00             -999.25          306.35           342.19           -999.25          -999.25          -999.25          -999.25          9.14             0.47             0.15            
    4999.500 59.68            3430.58          11.89            -1.18            2.65             2.70             0.02             0.03             83.17            197.14           6.76             0.00             -999.25          355.04           375.23           -999.25          -999.25          -999.25          -999.25          9.14             0.45             0.15            
    5000.000 61.50            3434.82          11.89            -1.80            2.61             2.31             0.02             0.07             83.17            197.14           7.86             0.00             -999.25          361.65           400.25           -999.25          -999.25          -999.25          -999.25          9.14             0.28             0.16            
    5000.500 47.27            3400.68          11.89            -2.25            2.57             1.94             0.02             0.10             84.44            197.14           11.77            0.00             -999.25          344.43           344.43           -999.25          -999.25          -999.25          -999.25          9.14             0.22             0.30            
    5001.000 33.05            3370.69          11.89            -2.96            2.45             1.71             0.03             0.13             86.27            197.14           13.28            0.00             -999.25          271.75           271.75           -999.25          -999.25          -999.25          -999.25          9.14             0.20             0.37            
    5001.500 22.69            3377.41          11.89            2.99             2.45             1.73             0.03             0.15             87.95            197.14           41.30            0.00             -999.25          209.92           209.54           -999.25          -999.25          -999.25          -999.25          9.14             0.18             0.37            
    5002.000 28.14            3434.29          11.82            2.78             2.45             1.75             0.03             0.15             89.90            197.14           54.86            0.00             -999.25          156.29           156.89           -999.25          -999.25          -999.25          -999.25          9.18             0.17             0.36            
    5002.500 27.20            3450.70          11.82            2.92             2.45             1.77             0.02             0.16             99.92            197.17           58.87            0.00             -999.25          122.98           122.58           -999.25          -999.25          -999.25          -999.25          9.18             0.15             0.38            
    5003.000 25.84            3438.33          12.05            -3.01            2.45             1.79             0.02             0.16             101.15           197.22           8.47             0.00             -999.25          101.33           101.33           -999.25          -999.25          -999.25          -999.25          9.18             0.13             0.40            
    5003.500 24.51            3424.81          12.04            -0.97            2.45             1.81             0.02             0.15             100.03           197.89           7.45             0.00             -999.25          85.05            85.05            -999.25          -999.25          -999.25          -999.25          9.18             0.13             0.43            
    5004.000 23.19            3410.46          12.03            -0.86            2.46             1.83             0.02             0.14             105.44           190.48           7.89             0.00             -999.25          76.14            76.14            -999.25          -999.25          -999.25          -999.25          9.18             0.25             0.42            
    5004.500 21.81            3410.46          12.02            -0.15            2.48             1.87             0.01             0.13             105.60           182.66           7.77             0.00             -999.25          75.44            75.44            -999.25          -999.25          -999.25          -999.25          9.18             0.35             0.42            
