~Version Information Block
 VERS.                2.00:     CWLS LOG ASCII STANDARD - VERSION 2.000000
 WRAP.                  NO:     One Line Per Depth Step
#
~Well Information Block
#MNEM.UNIT                     Data                         Information
#----------   ------------------------------------------   ----------------
 STRT.FT                                       70.0000:     START DEPTH
 STOP.FT                                    10050.0000:     STOP DEPTH
 STEP.FT                                        0.5000:     STEP
 NULL.                                       -999.2500:     NULL VALUE
 COMP.                 Columbia Natural Resources, Inc:     COMPANY
 WELL.                         Gertrude Harbin #824457:     WELL
 FLD .                                        Rockport:     FIELD
 LOC .                                                :     LOCATION
 LONG.                                  -81.6230090000:     LONGITUDE
 LATI.                                   38.9667430000:     LATITUDE
 CNTY.                                         Jackson:     COUNTY
 STAT.                                              WV:     STATE
 CTRY.                                             USA:     COUNTRY
 SRVC.                                    Schlumberger:     SERVICE COMPANY
 DATE.                                                :     DATE
 API .                                      4703502482:     API NUMBER
 UWI .                                      4703502482:     UWI NUMBER
 SLAT.                                       38.966743:     Surface latitude
 SLON.                                      -81.623009:     surface longitude
 TVD .                                              NO:     TVD flag
 WSTA.                                             LOC:     Well status
#
~Curve Information Block
#MNEM.UNIT       API CODE      Curve Description
#----------    -------------   -------------------
 DEPT.FT                   :   Depth in Feet
 GR  .GAPI     35 310 01 01:   Gamma Ray
 TEN .LBF                  :   
 CALI.IN       70 280 01 01:   Caliper
 TDELTAT.DC/K                 :   
 RHOZ.G/C3                 :   Standard Res Formation Density
 PEFZ.B/E                  :   Standard Res Formation Photo-electric
 ENPH.V/V                  :   Epithermal Neutron Porosity
 DPHZ.V/V                  :   Std. Res. Density Porosity
 TEMP.DEGF                 :   Temperature
 AUD1.MV                   :   
 AUD2.MV                   :   
 RHOC.G/C3                 :   Density Correction
 NPHI.V/V      42 890 03 01:   Neutron Porosity
 AHF90.OHMM                 :   AIT-H 90 Inch Investigation
 AHF60.OHMM                 :   AHF60
 HRM .OHMM                 :   Filtered Mud Resistivity from Deep Measure
 RXOZ.OHMM                 :   Standard Res Invaded Zone Resistivity
 LLS .OHMM     10 220 09 01:   Latero-Log Shallow (Resistivity)
 LLD .OHMM     10 220 10 01:   LLD
 HD  .IN                   :   Hole Diameter
 COHS.----                 :   Coherence Value At Shear Peak
 COHC.----                 :   Coherence Value At Compressional Peak
#
~Parameter Information Block
#MNEM.UNIT            Value               Description
#----------    --------------------    -------------------
 DATE.                   4/20/2001:    Date As Month-Day-Year
 RUN .                         ONE:    Run Number
 PDAT.                          GL:    Permanent Datum
 EPD .FT                  705.0000:    Elevation Of Perm. Datum
 LMF .                          KB:    Log Measured From
 FAPD.FT                   15.0000:    Feet Above Perm. Datum
 DMF .                          KB:    Drilling Measured From
 EKB .FT                  720.0000:    Elevation Of Kelly Bushing
 EDF .FT                  719.0000:    Elevation Of Derrick Floor
 EGL .FT                  705.0000:    Elevation Of Ground Level
 TD  .FT                10035.0000:    Total Depth
 DD  .FT                 5122.0000:    Depth Driller
 DL  .FT                 5122.0000:    Depth Logger
 BLI .FT                 5104.0000:    Bottom Log Interval
 TLI .FT                    0.0000:    Top Log Interval
 DFT .                         AIR:    Drilling Fluid Type
 MRT .DEGF                108.0000:    Maximum Recorded Temperature
 DGBY.                          GC:    
 WSTA.                         LOC:    
 NEXT.RUN                         :
 DATE.                   5/12/2001:    Date As Month-Day-Year
 RUN .                         TWO:    Run Number
 DD  .FT                 8429.0000:    Depth Driller
 DL  .FT                 8345.0000:    Depth Logger
 BLI .FT                 8327.0000:    Bottom Log Interval
 TLI .FT                 5104.0000:    Top Log Interval
 DFT .                     KCL Mud:    Drilling Fluid Type
 MRT .DEGF                147.0000:    Maximum Recorded Temperature
 NEXT.RUN                         :
 DATE.                   5/25/2001:    Date As Month-Day-Year
 RUN .                       THREE:    Run Number
 DD  .FT                10073.0000:    Depth Driller
 DL  .FT                10035.0000:    Depth Logger
 BLI .FT                10030.0000:    Bottom Log Interval
 TLI .FT                 8100.0000:    Top Log Interval
 DFT .                      3% KCL:    Drilling Fluid Type
 MRT .DEGF                168.0000:    Maximum Recorded Temperature
#
~Other Information Block
<DescLogPlotStart>   NEURALOG PLOT DEFINITION
PLOTDEFVERSION: 3
LASFILE: C:\Documents and Settings\gcase.WVGS\Desktop\PriorityWells\Jackson\470
DEPTHSCALE: 239.999996
RESOLUTION: 200
DEPTHLABELFREQ: 100.000000
HEAVYGRIDFREQ: 100.000000
MEDIUMGRIDFREQ: 50.000000
LIGHTGRIDFREQ: 10.000000
#
#   TRACK 1
#
STARTTRACK: 
 LEFTX: 0.500000 inch
 RIGHTX: 3.000000 inch
 SCALETYPE: Linear
 NUMCHARTDIVISIONS: 10
CURVE: GR    0.000000   200.000000 (0,0,255)      Solid             2     Y    
BACKUP: 200.000000 400.000000 (0,0,255)      Solid             2    
BACKUP: 400.000000 600.000000 (0,0,255)      Solid             2    
CURVE: TEN   10000.000000 0.000000   (0,131,131)    Dot               2     N  
CURVE: CALI  5.000000   15.000000  (255,0,255)    Short_Dash        2     N    
CURVE: TDELTAT -1.000000  1.000000   (255,0,0)      Medium_Dash       2     Y  
BACKUP: -3.000000  -1.000000  (255,0,0)      Medium_Dash       2    
BACKUP: 1.000000   3.000000   (255,0,0)      Medium_Dash       2    
CURVE: HRM   0.000000   0.200000   (255,0,255)    Solid             2     N    
CURVE: HD    7.000000   17.000000  (0,0,255)      Solid             2     N    
ENDTRACK: 
#
#   TRACK 2
#
STARTTRACK: 
 LEFTX: 3.500000 inch
 RIGHTX: 6.000000 inch
 SCALETYPE: Log
 NUMCYCLES: 4
 STARTCYCLE: 2
CURVE: AHF90 0.200000   2000.000000 (0,0,255)      Dot               2     N   
CURVE: AHF60 0.200000   2000.000000 (0,131,131)    Short_Dash        2     N   
CURVE: RXOZ  0.200000   2000.000000 (255,0,0)      Solid             2     Y   
BACKUP: 2000.000000 20000000.000000 (255,0,0)      Solid             2    
CURVE: LLS   0.200000   2000.000000 (255,131,0)    Long_Dash         2     Y   
BACKUP: 2000.000000 20000000.000000 (255,131,0)    Dot               2    
CURVE: LLD   0.200000   2000.000000 (0,0,0)        Dot               2     Y   
BACKUP: 2000.000000 20000000.000000 (0,0,0)        Dot               2    
ENDTRACK: 
#
#   TRACK 3
#
STARTTRACK: 
 LEFTX: 3.500000 inch
 RIGHTX: 8.500000 inch
 SCALETYPE: Linear
 NUMCHARTDIVISIONS: 10
CURVE: RHOZ  2.000000   3.000000   (255,255,0)    Solid             2     N    
CURVE: PEFZ  0.000000   10.000000  (0,0,255)      Dot               2     N    
CURVE: ENPH  0.300000   -0.100000  (0,131,131)    Short_Dash        2     N    
CURVE: DPHZ  0.300000   -0.100000  (255,0,255)    Medium_Dash       2     N    
CURVE: TEMP  80.000000  90.000000  (255,0,0)      Long_Dash         2     Y    
BACKUP: 90.000000  100.000000 (255,0,0)      Long_Dash         2    
BACKUP: 100.000000 110.000000 (255,0,0)      Long_Dash         2    
BACKUP: 110.000000 120.000000 (255,0,0)      Long_Dash         2    
CURVE: AUD1  0.000000   500.000000 (255,131,0)    Short_Dash/Dot    2     N    
CURVE: AUD2  500.000000 0.000000   (255,255,0)    Medium_Dash/Dot   2     N    
CURVE: NPHI  0.300000   -0.100000  (0,0,255)      Solid             2     Y    
BACKUP: 0.700000   0.300000   (0,0,255)      Solid             2    
ENDTRACK: 
#
#   TRACK 4
#
STARTTRACK: 
 LEFTX: 6.000000 inch
 RIGHTX: 8.500000 inch
 SCALETYPE: Linear
 NUMCHARTDIVISIONS: 10
CURVE: RHOC  0.450000   -0.050000  (255,131,0)    Solid             2     Y    
BACKUP: -0.050000  -0.550000  (255,131,0)    Solid             2    
BACKUP: 0.950000   0.450000   (255,131,0)    Solid             2    
CURVE: COHS  -1.000000  9.000000   (0,131,131)    Solid             2     N    
CURVE: COHC  0.000000   10.000000  (255,0,255)    Dot               2     N    
ENDTRACK: 
<DescLogPlotEnd>
<Merge Data>
 Curve Name   Start    Splice   Stop    
 GR1 DA1 SA1  70.0     N/A      14660.0 
 TEN1 DA1 SA2 70.0     N/A      14660.0 
 CALI1 DA1 SA3 70.0     N/A      14660.0 
 TDELTAT1 DA1 SA4 70.0     N/A      10050.0 
 RHOZ1 DA3 SA1 70.0     N/A      14660.0 
 PEFZ1 DA3 SA2 70.0     N/A      14660.0 
 ENPH1 DA3 SA3 70.0     N/A      10050.0 
 DPHZ1 DA3 SA4 70.0     N/A      10050.0 
 TEMP1 DA3 SA5 70.0     N/A      10050.0 
 AUD11 DA3 SA6 70.0     N/A      10050.0 
 AUD21 DA3 SA7 70.0     N/A      10050.0 
 RHOC1 DA4 SA1 70.0     N/A      14660.0 
 NPHI1 DA3 SA8 70.0     N/A      14660.0 
 AHF901 DA2 SA1 70.0     N/A      10050.0 
 AHF601 DA2 SA2 70.0     N/A      10050.0 
 HRM1 DA1 SA5 70.0     N/A      12950.0 
 RXOZ1 DA2 SA3 70.0     N/A      12950.0 
 LLS1 DA2 SA4 70.0     N/A      12950.0 
 LLD1 DA2 SA5 70.0     N/A      12950.0 
 HD1 DA1 SA1  4680.0   N/A      10030.0 
 COHS1 DA2 SA1 4680.0   N/A      10030.0 
 COHC1 DA2 SA2 4680.0   N/A      10030.0 
</Merge Data>
~A DEPTH     GR               TEN              CALI             TDELTAT             RHOZ             PEFZ             ENPH             DPHZ             TEMP             AUD1             AUD2             RHOC             NPHI             AHF90             AHF60             HRM              RXOZ             LLS              LLD              HD               COHS             COHC            
# ...
    4574.500 148.27           3350.10          12.42            0.01             2.71             4.22             0.12             0.00             107.57           16.03            1.75             -0.01            -999.25          15.88            15.88            -999.25          -999.25          -999.25          -999.25          -999.25          -999.25          -999.25         
    4575.000 145.21           3353.36          12.27            0.01             2.67             4.14             0.12             0.02             107.56           15.41            1.75             -0.01            -999.25          16.18            16.18            -999.25          -999.25          -999.25          -999.25          -999.25          -999.25          -999.25         
    4575.500 154.53           3370.22          12.67            0.01             2.64             3.97             0.12             0.04             107.54           16.28            1.99             -0.01            -999.25          16.63            16.63            -999.25          -999.25          -999.25          -999.25          -999.25          -999.25          -999.25         
    4576.000 162.32           3329.98          12.65            0.01             2.62             3.84             0.12             0.04             107.57           19.89            2.73             -0.01            -999.25          17.10            17.10            -999.25          -999.25          -999.25          -999.25          -999.25          -999.25          -999.25         
    4576.500 174.68           3329.98          12.36            0.01             2.63             3.80             0.12             0.05             107.59           21.89            2.27             -0.01            -999.25          17.10            17.10            -999.25          -999.25          -999.25          -999.25          -999.25          -999.25          -999.25         
    4577.000 181.39           3329.98          12.27            0.01             2.64             3.82             0.12             0.05             107.59           18.74            2.25             -0.01            -999.25          16.94            16.94            -999.25          -999.25          -999.25          -999.25          -999.25          -999.25          -999.25         
    4577.500 181.37           3289.74          12.18            0.01             2.65             3.81             0.12             0.04             107.59           16.58            2.27             -0.01            -999.25          16.48            16.48            -999.25          -999.25          -999.25          -999.25          -999.25          -999.25          -999.25         
    4578.000 167.11           3300.35          12.19            0.01             2.66             3.76             0.12             0.04             107.56           17.31            2.72             -0.01            -999.25          16.33            16.33            -999.25          -999.25          -999.25          -999.25          -999.25          -999.25          -999.25         
    4578.500 158.84           3350.10          12.20            0.01             2.67             3.72             0.11             0.03             107.51           16.67            2.25             -0.01            -999.25          15.59            15.59            -999.25          -999.25          -999.25          -999.25          -999.25          -999.25          -999.25         
    4579.000 158.21           3370.22          12.17            0.01             2.66             3.70             0.11             0.03             107.51           14.40            1.94             0.00             -999.25          15.45            15.45            -999.25          -999.25          -999.25          -999.25          -999.25          -999.25          -999.25         
    4579.500 164.64           3381.21          12.13            0.01             2.62             3.74             0.11             0.06             107.51           12.76            1.75             0.01             -999.25          16.48            16.48            -999.25          -999.25          -999.25          -999.25          -999.25          -999.25          -999.25         
    4580.000 162.50           3370.22          12.20            0.01             2.58             3.81             0.11             0.09             107.51           13.18            2.25             0.03             -999.25          17.74            17.74            -999.25          -999.25          -999.25          -999.25          -999.25          -999.25          -999.25         
    4580.500 177.71           3381.15          12.20            0.01             2.55             3.91             0.11             0.11             107.51           15.43            1.94             0.05             -999.25          19.99            19.99            -999.25          -999.25          -999.25          -999.25          -999.25          -999.25          -999.25         
    4581.000 226.10           3370.22          12.17            0.01             2.53             3.91             0.11             0.11             107.57           18.72            1.75             0.06             -999.25          22.76            22.76            -999.25          -999.25          -999.25          -999.25          -999.25          -999.25          -999.25         
    4581.500 214.89           3390.34          12.19            0.01             2.53             3.82             0.12             0.06             107.61           17.69            1.75             0.03             -999.25          24.27            24.27            -999.25          -999.25          -999.25          -999.25          -999.25          -999.25          -999.25         
    4582.000 208.73           3403.52          12.19            0.01             2.60             3.76             0.13             0.04             107.64           14.21            2.25             0.01             -999.25          23.18            23.18            -999.25          -999.25          -999.25          -999.25          -999.25          -999.25          -999.25         
    4582.500 214.32           3378.16          12.18            0.01             2.64             3.71             0.13             0.04             107.59           14.23            2.25             0.00             -999.25          21.73            21.73            -999.25          -999.25          -999.25          -999.25          -999.25          -999.25          -999.25         
    4583.000 169.78           3350.10          12.21            0.01             2.68             3.74             0.13             0.00             107.55           14.61            2.26             -0.01            -999.25          19.65            19.65            -999.25          -999.25          -999.25          -999.25          -999.25          -999.25          -999.25         
    4583.500 167.02           3350.10          12.27            0.01             2.71             3.79             0.13             0.00             107.53           13.12            2.18             -0.01            -999.25          17.74            17.74            -999.25          -999.25          -999.25          -999.25          -999.25          -999.25          -999.25         
    4584.000 160.05           3350.10          12.31            0.01             2.72             3.81             0.12             0.00             107.57           25.09            3.66             -0.01            -999.25          16.61            16.61            -999.25          -999.25          -999.25          -999.25          -999.25          -999.25          -999.25         
    4584.500 153.81           3370.22          12.22            0.01             2.72             3.79             0.11             0.00             107.58           22.26            1.66             -0.01            -999.25          15.60            15.60            -999.25          -999.25          -999.25          -999.25          -999.25          -999.25          -999.25         
