~Version Information Block
 VERS.                2.00:     CWLS LOG ASCII STANDARD - VERSION 2.000000
 WRAP.                  NO:     One Line Per Depth Step
#
~Well Information Block
#MNEM.UNIT                     Data                         Information
#----------   ------------------------------------------   ----------------
 STRT.FT                                       70.0000:     START DEPTH
 STOP.FT                                    10050.0000:     STOP DEPTH
 STEP.FT                                        0.5000:     STEP
 NULL.                                       -999.2500:     NULL VALUE
 COMP.                 Columbia Natural Resources, Inc:     COMPANY
 WELL.                         Gertrude Harbin #824457:     WELL
 FLD .                                        Rockport:     FIELD
 LOC .                                                :     LOCATION
 LONG.                                  -81.6230090000:     LONGITUDE
 LATI.                                   38.9667430000:     LATITUDE
 CNTY.                                         Jackson:     COUNTY
 STAT.                                              WV:     STATE
 CTRY.                                             USA:     COUNTRY
 SRVC.                                    Schlumberger:     SERVICE COMPANY
 DATE.                                                :     DATE
 API .                                      4703502482:     API NUMBER
 UWI .                                      4703502482:     UWI NUMBER
 SLAT.                                       38.966743:     Surface latitude
 SLON.                                      -81.623009:     surface longitude
 TVD .                                              NO:     TVD flag
 WSTA.                                             LOC:     Well status
#
~Curve Information Block
#MNEM.UNIT       API CODE      Curve Description
#----------    -------------   -------------------
 DEPT.FT                   :   Depth in Feet
 GR  .GAPI     35 310 01 01:   Gamma Ray
 TEN .LBF                  :   
 CALI.IN       70 280 01 01:   Caliper
 TDELTAT.DC/K                 :   
 RHOZ.G/C3                 :   Standard Res Formation Density
 PEFZ.B/E                  :   Standard Res Formation Photo-electric
 ENPH.V/V                  :   Epithermal Neutron Porosity
 DPHZ.V/V                  :   Std. Res. Density Porosity
 TEMP.DEGF                 :   Temperature
 AUD1.MV                   :   
 AUD2.MV                   :   
 RHOC.G/C3                 :   Density Correction
 NPHI.V/V      42 890 03 01:   Neutron Porosity
 AHF90.OHMM                 :   AIT-H 90 Inch Investigation
 AHF60.OHMM                 :   AHF60
 HRM .OHMM                 :   Filtered Mud Resistivity from Deep Measure
 RXOZ.OHMM                 :   Standard Res Invaded Zone Resistivity
 LLS .OHMM     10 220 09 01:   Latero-Log Shallow (Resistivity)
 LLD .OHMM     10 220 10 01:   LLD
 HD  .IN                   :   Hole Diameter
 COHS.----                 :   Coherence Value At Shear Peak
 COHC.----                 :   Coherence Value At Compressional Peak
#
~Parameter Information Block
#MNEM.UNIT            Value               Description
#----------    --------------------    -------------------
 DATE.                   4/20/2001:    Date As Month-Day-Year
 RUN .                         ONE:    Run Number
 PDAT.                          GL:    Permanent Datum
 EPD .FT                  705.0000:    Elevation Of Perm. Datum
 LMF .                          KB:    Log Measured From
 FAPD.FT                   15.0000:    Feet Above Perm. Datum
 DMF .                          KB:    Drilling Measured From
 EKB .FT                  720.0000:    Elevation Of Kelly Bushing
 EDF .FT                  719.0000:    Elevation Of Derrick Floor
 EGL .FT                  705.0000:    Elevation Of Ground Level
 TD  .FT                10035.0000:    Total Depth
 DD  .FT                 5122.0000:    Depth Driller
 DL  .FT                 5122.0000:    Depth Logger
 BLI .FT                 5104.0000:    Bottom Log Interval
 TLI .FT                    0.0000:    Top Log Interval
 DFT .                         AIR:    Drilling Fluid Type
 MRT .DEGF                108.0000:    Maximum Recorded Temperature
 DGBY.                          GC:    
 WSTA.                         LOC:    
 NEXT.RUN                         :
 DATE.                   5/12/2001:    Date As Month-Day-Year
 RUN .                         TWO:    Run Number
 DD  .FT                 8429.0000:    Depth Driller
 DL  .FT                 8345.0000:    Depth Logger
 BLI .FT                 8327.0000:    Bottom Log Interval
 TLI .FT                 5104.0000:    Top Log Interval
 DFT .                     KCL Mud:    Drilling Fluid Type
 MRT .DEGF                147.0000:    Maximum Recorded Temperature
 NEXT.RUN                         :
 DATE.                   5/25/2001:    Date As Month-Day-Year
 RUN .                       THREE:    Run Number
 DD  .FT                10073.0000:    Depth Driller
 DL  .FT                10035.0000:    Depth Logger
 BLI .FT                10030.0000:    Bottom Log Interval
 TLI .FT                 8100.0000:    Top Log Interval
 DFT .                      3% KCL:    Drilling Fluid Type
 MRT .DEGF                168.0000:    Maximum Recorded Temperature
#
~Other Information Block
<DescLogPlotStart>   NEURALOG PLOT DEFINITION
PLOTDEFVERSION: 3
LASFILE: C:\Documents and Settings\gcase.WVGS\Desktop\PriorityWells\Jackson\470
DEPTHSCALE: 239.999996
RESOLUTION: 200
DEPTHLABELFREQ: 100.000000
HEAVYGRIDFREQ: 100.000000
MEDIUMGRIDFREQ: 50.000000
LIGHTGRIDFREQ: 10.000000
#
#   TRACK 1
#
STARTTRACK: 
 LEFTX: 0.500000 inch
 RIGHTX: 3.000000 inch
 SCALETYPE: Linear
 NUMCHARTDIVISIONS: 10
CURVE: GR    0.000000   200.000000 (0,0,255)      Solid             2     Y    
BACKUP: 200.000000 400.000000 (0,0,255)      Solid             2    
BACKUP: 400.000000 600.000000 (0,0,255)      Solid             2    
CURVE: TEN   10000.000000 0.000000   (0,131,131)    Dot               2     N  
CURVE: CALI  5.000000   15.000000  (255,0,255)    Short_Dash        2     N    
CURVE: TDELTAT -1.000000  1.000000   (255,0,0)      Medium_Dash       2     Y  
BACKUP: -3.000000  -1.000000  (255,0,0)      Medium_Dash       2    
BACKUP: 1.000000   3.000000   (255,0,0)      Medium_Dash       2    
CURVE: HRM   0.000000   0.200000   (255,0,255)    Solid             2     N    
CURVE: HD    7.000000   17.000000  (0,0,255)      Solid             2     N    
ENDTRACK: 
#
#   TRACK 2
#
STARTTRACK: 
 LEFTX: 3.500000 inch
 RIGHTX: 6.000000 inch
 SCALETYPE: Log
 NUMCYCLES: 4
 STARTCYCLE: 2
CURVE: AHF90 0.200000   2000.000000 (0,0,255)      Dot               2     N   
CURVE: AHF60 0.200000   2000.000000 (0,131,131)    Short_Dash        2     N   
CURVE: RXOZ  0.200000   2000.000000 (255,0,0)      Solid             2     Y   
BACKUP: 2000.000000 20000000.000000 (255,0,0)      Solid             2    
CURVE: LLS   0.200000   2000.000000 (255,131,0)    Long_Dash         2     Y   
BACKUP: 2000.000000 20000000.000000 (255,131,0)    Dot               2    
CURVE: LLD   0.200000   2000.000000 (0,0,0)        Dot               2     Y   
BACKUP: 2000.000000 20000000.000000 (0,0,0)        Dot               2    
ENDTRACK: 
#
#   TRACK 3
#
STARTTRACK: 
 LEFTX: 3.500000 inch
 RIGHTX: 8.500000 inch
 SCALETYPE: Linear
 NUMCHARTDIVISIONS: 10
CURVE: RHOZ  2.000000   3.000000   (255,255,0)    Solid             2     N    
CURVE: PEFZ  0.000000   10.000000  (0,0,255)      Dot               2     N    
CURVE: ENPH  0.300000   -0.100000  (0,131,131)    Short_Dash        2     N    
CURVE: DPHZ  0.300000   -0.100000  (255,0,255)    Medium_Dash       2     N    
CURVE: TEMP  80.000000  90.000000  (255,0,0)      Long_Dash         2     Y    
BACKUP: 90.000000  100.000000 (255,0,0)      Long_Dash         2    
BACKUP: 100.000000 110.000000 (255,0,0)      Long_Dash         2    
BACKUP: 110.000000 120.000000 (255,0,0)      Long_Dash         2    
CURVE: AUD1  0.000000   500.000000 (255,131,0)    Short_Dash/Dot    2     N    
CURVE: AUD2  500.000000 0.000000   (255,255,0)    Medium_Dash/Dot   2     N    
CURVE: NPHI  0.300000   -0.100000  (0,0,255)      Solid             2     Y    
BACKUP: 0.700000   0.300000   (0,0,255)      Solid             2    
ENDTRACK: 
#
#   TRACK 4
#
STARTTRACK: 
 LEFTX: 6.000000 inch
 RIGHTX: 8.500000 inch
 SCALETYPE: Linear
 NUMCHARTDIVISIONS: 10
CURVE: RHOC  0.450000   -0.050000  (255,131,0)    Solid             2     Y    
BACKUP: -0.050000  -0.550000  (255,131,0)    Solid             2    
BACKUP: 0.950000   0.450000   (255,131,0)    Solid             2    
CURVE: COHS  -1.000000  9.000000   (0,131,131)    Solid             2     N    
CURVE: COHC  0.000000   10.000000  (255,0,255)    Dot               2     N    
ENDTRACK: 
<DescLogPlotEnd>
<Merge Data>
 Curve Name   Start    Splice   Stop    
 GR1 DA1 SA1  70.0     N/A      14660.0 
 TEN1 DA1 SA2 70.0     N/A      14660.0 
 CALI1 DA1 SA3 70.0     N/A      14660.0 
 TDELTAT1 DA1 SA4 70.0     N/A      10050.0 
 RHOZ1 DA3 SA1 70.0     N/A      14660.0 
 PEFZ1 DA3 SA2 70.0     N/A      14660.0 
 ENPH1 DA3 SA3 70.0     N/A      10050.0 
 DPHZ1 DA3 SA4 70.0     N/A      10050.0 
 TEMP1 DA3 SA5 70.0     N/A      10050.0 
 AUD11 DA3 SA6 70.0     N/A      10050.0 
 AUD21 DA3 SA7 70.0     N/A      10050.0 
 RHOC1 DA4 SA1 70.0     N/A      14660.0 
 NPHI1 DA3 SA8 70.0     N/A      14660.0 
 AHF901 DA2 SA1 70.0     N/A      10050.0 
 AHF601 DA2 SA2 70.0     N/A      10050.0 
 HRM1 DA1 SA5 70.0     N/A      12950.0 
 RXOZ1 DA2 SA3 70.0     N/A      12950.0 
 LLS1 DA2 SA4 70.0     N/A      12950.0 
 LLD1 DA2 SA5 70.0     N/A      12950.0 
 HD1 DA1 SA1  4680.0   N/A      10030.0 
 COHS1 DA2 SA1 4680.0   N/A      10030.0 
 COHC1 DA2 SA2 4680.0   N/A      10030.0 
</Merge Data>
~A DEPTH     GR               TEN              CALI             TDELTAT             RHOZ             PEFZ             ENPH             DPHZ             TEMP             AUD1             AUD2             RHOC             NPHI             AHF90             AHF60             HRM              RXOZ             LLS              LLD              HD               COHS             COHC            
# ...
    7084.000 124.05           338.25           9.95             -999.25          2.70             3.38             -999.25          -999.25          -999.25          -999.25          -999.25          0.00             0.16             -999.25          -999.25          0.13             25.31            25.78            25.78            9.28             0.16             0.66            
    7084.500 124.64           331.93           10.03            -999.25          2.72             3.40             -999.25          -999.25          -999.25          -999.25          -999.25          0.00             0.16             -999.25          -999.25          0.13             33.69            27.50            27.50            9.26             0.16             0.61            
    7085.000 125.25           335.01           10.10            -999.25          2.70             3.33             -999.25          -999.25          -999.25          -999.25          -999.25          0.00             0.16             -999.25          -999.25          0.13             38.33            29.61            29.61            9.29             0.17             0.54            
    7085.500 123.75           342.54           10.14            -999.25          2.70             3.24             -999.25          -999.25          -999.25          -999.25          -999.25          0.00             0.15             -999.25          -999.25          0.13             32.17            31.58            31.58            9.38             0.32             0.35            
    7086.000 120.23           348.32           10.16            -999.25          2.70             3.27             -999.25          -999.25          -999.25          -999.25          -999.25          0.01             0.17             -999.25          -999.25          0.13             36.83            32.77            32.77            9.56             0.39             0.24            
    7086.500 118.13           350.16           10.19            -999.25          2.70             3.34             -999.25          -999.25          -999.25          -999.25          -999.25          0.01             0.17             -999.25          -999.25          0.13             46.17            32.77            32.77            9.64             0.25             0.34            
    7087.000 116.96           347.08           10.21            -999.25          2.68             3.39             -999.25          -999.25          -999.25          -999.25          -999.25          0.01             0.17             -999.25          -999.25          0.13             52.46            29.06            29.06            9.82             0.15             0.53            
    7087.500 116.57           341.50           10.23            -999.25          2.66             3.13             -999.25          -999.25          -999.25          -999.25          -999.25          0.02             0.17             -999.25          -999.25          0.13             47.04            29.06            29.06            9.92             0.15             0.58            
    7088.000 115.58           335.01           10.15            -999.25          2.66             3.12             -999.25          -999.25          -999.25          -999.25          -999.25          0.03             0.18             -999.25          -999.25          0.13             39.13            31.29            31.29            9.97             0.15             0.59            
    7088.500 114.90           338.88           10.14            -999.25          2.67             3.22             -999.25          -999.25          -999.25          -999.25          -999.25          0.03             0.17             -999.25          -999.25          0.13             32.21            34.63            34.63            9.67             0.15             0.58            
    7089.000 114.80           345.32           10.12            -999.25          2.67             3.56             -999.25          -999.25          -999.25          -999.25          -999.25          0.03             0.15             -999.25          -999.25          0.13             28.80            36.03            36.03            9.62             0.15             0.58            
    7089.500 111.77           351.11           10.13            -999.25          2.67             3.60             -999.25          -999.25          -999.25          -999.25          -999.25          0.01             0.14             -999.25          -999.25          0.13             34.96            35.99            35.99            9.67             0.15             0.58            
    7090.000 108.23           345.07           10.11            -999.25          2.67             3.62             -999.25          -999.25          -999.25          -999.25          -999.25          0.00             0.13             -999.25          -999.25          0.13             37.98            35.85            35.85            9.69             0.15             0.56            
    7090.500 104.91           343.28           10.01            -999.25          2.68             3.65             -999.25          -999.25          -999.25          -999.25          -999.25          0.00             0.13             -999.25          -999.25          0.13             37.58            33.38            33.38            9.72             0.16             0.54            
    7091.000 102.39           337.02           10.02            -999.25          2.69             3.62             -999.25          -999.25          -999.25          -999.25          -999.25          0.00             0.14             -999.25          -999.25          0.13             34.33            33.38            33.38            9.75             0.19             0.50            
    7091.500 97.93            330.99           10.02            -999.25          2.69             3.57             -999.25          -999.25          -999.25          -999.25          -999.25          0.00             0.14             -999.25          -999.25          0.13             36.97            30.72            30.72            9.70             0.26             0.41            
    7092.000 97.69            330.99           10.03            -999.25          2.68             3.59             -999.25          -999.25          -999.25          -999.25          -999.25          0.00             0.13             -999.25          -999.25          0.13             33.59            28.01            28.01            9.51             0.21             0.38            
    7092.500 101.86           340.36           10.07            -999.25          2.67             3.64             -999.25          -999.25          -999.25          -999.25          -999.25          0.00             0.14             -999.25          -999.25          0.13             31.94            28.01            28.01            9.51             0.15             0.49            
    7093.000 104.12           351.11           10.12            -999.25          2.68             3.70             -999.25          -999.25          -999.25          -999.25          -999.25          0.00             0.14             -999.25          -999.25          0.13             30.70            28.53            28.53            9.49             0.08             0.54            
    7093.500 103.11           350.83           10.13            -999.25          2.68             3.72             -999.25          -999.25          -999.25          -999.25          -999.25          0.00             0.16             -999.25          -999.25          0.13             27.67            29.61            29.61            9.43             0.02             0.54            
    7094.000 99.17            344.09           10.17            -999.25          2.67             3.63             -999.25          -999.25          -999.25          -999.25          -999.25          0.01             0.15             -999.25          -999.25          0.13             27.25            31.58            31.58            9.37             -0.05            0.53            
