~Version Information Block
 VERS.                2.00:     CWLS LOG ASCII STANDARD - VERSION 2.000000
 WRAP.                  NO:     One Line Per Depth Step
#
~Well Information Block
#MNEM.UNIT                     Data                         Information
#----------   ------------------------------------------   ----------------
 STRT.FT                                       70.0000:     START DEPTH
 STOP.FT                                    10050.0000:     STOP DEPTH
 STEP.FT                                        0.5000:     STEP
 NULL.                                       -999.2500:     NULL VALUE
 COMP.                 Columbia Natural Resources, Inc:     COMPANY
 WELL.                         Gertrude Harbin #824457:     WELL
 FLD .                                        Rockport:     FIELD
 LOC .                                                :     LOCATION
 LONG.                                  -81.6230090000:     LONGITUDE
 LATI.                                   38.9667430000:     LATITUDE
 CNTY.                                         Jackson:     COUNTY
 STAT.                                              WV:     STATE
 CTRY.                                             USA:     COUNTRY
 SRVC.                                    Schlumberger:     SERVICE COMPANY
 DATE.                                                :     DATE
 API .                                      4703502482:     API NUMBER
 UWI .                                      4703502482:     UWI NUMBER
 SLAT.                                       38.966743:     Surface latitude
 SLON.                                      -81.623009:     surface longitude
 TVD .                                              NO:     TVD flag
 WSTA.                                             LOC:     Well status
#
~Curve Information Block
#MNEM.UNIT       API CODE      Curve Description
#----------    -------------   -------------------
 DEPT.FT                   :   Depth in Feet
 GR  .GAPI     35 310 01 01:   Gamma Ray
 TEN .LBF                  :   
 CALI.IN       70 280 01 01:   Caliper
 TDELTAT.DC/K                 :   
 RHOZ.G/C3                 :   Standard Res Formation Density
 PEFZ.B/E                  :   Standard Res Formation Photo-electric
 ENPH.V/V                  :   Epithermal Neutron Porosity
 DPHZ.V/V                  :   Std. Res. Density Porosity
 TEMP.DEGF                 :   Temperature
 AUD1.MV                   :   
 AUD2.MV                   :   
 RHOC.G/C3                 :   Density Correction
 NPHI.V/V      42 890 03 01:   Neutron Porosity
 AHF90.OHMM                 :   AIT-H 90 Inch Investigation
 AHF60.OHMM                 :   AHF60
 HRM .OHMM                 :   Filtered Mud Resistivity from Deep Measure
 RXOZ.OHMM                 :   Standard Res Invaded Zone Resistivity
 LLS .OHMM     10 220 09 01:   Latero-Log Shallow (Resistivity)
 LLD .OHMM     10 220 10 01:   LLD
 HD  .IN                   :   Hole Diameter
 COHS.----                 :   Coherence Value At Shear Peak
 COHC.----                 :   Coherence Value At Compressional Peak
#
~Parameter Information Block
#MNEM.UNIT            Value               Description
#----------    --------------------    -------------------
 DATE.                   4/20/2001:    Date As Month-Day-Year
 RUN .                         ONE:    Run Number
 PDAT.                          GL:    Permanent Datum
 EPD .FT                  705.0000:    Elevation Of Perm. Datum
 LMF .                          KB:    Log Measured From
 FAPD.FT                   15.0000:    Feet Above Perm. Datum
 DMF .                          KB:    Drilling Measured From
 EKB .FT                  720.0000:    Elevation Of Kelly Bushing
 EDF .FT                  719.0000:    Elevation Of Derrick Floor
 EGL .FT                  705.0000:    Elevation Of Ground Level
 TD  .FT                10035.0000:    Total Depth
 DD  .FT                 5122.0000:    Depth Driller
 DL  .FT                 5122.0000:    Depth Logger
 BLI .FT                 5104.0000:    Bottom Log Interval
 TLI .FT                    0.0000:    Top Log Interval
 DFT .                         AIR:    Drilling Fluid Type
 MRT .DEGF                108.0000:    Maximum Recorded Temperature
 DGBY.                          GC:    
 WSTA.                         LOC:    
 NEXT.RUN                         :
 DATE.                   5/12/2001:    Date As Month-Day-Year
 RUN .                         TWO:    Run Number
 DD  .FT                 8429.0000:    Depth Driller
 DL  .FT                 8345.0000:    Depth Logger
 BLI .FT                 8327.0000:    Bottom Log Interval
 TLI .FT                 5104.0000:    Top Log Interval
 DFT .                     KCL Mud:    Drilling Fluid Type
 MRT .DEGF                147.0000:    Maximum Recorded Temperature
 NEXT.RUN                         :
 DATE.                   5/25/2001:    Date As Month-Day-Year
 RUN .                       THREE:    Run Number
 DD  .FT                10073.0000:    Depth Driller
 DL  .FT                10035.0000:    Depth Logger
 BLI .FT                10030.0000:    Bottom Log Interval
 TLI .FT                 8100.0000:    Top Log Interval
 DFT .                      3% KCL:    Drilling Fluid Type
 MRT .DEGF                168.0000:    Maximum Recorded Temperature
#
~Other Information Block
<DescLogPlotStart>   NEURALOG PLOT DEFINITION
PLOTDEFVERSION: 3
LASFILE: C:\Documents and Settings\gcase.WVGS\Desktop\PriorityWells\Jackson\470
DEPTHSCALE: 239.999996
RESOLUTION: 200
DEPTHLABELFREQ: 100.000000
HEAVYGRIDFREQ: 100.000000
MEDIUMGRIDFREQ: 50.000000
LIGHTGRIDFREQ: 10.000000
#
#   TRACK 1
#
STARTTRACK: 
 LEFTX: 0.500000 inch
 RIGHTX: 3.000000 inch
 SCALETYPE: Linear
 NUMCHARTDIVISIONS: 10
CURVE: GR    0.000000   200.000000 (0,0,255)      Solid             2     Y    
BACKUP: 200.000000 400.000000 (0,0,255)      Solid             2    
BACKUP: 400.000000 600.000000 (0,0,255)      Solid             2    
CURVE: TEN   10000.000000 0.000000   (0,131,131)    Dot               2     N  
CURVE: CALI  5.000000   15.000000  (255,0,255)    Short_Dash        2     N    
CURVE: TDELTAT -1.000000  1.000000   (255,0,0)      Medium_Dash       2     Y  
BACKUP: -3.000000  -1.000000  (255,0,0)      Medium_Dash       2    
BACKUP: 1.000000   3.000000   (255,0,0)      Medium_Dash       2    
CURVE: HRM   0.000000   0.200000   (255,0,255)    Solid             2     N    
CURVE: HD    7.000000   17.000000  (0,0,255)      Solid             2     N    
ENDTRACK: 
#
#   TRACK 2
#
STARTTRACK: 
 LEFTX: 3.500000 inch
 RIGHTX: 6.000000 inch
 SCALETYPE: Log
 NUMCYCLES: 4
 STARTCYCLE: 2
CURVE: AHF90 0.200000   2000.000000 (0,0,255)      Dot               2     N   
CURVE: AHF60 0.200000   2000.000000 (0,131,131)    Short_Dash        2     N   
CURVE: RXOZ  0.200000   2000.000000 (255,0,0)      Solid             2     Y   
BACKUP: 2000.000000 20000000.000000 (255,0,0)      Solid             2    
CURVE: LLS   0.200000   2000.000000 (255,131,0)    Long_Dash         2     Y   
BACKUP: 2000.000000 20000000.000000 (255,131,0)    Dot               2    
CURVE: LLD   0.200000   2000.000000 (0,0,0)        Dot               2     Y   
BACKUP: 2000.000000 20000000.000000 (0,0,0)        Dot               2    
ENDTRACK: 
#
#   TRACK 3
#
STARTTRACK: 
 LEFTX: 3.500000 inch
 RIGHTX: 8.500000 inch
 SCALETYPE: Linear
 NUMCHARTDIVISIONS: 10
CURVE: RHOZ  2.000000   3.000000   (255,255,0)    Solid             2     N    
CURVE: PEFZ  0.000000   10.000000  (0,0,255)      Dot               2     N    
CURVE: ENPH  0.300000   -0.100000  (0,131,131)    Short_Dash        2     N    
CURVE: DPHZ  0.300000   -0.100000  (255,0,255)    Medium_Dash       2     N    
CURVE: TEMP  80.000000  90.000000  (255,0,0)      Long_Dash         2     Y    
BACKUP: 90.000000  100.000000 (255,0,0)      Long_Dash         2    
BACKUP: 100.000000 110.000000 (255,0,0)      Long_Dash         2    
BACKUP: 110.000000 120.000000 (255,0,0)      Long_Dash         2    
CURVE: AUD1  0.000000   500.000000 (255,131,0)    Short_Dash/Dot    2     N    
CURVE: AUD2  500.000000 0.000000   (255,255,0)    Medium_Dash/Dot   2     N    
CURVE: NPHI  0.300000   -0.100000  (0,0,255)      Solid             2     Y    
BACKUP: 0.700000   0.300000   (0,0,255)      Solid             2    
ENDTRACK: 
#
#   TRACK 4
#
STARTTRACK: 
 LEFTX: 6.000000 inch
 RIGHTX: 8.500000 inch
 SCALETYPE: Linear
 NUMCHARTDIVISIONS: 10
CURVE: RHOC  0.450000   -0.050000  (255,131,0)    Solid             2     Y    
BACKUP: -0.050000  -0.550000  (255,131,0)    Solid             2    
BACKUP: 0.950000   0.450000   (255,131,0)    Solid             2    
CURVE: COHS  -1.000000  9.000000   (0,131,131)    Solid             2     N    
CURVE: COHC  0.000000   10.000000  (255,0,255)    Dot               2     N    
ENDTRACK: 
<DescLogPlotEnd>
<Merge Data>
 Curve Name   Start    Splice   Stop    
 GR1 DA1 SA1  70.0     N/A      14660.0 
 TEN1 DA1 SA2 70.0     N/A      14660.0 
 CALI1 DA1 SA3 70.0     N/A      14660.0 
 TDELTAT1 DA1 SA4 70.0     N/A      10050.0 
 RHOZ1 DA3 SA1 70.0     N/A      14660.0 
 PEFZ1 DA3 SA2 70.0     N/A      14660.0 
 ENPH1 DA3 SA3 70.0     N/A      10050.0 
 DPHZ1 DA3 SA4 70.0     N/A      10050.0 
 TEMP1 DA3 SA5 70.0     N/A      10050.0 
 AUD11 DA3 SA6 70.0     N/A      10050.0 
 AUD21 DA3 SA7 70.0     N/A      10050.0 
 RHOC1 DA4 SA1 70.0     N/A      14660.0 
 NPHI1 DA3 SA8 70.0     N/A      14660.0 
 AHF901 DA2 SA1 70.0     N/A      10050.0 
 AHF601 DA2 SA2 70.0     N/A      10050.0 
 HRM1 DA1 SA5 70.0     N/A      12950.0 
 RXOZ1 DA2 SA3 70.0     N/A      12950.0 
 LLS1 DA2 SA4 70.0     N/A      12950.0 
 LLD1 DA2 SA5 70.0     N/A      12950.0 
 HD1 DA1 SA1  4680.0   N/A      10030.0 
 COHS1 DA2 SA1 4680.0   N/A      10030.0 
 COHC1 DA2 SA2 4680.0   N/A      10030.0 
</Merge Data>
~A DEPTH     GR               TEN              CALI             TDELTAT             RHOZ             PEFZ             ENPH             DPHZ             TEMP             AUD1             AUD2             RHOC             NPHI             AHF90             AHF60             HRM              RXOZ             LLS              LLD              HD               COHS             COHC            
# ...
    6244.000 167.06           324.08           12.55            -999.25          2.73             3.40             -999.25          -999.25          -999.25          -999.25          -999.25          0.32             0.22             -999.25          -999.25          0.14             5.37             32.77            32.17            10.11            0.64             0.48            
    6244.500 163.40           318.30           12.52            -999.25          2.73             3.43             -999.25          -999.25          -999.25          -999.25          -999.25          0.33             0.23             -999.25          -999.25          0.14             5.41             31.58            32.17            10.07            0.73             0.48            
    6245.000 163.08           314.89           12.64            -999.25          2.76             3.46             -999.25          -999.25          -999.25          -999.25          -999.25          0.35             0.25             -999.25          -999.25          0.14             5.49             31.58            32.17            10.04            0.72             0.48            
    6245.500 165.45           322.94           12.74            -999.25          2.78             3.50             -999.25          -999.25          -999.25          -999.25          -999.25          0.34             0.27             -999.25          -999.25          0.14             5.78             31.58            30.72            10.02            0.69             0.48            
    6246.000 167.45           326.80           12.95            -999.25          2.79             3.51             -999.25          -999.25          -999.25          -999.25          -999.25          0.44             0.28             -999.25          -999.25          0.13             5.86             31.58            30.72            10.02            0.75             0.48            
    6246.500 166.69           328.97           13.03            -999.25          2.77             3.51             -999.25          -999.25          -999.25          -999.25          -999.25          0.45             0.28             -999.25          -999.25          0.14             5.94             32.77            31.58            10.02            0.85             0.48            
    6247.000 164.42           320.93           13.22            -999.25          2.77             3.50             -999.25          -999.25          -999.25          -999.25          -999.25          0.45             0.26             -999.25          -999.25          0.14             5.57             34.00            32.77            10.01            0.86             0.46            
    6247.500 161.93           316.39           13.19            -999.25          2.78             3.44             -999.25          -999.25          -999.25          -999.25          -999.25          0.45             0.26             -999.25          -999.25          0.14             5.42             34.63            32.77            9.99             0.83             0.47            
    6248.000 159.91           308.85           13.13            -999.25          2.79             3.41             -999.25          -999.25          -999.25          -999.25          -999.25          0.44             0.26             -999.25          -999.25          0.14             5.80             35.61            33.38            9.97             0.81             0.48            
    6248.500 158.33           314.89           13.16            -999.25          2.80             3.41             -999.25          -999.25          -999.25          -999.25          -999.25          0.44             0.26             -999.25          -999.25          0.14             6.16             36.61            34.00            9.96             0.80             0.47            
    6249.000 156.61           317.20           13.20            -999.25          2.80             3.41             -999.25          -999.25          -999.25          -999.25          -999.25          0.44             0.25             -999.25          -999.25          0.14             7.61             36.61            34.00            9.88             0.69             0.44            
    6249.500 155.52           323.52           13.23            -999.25          2.81             3.41             -999.25          -999.25          -999.25          -999.25          -999.25          0.45             0.23             -999.25          -999.25          0.14             7.16             35.28            34.63            9.80             0.49             0.45            
    6250.000 156.12           326.96           13.21            -999.25          2.80             3.38             -999.25          -999.25          -999.25          -999.25          -999.25          0.45             0.22             -999.25          -999.25          0.14             6.53             33.38            35.28            9.77             0.57             0.48            
    6250.500 159.10           324.95           13.15            -999.25          2.79             3.38             -999.25          -999.25          -999.25          -999.25          -999.25          0.44             0.21             -999.25          -999.25          0.14             5.95             34.00            36.01            9.73             0.69             0.46            
    6251.000 159.44           314.89           13.10            -999.25          2.75             3.40             -999.25          -999.25          -999.25          -999.25          -999.25          0.42             0.22             -999.25          -999.25          0.14             5.67             35.28            36.59            9.69             0.79             0.46            
    6251.500 156.39           318.91           13.14            -999.25          2.73             3.43             -999.25          -999.25          -999.25          -999.25          -999.25          0.41             0.22             -999.25          -999.25          0.14             5.52             36.61            38.34            9.65             0.77             0.46            
    6252.000 151.46           321.62           12.93            -999.25          2.73             3.42             -999.25          -999.25          -999.25          -999.25          -999.25          0.42             0.22             -999.25          -999.25          0.14             5.83             39.78            39.78            9.63             0.71             0.46            
    6252.500 150.33           322.37           12.80            -999.25          2.75             3.39             -999.25          -999.25          -999.25          -999.25          -999.25          0.44             0.22             -999.25          -999.25          0.14             5.78             46.53            46.53            9.59             0.73             0.46            
    6253.000 154.88           323.03           12.84            -999.25          2.75             3.41             -999.25          -999.25          -999.25          -999.25          -999.25          0.47             0.22             -999.25          -999.25          0.14             6.16             49.18            49.18            9.59             0.77             0.51            
    6253.500 160.38           320.93           12.97            -999.25          2.77             3.42             -999.25          -999.25          -999.25          -999.25          -999.25          0.45             0.21             -999.25          -999.25          0.14             7.54             51.51            51.51            9.58             0.75             0.50            
    6254.000 160.23           316.81           12.81            -999.25          2.76             3.38             -999.25          -999.25          -999.25          -999.25          -999.25          0.47             0.21             -999.25          -999.25          0.14             7.20             51.98            51.98            9.61             0.74             0.49            
