~Version Information Block
 VERS.                2.00:     CWLS LOG ASCII STANDARD - VERSION 2.000000
 WRAP.                  NO:     One Line Per Depth Step
#
~Well Information Block
#MNEM.UNIT                     Data                         Information
#----------   ------------------------------------------   ----------------
 STRT.FT                                       70.0000:     START DEPTH
 STOP.FT                                    10050.0000:     STOP DEPTH
 STEP.FT                                        0.5000:     STEP
 NULL.                                       -999.2500:     NULL VALUE
 COMP.                 Columbia Natural Resources, Inc:     COMPANY
 WELL.                         Gertrude Harbin #824457:     WELL
 FLD .                                        Rockport:     FIELD
 LOC .                                                :     LOCATION
 LONG.                                  -81.6230090000:     LONGITUDE
 LATI.                                   38.9667430000:     LATITUDE
 CNTY.                                         Jackson:     COUNTY
 STAT.                                              WV:     STATE
 CTRY.                                             USA:     COUNTRY
 SRVC.                                    Schlumberger:     SERVICE COMPANY
 DATE.                                                :     DATE
 API .                                      4703502482:     API NUMBER
 UWI .                                      4703502482:     UWI NUMBER
 SLAT.                                       38.966743:     Surface latitude
 SLON.                                      -81.623009:     surface longitude
 TVD .                                              NO:     TVD flag
 WSTA.                                             LOC:     Well status
#
~Curve Information Block
#MNEM.UNIT       API CODE      Curve Description
#----------    -------------   -------------------
 DEPT.FT                   :   Depth in Feet
 GR  .GAPI     35 310 01 01:   Gamma Ray
 TEN .LBF                  :   
 CALI.IN       70 280 01 01:   Caliper
 TDELTAT.DC/K                 :   
 RHOZ.G/C3                 :   Standard Res Formation Density
 PEFZ.B/E                  :   Standard Res Formation Photo-electric
 ENPH.V/V                  :   Epithermal Neutron Porosity
 DPHZ.V/V                  :   Std. Res. Density Porosity
 TEMP.DEGF                 :   Temperature
 AUD1.MV                   :   
 AUD2.MV                   :   
 RHOC.G/C3                 :   Density Correction
 NPHI.V/V      42 890 03 01:   Neutron Porosity
 AHF90.OHMM                 :   AIT-H 90 Inch Investigation
 AHF60.OHMM                 :   AHF60
 HRM .OHMM                 :   Filtered Mud Resistivity from Deep Measure
 RXOZ.OHMM                 :   Standard Res Invaded Zone Resistivity
 LLS .OHMM     10 220 09 01:   Latero-Log Shallow (Resistivity)
 LLD .OHMM     10 220 10 01:   LLD
 HD  .IN                   :   Hole Diameter
 COHS.----                 :   Coherence Value At Shear Peak
 COHC.----                 :   Coherence Value At Compressional Peak
#
~Parameter Information Block
#MNEM.UNIT            Value               Description
#----------    --------------------    -------------------
 DATE.                   4/20/2001:    Date As Month-Day-Year
 RUN .                         ONE:    Run Number
 PDAT.                          GL:    Permanent Datum
 EPD .FT                  705.0000:    Elevation Of Perm. Datum
 LMF .                          KB:    Log Measured From
 FAPD.FT                   15.0000:    Feet Above Perm. Datum
 DMF .                          KB:    Drilling Measured From
 EKB .FT                  720.0000:    Elevation Of Kelly Bushing
 EDF .FT                  719.0000:    Elevation Of Derrick Floor
 EGL .FT                  705.0000:    Elevation Of Ground Level
 TD  .FT                10035.0000:    Total Depth
 DD  .FT                 5122.0000:    Depth Driller
 DL  .FT                 5122.0000:    Depth Logger
 BLI .FT                 5104.0000:    Bottom Log Interval
 TLI .FT                    0.0000:    Top Log Interval
 DFT .                         AIR:    Drilling Fluid Type
 MRT .DEGF                108.0000:    Maximum Recorded Temperature
 DGBY.                          GC:    
 WSTA.                         LOC:    
 NEXT.RUN                         :
 DATE.                   5/12/2001:    Date As Month-Day-Year
 RUN .                         TWO:    Run Number
 DD  .FT                 8429.0000:    Depth Driller
 DL  .FT                 8345.0000:    Depth Logger
 BLI .FT                 8327.0000:    Bottom Log Interval
 TLI .FT                 5104.0000:    Top Log Interval
 DFT .                     KCL Mud:    Drilling Fluid Type
 MRT .DEGF                147.0000:    Maximum Recorded Temperature
 NEXT.RUN                         :
 DATE.                   5/25/2001:    Date As Month-Day-Year
 RUN .                       THREE:    Run Number
 DD  .FT                10073.0000:    Depth Driller
 DL  .FT                10035.0000:    Depth Logger
 BLI .FT                10030.0000:    Bottom Log Interval
 TLI .FT                 8100.0000:    Top Log Interval
 DFT .                      3% KCL:    Drilling Fluid Type
 MRT .DEGF                168.0000:    Maximum Recorded Temperature
#
~Other Information Block
<DescLogPlotStart>   NEURALOG PLOT DEFINITION
PLOTDEFVERSION: 3
LASFILE: C:\Documents and Settings\gcase.WVGS\Desktop\PriorityWells\Jackson\470
DEPTHSCALE: 239.999996
RESOLUTION: 200
DEPTHLABELFREQ: 100.000000
HEAVYGRIDFREQ: 100.000000
MEDIUMGRIDFREQ: 50.000000
LIGHTGRIDFREQ: 10.000000
#
#   TRACK 1
#
STARTTRACK: 
 LEFTX: 0.500000 inch
 RIGHTX: 3.000000 inch
 SCALETYPE: Linear
 NUMCHARTDIVISIONS: 10
CURVE: GR    0.000000   200.000000 (0,0,255)      Solid             2     Y    
BACKUP: 200.000000 400.000000 (0,0,255)      Solid             2    
BACKUP: 400.000000 600.000000 (0,0,255)      Solid             2    
CURVE: TEN   10000.000000 0.000000   (0,131,131)    Dot               2     N  
CURVE: CALI  5.000000   15.000000  (255,0,255)    Short_Dash        2     N    
CURVE: TDELTAT -1.000000  1.000000   (255,0,0)      Medium_Dash       2     Y  
BACKUP: -3.000000  -1.000000  (255,0,0)      Medium_Dash       2    
BACKUP: 1.000000   3.000000   (255,0,0)      Medium_Dash       2    
CURVE: HRM   0.000000   0.200000   (255,0,255)    Solid             2     N    
CURVE: HD    7.000000   17.000000  (0,0,255)      Solid             2     N    
ENDTRACK: 
#
#   TRACK 2
#
STARTTRACK: 
 LEFTX: 3.500000 inch
 RIGHTX: 6.000000 inch
 SCALETYPE: Log
 NUMCYCLES: 4
 STARTCYCLE: 2
CURVE: AHF90 0.200000   2000.000000 (0,0,255)      Dot               2     N   
CURVE: AHF60 0.200000   2000.000000 (0,131,131)    Short_Dash        2     N   
CURVE: RXOZ  0.200000   2000.000000 (255,0,0)      Solid             2     Y   
BACKUP: 2000.000000 20000000.000000 (255,0,0)      Solid             2    
CURVE: LLS   0.200000   2000.000000 (255,131,0)    Long_Dash         2     Y   
BACKUP: 2000.000000 20000000.000000 (255,131,0)    Dot               2    
CURVE: LLD   0.200000   2000.000000 (0,0,0)        Dot               2     Y   
BACKUP: 2000.000000 20000000.000000 (0,0,0)        Dot               2    
ENDTRACK: 
#
#   TRACK 3
#
STARTTRACK: 
 LEFTX: 3.500000 inch
 RIGHTX: 8.500000 inch
 SCALETYPE: Linear
 NUMCHARTDIVISIONS: 10
CURVE: RHOZ  2.000000   3.000000   (255,255,0)    Solid             2     N    
CURVE: PEFZ  0.000000   10.000000  (0,0,255)      Dot               2     N    
CURVE: ENPH  0.300000   -0.100000  (0,131,131)    Short_Dash        2     N    
CURVE: DPHZ  0.300000   -0.100000  (255,0,255)    Medium_Dash       2     N    
CURVE: TEMP  80.000000  90.000000  (255,0,0)      Long_Dash         2     Y    
BACKUP: 90.000000  100.000000 (255,0,0)      Long_Dash         2    
BACKUP: 100.000000 110.000000 (255,0,0)      Long_Dash         2    
BACKUP: 110.000000 120.000000 (255,0,0)      Long_Dash         2    
CURVE: AUD1  0.000000   500.000000 (255,131,0)    Short_Dash/Dot    2     N    
CURVE: AUD2  500.000000 0.000000   (255,255,0)    Medium_Dash/Dot   2     N    
CURVE: NPHI  0.300000   -0.100000  (0,0,255)      Solid             2     Y    
BACKUP: 0.700000   0.300000   (0,0,255)      Solid             2    
ENDTRACK: 
#
#   TRACK 4
#
STARTTRACK: 
 LEFTX: 6.000000 inch
 RIGHTX: 8.500000 inch
 SCALETYPE: Linear
 NUMCHARTDIVISIONS: 10
CURVE: RHOC  0.450000   -0.050000  (255,131,0)    Solid             2     Y    
BACKUP: -0.050000  -0.550000  (255,131,0)    Solid             2    
BACKUP: 0.950000   0.450000   (255,131,0)    Solid             2    
CURVE: COHS  -1.000000  9.000000   (0,131,131)    Solid             2     N    
CURVE: COHC  0.000000   10.000000  (255,0,255)    Dot               2     N    
ENDTRACK: 
<DescLogPlotEnd>
<Merge Data>
 Curve Name   Start    Splice   Stop    
 GR1 DA1 SA1  70.0     N/A      14660.0 
 TEN1 DA1 SA2 70.0     N/A      14660.0 
 CALI1 DA1 SA3 70.0     N/A      14660.0 
 TDELTAT1 DA1 SA4 70.0     N/A      10050.0 
 RHOZ1 DA3 SA1 70.0     N/A      14660.0 
 PEFZ1 DA3 SA2 70.0     N/A      14660.0 
 ENPH1 DA3 SA3 70.0     N/A      10050.0 
 DPHZ1 DA3 SA4 70.0     N/A      10050.0 
 TEMP1 DA3 SA5 70.0     N/A      10050.0 
 AUD11 DA3 SA6 70.0     N/A      10050.0 
 AUD21 DA3 SA7 70.0     N/A      10050.0 
 RHOC1 DA4 SA1 70.0     N/A      14660.0 
 NPHI1 DA3 SA8 70.0     N/A      14660.0 
 AHF901 DA2 SA1 70.0     N/A      10050.0 
 AHF601 DA2 SA2 70.0     N/A      10050.0 
 HRM1 DA1 SA5 70.0     N/A      12950.0 
 RXOZ1 DA2 SA3 70.0     N/A      12950.0 
 LLS1 DA2 SA4 70.0     N/A      12950.0 
 LLD1 DA2 SA5 70.0     N/A      12950.0 
 HD1 DA1 SA1  4680.0   N/A      10030.0 
 COHS1 DA2 SA1 4680.0   N/A      10030.0 
 COHC1 DA2 SA2 4680.0   N/A      10030.0 
</Merge Data>
~A DEPTH     GR               TEN              CALI             TDELTAT             RHOZ             PEFZ             ENPH             DPHZ             TEMP             AUD1             AUD2             RHOC             NPHI             AHF90             AHF60             HRM              RXOZ             LLS              LLD              HD               COHS             COHC            
# ...
    7504.000 85.97            373.24           9.19             -999.25          2.74             4.10             -999.25          -999.25          -999.25          -999.25          -999.25          0.00             0.09             -999.25          -999.25          0.13             31.83            67.31            67.31            12.30            0.39             0.36            
    7504.500 87.11            379.28           9.19             -999.25          2.73             4.07             -999.25          -999.25          -999.25          -999.25          -999.25          0.01             0.08             -999.25          -999.25          0.13             27.36            58.61            58.61            11.64            0.40             0.46            
    7505.000 91.16            377.73           9.20             -999.25          2.72             4.04             -999.25          -999.25          -999.25          -999.25          -999.25          0.00             0.08             -999.25          -999.25          0.13             24.86            47.84            47.84            12.16            0.42             0.51            
    7505.500 97.24            375.63           9.18             -999.25          2.71             4.01             -999.25          -999.25          -999.25          -999.25          -999.25          0.00             0.10             -999.25          -999.25          0.13             20.66            32.17            32.17            11.96            0.45             0.48            
    7506.000 105.33           371.23           9.20             -999.25          2.71             3.96             -999.25          -999.25          -999.25          -999.25          -999.25          -0.01            0.11             -999.25          -999.25          0.13             23.82            32.17            32.17            11.51            0.48             0.44            
    7506.500 109.92           368.14           9.18             -999.25          2.71             3.90             -999.25          -999.25          -999.25          -999.25          -999.25          -0.01            0.13             -999.25          -999.25          0.13             35.28            34.00            34.00            10.91            0.48             0.46            
    7507.000 111.63           373.24           9.18             -999.25          2.71             3.98             -999.25          -999.25          -999.25          -999.25          -999.25          0.00             0.14             -999.25          -999.25          0.13             61.74            35.28            35.28            9.72             0.42             0.48            
    7507.500 111.41           377.26           9.18             -999.25          2.69             3.74             -999.25          -999.25          -999.25          -999.25          -999.25          0.00             0.15             -999.25          -999.25          0.13             46.76            44.05            44.05            9.21             0.37             0.48            
    7508.000 114.15           383.00           9.20             -999.25          2.68             3.64             -999.25          -999.25          -999.25          -999.25          -999.25          0.00             0.15             -999.25          -999.25          0.13             37.85            55.93            55.93            9.12             0.43             0.48            
    7508.500 119.76           389.34           9.20             -999.25          2.68             3.55             -999.25          -999.25          -999.25          -999.25          -999.25          0.00             0.16             -999.25          -999.25          0.13             26.50            48.77            48.77            9.05             0.45             0.44            
    7509.000 119.80           367.20           9.18             -999.25          2.69             3.63             -999.25          -999.25          -999.25          -999.25          -999.25          0.00             0.15             -999.25          -999.25          0.13             30.96            33.38            33.38            9.04             0.41             0.45            
    7509.500 119.28           383.30           9.43             -999.25          2.70             3.71             -999.25          -999.25          -999.25          -999.25          -999.25          0.00             0.14             -999.25          -999.25          0.13             43.62            39.78            39.78            9.04             0.31             0.46            
    7510.000 113.16           378.13           9.13             -999.25          2.70             3.86             -999.25          -999.25          -999.25          -999.25          -999.25          0.00             0.13             -999.25          -999.25          0.13             41.28            44.03            44.03            9.04             0.33             0.48            
    7510.500 105.82           375.25           9.16             -999.25          2.70             3.94             -999.25          -999.25          -999.25          -999.25          -999.25          0.00             0.11             -999.25          -999.25          0.13             41.48            49.45            49.45            9.01             0.42             0.48            
    7511.000 102.09           377.26           9.16             -999.25          2.70             3.95             -999.25          -999.25          -999.25          -999.25          -999.25          -0.01            0.11             -999.25          -999.25          0.13             26.51            45.44            45.44            8.98             0.45             0.49            
    7511.500 101.62           371.75           9.16             -999.25          2.71             3.96             -999.25          -999.25          -999.25          -999.25          -999.25          -0.01            0.12             -999.25          -999.25          0.13             21.98            36.76            36.76            8.99             0.49             0.49            
    7512.000 101.82           367.20           9.15             -999.25          2.71             3.96             -999.25          -999.25          -999.25          -999.25          -999.25          -0.01            0.12             -999.25          -999.25          0.13             22.51            30.72            30.72            9.08             0.55             0.46            
    7512.500 101.96           373.24           9.16             -999.25          2.70             4.17             -999.25          -999.25          -999.25          -999.25          -999.25          0.00             0.13             -999.25          -999.25          0.13             24.16            30.72            30.72            9.10             0.52             0.43            
    7513.000 104.57           377.02           9.16             -999.25          2.70             4.05             -999.25          -999.25          -999.25          -999.25          -999.25          0.00             0.14             -999.25          -999.25          0.13             27.00            30.72            30.72            9.04             0.34             0.46            
    7513.500 106.98           377.26           9.16             -999.25          2.70             3.90             -999.25          -999.25          -999.25          -999.25          -999.25          0.00             0.15             -999.25          -999.25          0.13             30.20            32.89            32.89            9.01             0.19             0.48            
    7514.000 103.73           375.25           9.17             -999.25          2.70             4.13             -999.25          -999.25          -999.25          -999.25          -999.25          0.01             0.15             -999.25          -999.25          0.13             34.96            35.67            35.67            8.98             0.25             0.44            
