~VERSION INFORMATION
VERS.           2.0   :CWLS Log ASCII Standard - VERSION 2.0
WRAP.           NO    :One Line per depth step
PROD.  Schlumberger   :LAS Producer
PROG.  DLIS to ASCII 10C0-306                          :LAS Program name and version
CREA.        2009/06/06 22:47                          :LAS Creation date {YYYY/MM/DD hh:mm}
SOURCE.     69098cc6-8793-4dd0-b26c-6d8e6a63e169       :DLIS File Name
#--------------------------------------------------
~WELL INFORMATION
#MNEM.UNIT      DATA             DESCRIPTION
#---- ------ --------------   -----------------------------
STRT .F      10286.0000      :START DEPTH     
STOP .F      10607.0000      :STOP DEPTH     
STEP .F       0.5000         :STEP       
NULL .          -999.25      :NULL VALUE
COMP .        DENBURY ONSHORE, LLC                     :COMPANY
WELL .        CFU 31F #1                               :WELL
FLD  .        CRANFIELD FIELD UNIT                     :FIELD
LOC  .        X: 248,375.1'                            :LOCATION
CNTY .        FRANKLIN                                 :COUNTY
STAT .        MISSISSIPPI                              :STATE
CTRY .                                                 :COUNTRY
API  .        23-037-21488-0000                        :API NUMBER
UWI  .                                                 :UNIQUE WELL ID
DATE .        06-Jun-2009                              :LOG DATE {DD-MMM-YYYY}
SRVC .        Schlumberger                             :SERVICE COMPANY
LATI .DEG                                              :LATITUDE
LONG .DEG                                              :LONGITUDE
GDAT .                                                 :GeoDetic Datum
#-----------------------------------------------------------------------------
~PARAMETER INFORMATION
#MNEM.UNIT    VALUE                      DESCRIPTION
#---- -----   --------------------       ------------------------
CN   .        DENBURY ONSHORE  LLC       :Company Name
WN   .        CFU 31F #1                 :Well Name
FN   .        CRANFIELD FIELD UNIT       :Field Name
FL   .        X  248 375.1'              :Field Location
FL1  .        Y  387 674.2'              :Field Location Line 1
COUN .        FRANKLIN                   :County or Rig Name
STAT .        MISSISSIPPI                :State or Province
NATI .                                   :Nation
DATE .        6-Jun-2009                 :Date as Month-Day-Year
APIN .        23-037-21488-0000          :API Serial Number
SECT .        31                         :Section
TOWN .        7N                         :Township
RANG .        1E                         :Range
DMF  .        KELLY BUSHING              :Drilling Measured From
LMF  .        KELLY BUSHING              :Log Measured From
PDAT .        GROUND LEVEL               :Permanent Datum
ENGI .        CHRISTIAN ZACCARO          :Engineer's Name
WITN .        FRED WALSH                 :Witness's Name
LATI .                                   :Latitude
LONG .                                   :Longitude
LUL  .        NATCHEZ  MS                :Logging Unit Location
LUN  .              2157                 :Logging Unit Number
RUN  .        ONE                        :Run Number
SON  .        APWH-00103                 :Service Order Number
BHT  .DEGF     220.00000                 :Bottom Hole Temperature (used in calculations)
BS   .IN         8.75000                 :Bit Size
DFD  .LB/G       9.90000                 :Drilling Fluid Density
DFV  .S         42.00000                 :Drilling Fluid Viscosity
DFL  .C3         8.30000                 :Drilling Fluid Loss
RMFS .OHMM       1.21700                 :Resistivity of Mud Filtrate Sample
EKB  .F        333.70001                 :Elevation of Kelly Bushing
EGL  .F        315.70001                 :Elevation of Ground Level
BLI  .F       10628.00000                :Bottom Log Interval
BSAL .PPM     2600.00000                 :Borehole Salinity
FLEV .F          0.00000                 :Fluid Level
MCST .DEGF      74.90000                 :Mud Cake Sample Temperature
MFST .DEGF      74.80000                 :Mud Filtrate Sample Temperature
MRT  .DEGF     221.00000                 :Maximum Recorded Temperature
MST  .DEGF      76.20000                 :Mud Sample Temperature
RMCS .OHMM       1.89800                 :Resistivity of Mud Cake Sample
RMS  .OHMM       1.45600                 :Resistivity of Mud Sample
RW   .OHMM       1.00000                 :Resistivity of Connate Water
TDD  .F       10700.00000                :Total Depth - Driller
TDL  .F       10636.00000                :Total Depth - Logger
TLI  .F       2028.00000                 :Top Log Interval
HIDE .        CALIPER LOG                :Header Identifier
MATR .        LIME                       :Rock Matrix for Neutron Porosity Corrections
FNUM .           1.00000                 :Form Factor Numerator
FEXP .           2.00000                 :Form Factor Exponent
DFT  .        FRESH WATER-BASED MUD      :Drilling Fluid Type
DFPH .           9.60000                 :Drilling Fluid PH
MCSS .        MUDPRESS                   :Mud Cake Sample Source
MFSS .        MUDPRESS                   :Mud Filtrate Sample Source
MSS  .        MUDPIT                     :Mud Sample Source
OS1  .        BHC SONIC                  :Other Services Line 1
OS2  .        CST                        :Other Services Line 2
OS3  .                                   :Other Services Line 3
OS4  .                                   :Other Services Line 4
OS5  .                                   :Other Services Line 5
R1   .        FIRST RUN IN WELL          :Remark Line 1
R2   .        ALL SCHLUMBERGER DEPTH PROCEDURES FOLLOWED :Remark Line 2
R3   .        TWO 1.5  STANDOFFS RAN ON INDUCTION TOOL :Remark Line 3
R4   .        BOWSPRING RAN ON NEUTRON TOOL FOR ECCENTRALIZATION :Remark Line 4
R5   .        MATRIX  LIMESTONE  2.71 G/CC :Remark Line 5
R6   .        CHLORIDES  2600PPM         :Remark Line 6
R7   .                                   :Remark Line 7
R8   .        BOREHOLE ENVIRONMENT MAY AFFECT LOG QUALITY :Remark Line 8
TCS  .        18 00                      :Time Circulation Stopped
TLAB .        1 30                       :Time Logger At Bottom
EPD  .F         315.700012               :Elevation of Permanent Datum above Mean Sea Level
APD  .F          18.000000               :Elevation of Depth Reference (LMF) above Permanent Datum
#-----------------------------------------------------------------------------
~CURVE INFORMATION
#MNEM.UNIT   API CODE                                  DESCRIPTION
#---- -----  --------                                  -----------------------
DEPT .F                                                :DEPTH (BOREHOLE) {F12.4}
CTEM .DEGF                                             :Cartridge Temperature {F11.4}
DCAL .IN                                               :Differential Caliper {F11.4}
DT   .US/F                                             :Delta-T {F11.4}
GR_EDTC.GAPI                                           :Gamma Ray {F11.4}
GTEM .DEGF                                             :Generalized Borehole Temperature {F11.4}
ITT  .S                                                :Integrated Transit Time {F11.4}
RWA  .OHMM                                             :Apparent Water Resistivity {F11.4}
SPHI .CFCF                                             :Sonic Porosity {F11.4}
STIT .F                                                :Stuck Tool Indicator, Total {F11.4}
TENS .LBF                                              :Cable Tension {F11.4}
#-----------------------------------------------------------------------------
# 
#      DEPT        CTEM       DCAL        DT      GR_EDTC      GTEM       ITT        RWA        SPHI       STIT       TENS
#
~A  
# ...
  10451.0000   197.1766     0.3494    76.9504    32.4254   217.3563     0.0122   -28.9333     0.1702     0.0000  3635.0000
  10451.5000   197.1766     0.3704    77.0165    33.4723   217.3634     0.0121   -29.0661     0.1706     0.0000  3608.0000
  10452.0000   197.1766     0.3697    77.0976    31.6791   217.3706     0.0121   -29.2292     0.1710     0.0000  3607.0000
  10452.5000   197.1766     0.3037    77.8416    27.5252   217.3777     0.0120   -30.7313     0.1754     0.0000  3626.0000
  10453.0000   197.1766     0.1922    78.6643    31.7469   217.3849     0.0120   -32.4014     0.1801     0.0000  3645.0000
  10453.5000   197.1766     0.0806    79.6002    30.7034   217.3920     0.0120   -34.3114     0.1853     0.0000  3586.0000
  10454.0000   197.1766     0.0286    79.1604    30.0943   217.3991     0.0119   -33.4126     0.1829     0.0000  3588.0000
  10454.5000   197.1766     0.0286    79.1443    30.0564   217.4063     0.0119   -33.3798     0.1828     0.0000  3574.0000
  10455.0000   197.1766     0.0166    79.5978    27.5313   217.4134     0.0118   -34.3063     0.1853     0.0000  3589.0000
  10455.5000   197.1766     0.0166    80.1481    25.5442   217.4206     0.0118   -35.4335     0.1883     0.0000  3574.0000
  10456.0000   197.1766     0.0156    81.2671    22.0324   217.4277     0.0118   -37.7325     0.1943     0.0000  3589.0000
  10456.5000   197.1766     0.0337    82.1862    27.6730   217.4349     0.0117   -39.6261     0.1991     0.0000  3595.0000
  10457.0000   197.1766     0.0677    82.8315    24.0383   217.4420     0.0117   -40.9574     0.2025     0.0000  3560.0000
  10457.5000   197.1766     0.0826    82.7138    25.8195   217.4492     0.0116   -40.7146     0.2019     0.0000  3590.0000
  10458.0000   197.1766     0.0360    82.3360    26.8425   217.4563     0.0116   -39.9350     0.1999     0.0000  3598.0000
  10458.5000   197.1766     0.0171    82.8771    33.8212   217.4634     0.0116   -41.0517     0.2027     0.0000  3551.0000
  10459.0000   197.1766     0.0501    84.1486    33.4572   217.4706     0.0115   -43.6771     0.2091     0.0000  3600.0000
  10459.5000   197.1766     0.0950    84.2154    31.2419   217.4777     0.0115   -43.8150     0.2094     0.0000  3560.0000
  10460.0000   197.1766     0.1246    84.2507    34.1289   217.4849     0.0114   -43.8880     0.2096     0.0000  3594.0000
  10460.5000   197.1766     0.1160    83.3867    43.8234   217.4920     0.0114   -42.1036     0.2053     0.0000  3594.0000
  10461.0000   197.1766     0.1427    82.4493    44.4965   217.4992     0.0113   -40.1687     0.2005     0.0000  3586.0000
  10461.5000   197.1766     0.1537    83.6120    40.3549   217.5063     0.0113   -42.5690     0.2064     0.0000  3615.0000
  10462.0000   195.7649     0.1735    83.4830    30.5477   217.5135     0.0113   -42.3026     0.2058     0.0000  3627.0000
  10462.5000   195.2002     0.1715    83.3190    28.4928   217.5206     0.0112   -41.9640     0.2049     0.0000  3616.0000
  10463.0000   195.2002     0.2637    82.9191    31.0834   217.5278     0.0112   -41.1383     0.2029     0.0000  3656.0000
  10463.5000   195.2002     0.3689    84.0236    32.1950   217.5349     0.0111   -43.4190     0.2085     0.0000  3608.0000
  10464.0000   195.2002     0.3180    86.1319    31.3698   217.5421     0.0111   -47.7705     0.2186     0.0000  3604.0000
  10464.5000   195.2002     0.2524    89.6128    29.2862   217.5492     0.0110   -54.9166     0.2344     0.0000  3625.0000
  10465.0000   195.2002     0.2173    92.0929    30.4324   217.5563     0.0110   -59.9550     0.2449     0.0000  3574.0000
  10465.5000   195.2002     0.1689    92.0404    30.7163   217.5635     0.0110   -59.8490     0.2447     0.0000  3628.0000
  10466.0000   195.2002     0.1368    91.0701    32.3289   217.5706     0.0109   -57.8838     0.2407     0.0000  3587.0000
  10466.5000   195.2002     0.1140    90.7374    26.5522   217.5778     0.0109   -57.2080     0.2393     0.0000  3592.0000
  10467.0000   195.2002     0.1244    90.9572    30.1869   217.5849     0.0108   -57.6544     0.2402     0.0000  3626.0000
  10467.5000   195.2002     0.1372    91.4332    30.6180   217.5921     0.0108   -58.6202     0.2422     0.0000  3633.0000
  10468.0000   195.2002     0.1950    91.7787    36.3440   217.5992     0.0107   -59.3197     0.2436     0.0000  3611.0000
  10468.5000   195.2002     0.1859    91.1757    31.5262   217.6064     0.0107   -58.0980     0.2411     0.0000  3631.0000
  10469.0000   195.2002     0.1917    90.1544    30.5210   217.6135     0.0106   -56.0213     0.2368     0.0000  3589.0000
  10469.5000   195.2002     0.1235    89.3887    28.7795   217.6207     0.0106   -54.4588     0.2335     0.0000  3624.0000
  10470.0000   195.2002     0.1607    86.5687    30.4818   217.6278     0.0105   -48.6707     0.2207     0.0000  3621.0000
  10470.5000   195.2002     0.1969    85.4456    37.7613   217.6349     0.0105   -46.3549     0.2154     0.0000  3583.0000
  10471.0000   195.2002     0.1937    84.1689    39.4729   217.6421     0.0105   -43.7191     0.2092     0.0000  3621.0000
  10471.5000   195.2002     0.1196    80.9891    43.0876   217.6492     0.0104   -37.1605     0.1928     0.0000  3583.0000
  10472.0000   195.2002     0.1689    80.9747    35.8368   217.6564     0.0104   -37.1309     0.1928     0.0000  3607.0000
  10472.5000   195.2002     0.3560    83.5942    37.2390   217.6635     0.0103   -42.5322     0.2063     0.0000  3600.0000
  10473.0000   195.2002     0.1216    86.8749    38.8167   217.6707     0.0103   -49.3011     0.2221     0.0000  3600.0000
  10473.5000   195.2002     0.1735    91.7363    36.7161   217.6778     0.0103   -59.2339     0.2435     0.0000  3630.0000
  10474.0000   195.2002     0.1916    95.1848    30.6407   217.6850     0.0102   -66.1506     0.2573     0.0000  3620.0000
  10474.5000   195.2002     0.2044    95.4397    25.9674   217.6921     0.0102   -66.6567     0.2583     0.0000  3583.0000
  10475.0000   195.2002     0.2095    95.7660    31.3111   217.6992     0.0101   -67.3032     0.2595     0.0000  3652.0000
  10475.5000   195.2002     0.1836    95.9619    35.4509   217.7064     0.0101   -67.6908     0.2603     0.0000  3597.0000
  10476.0000   195.2002     0.1975    96.6325    37.6948   217.7135     0.0100   -69.0135     0.2628     0.0000  3594.0000
  10476.5000   195.2002     0.2632    97.6099    34.9424   217.7207     0.0100   -70.9315     0.2664     0.0000  3612.0000
  10477.0000   195.2002     0.3790    96.7300    35.5436   217.7278     0.0099   -69.2056     0.2632     0.0000  3581.0000
  10477.5000   195.2002     0.5460    96.3842    33.8189   217.7350     0.0099   -68.5245     0.2619     0.0000  3598.0000
  10478.0000   195.2002     1.1890    94.8743    34.7901   217.7421     0.0098   -65.5334     0.2561     0.0000  3594.0000
  10478.5000   195.2002     0.6955    93.7015    32.6454   217.7493     0.0098   -63.1914     0.2515     0.0000  3594.0000
  10479.0000   195.2002     0.6456    94.6994    30.7952   217.7564     0.0097   -65.1851     0.2554     0.0000  3624.0000
  10479.5000   195.2002     0.7167    93.9266    25.6506   217.7636     0.0097   -63.6421     0.2524     0.0000  3581.0000
  10480.0000   195.2002     0.8463    94.7544    26.9295   217.7707     0.0096   -65.2946     0.2556     0.0000  3615.0000
  10480.5000   195.2002     0.2905    94.1843    26.7027   217.7779     0.0096   -64.1575     0.2534     0.0000  3654.0000
  10481.0000   195.2002     0.0797    91.8132    27.7496   217.7850     0.0095   -59.3896     0.2438     0.0000  3632.0000
  10481.5000   195.2002     0.0375    90.5437    25.5207   217.7921     0.0095   -56.8140     0.2384     0.0000  3636.0000
  10482.0000   195.2002     0.0354    85.4799    25.0014   217.7993     0.0095   -46.4257     0.2155     0.0000  3571.0000
  10482.5000   195.2002     0.0245    81.8156    29.9750   217.8064     0.0094   -38.8622     0.1972     0.0000  3603.0000
  10483.0000   195.2002     0.2190    78.1344    36.1175   217.8136     0.0094   -31.3247     0.1771     0.0000  3630.0000
  10483.5000   195.2002     0.3237    75.1026    54.2911   217.8207     0.0093   -25.2528     0.1590     0.0000  3583.0000
