~VERSION INFORMATION
VERS.           2.0   :CWLS Log ASCII Standard - VERSION 2.0
WRAP.           NO    :One Line per depth step
PROD.  Schlumberger   :LAS Producer
PROG.  DLIS to ASCII 10C0-306                          :LAS Program name and version
CREA.        2009/06/06 22:47                          :LAS Creation date {YYYY/MM/DD hh:mm}
SOURCE.     69098cc6-8793-4dd0-b26c-6d8e6a63e169       :DLIS File Name
#--------------------------------------------------
~WELL INFORMATION
#MNEM.UNIT      DATA             DESCRIPTION
#---- ------ --------------   -----------------------------
STRT .F      10286.0000      :START DEPTH     
STOP .F      10607.0000      :STOP DEPTH     
STEP .F       0.5000         :STEP       
NULL .          -999.25      :NULL VALUE
COMP .        DENBURY ONSHORE, LLC                     :COMPANY
WELL .        CFU 31F #1                               :WELL
FLD  .        CRANFIELD FIELD UNIT                     :FIELD
LOC  .        X: 248,375.1'                            :LOCATION
CNTY .        FRANKLIN                                 :COUNTY
STAT .        MISSISSIPPI                              :STATE
CTRY .                                                 :COUNTRY
API  .        23-037-21488-0000                        :API NUMBER
UWI  .                                                 :UNIQUE WELL ID
DATE .        06-Jun-2009                              :LOG DATE {DD-MMM-YYYY}
SRVC .        Schlumberger                             :SERVICE COMPANY
LATI .DEG                                              :LATITUDE
LONG .DEG                                              :LONGITUDE
GDAT .                                                 :GeoDetic Datum
#-----------------------------------------------------------------------------
~PARAMETER INFORMATION
#MNEM.UNIT    VALUE                      DESCRIPTION
#---- -----   --------------------       ------------------------
CN   .        DENBURY ONSHORE  LLC       :Company Name
WN   .        CFU 31F #1                 :Well Name
FN   .        CRANFIELD FIELD UNIT       :Field Name
FL   .        X  248 375.1'              :Field Location
FL1  .        Y  387 674.2'              :Field Location Line 1
COUN .        FRANKLIN                   :County or Rig Name
STAT .        MISSISSIPPI                :State or Province
NATI .                                   :Nation
DATE .        6-Jun-2009                 :Date as Month-Day-Year
APIN .        23-037-21488-0000          :API Serial Number
SECT .        31                         :Section
TOWN .        7N                         :Township
RANG .        1E                         :Range
DMF  .        KELLY BUSHING              :Drilling Measured From
LMF  .        KELLY BUSHING              :Log Measured From
PDAT .        GROUND LEVEL               :Permanent Datum
ENGI .        CHRISTIAN ZACCARO          :Engineer's Name
WITN .        FRED WALSH                 :Witness's Name
LATI .                                   :Latitude
LONG .                                   :Longitude
LUL  .        NATCHEZ  MS                :Logging Unit Location
LUN  .              2157                 :Logging Unit Number
RUN  .        ONE                        :Run Number
SON  .        APWH-00103                 :Service Order Number
BHT  .DEGF     220.00000                 :Bottom Hole Temperature (used in calculations)
BS   .IN         8.75000                 :Bit Size
DFD  .LB/G       9.90000                 :Drilling Fluid Density
DFV  .S         42.00000                 :Drilling Fluid Viscosity
DFL  .C3         8.30000                 :Drilling Fluid Loss
RMFS .OHMM       1.21700                 :Resistivity of Mud Filtrate Sample
EKB  .F        333.70001                 :Elevation of Kelly Bushing
EGL  .F        315.70001                 :Elevation of Ground Level
BLI  .F       10628.00000                :Bottom Log Interval
BSAL .PPM     2600.00000                 :Borehole Salinity
FLEV .F          0.00000                 :Fluid Level
MCST .DEGF      74.90000                 :Mud Cake Sample Temperature
MFST .DEGF      74.80000                 :Mud Filtrate Sample Temperature
MRT  .DEGF     221.00000                 :Maximum Recorded Temperature
MST  .DEGF      76.20000                 :Mud Sample Temperature
RMCS .OHMM       1.89800                 :Resistivity of Mud Cake Sample
RMS  .OHMM       1.45600                 :Resistivity of Mud Sample
RW   .OHMM       1.00000                 :Resistivity of Connate Water
TDD  .F       10700.00000                :Total Depth - Driller
TDL  .F       10636.00000                :Total Depth - Logger
TLI  .F       2028.00000                 :Top Log Interval
HIDE .        CALIPER LOG                :Header Identifier
MATR .        LIME                       :Rock Matrix for Neutron Porosity Corrections
FNUM .           1.00000                 :Form Factor Numerator
FEXP .           2.00000                 :Form Factor Exponent
DFT  .        FRESH WATER-BASED MUD      :Drilling Fluid Type
DFPH .           9.60000                 :Drilling Fluid PH
MCSS .        MUDPRESS                   :Mud Cake Sample Source
MFSS .        MUDPRESS                   :Mud Filtrate Sample Source
MSS  .        MUDPIT                     :Mud Sample Source
OS1  .        BHC SONIC                  :Other Services Line 1
OS2  .        CST                        :Other Services Line 2
OS3  .                                   :Other Services Line 3
OS4  .                                   :Other Services Line 4
OS5  .                                   :Other Services Line 5
R1   .        FIRST RUN IN WELL          :Remark Line 1
R2   .        ALL SCHLUMBERGER DEPTH PROCEDURES FOLLOWED :Remark Line 2
R3   .        TWO 1.5  STANDOFFS RAN ON INDUCTION TOOL :Remark Line 3
R4   .        BOWSPRING RAN ON NEUTRON TOOL FOR ECCENTRALIZATION :Remark Line 4
R5   .        MATRIX  LIMESTONE  2.71 G/CC :Remark Line 5
R6   .        CHLORIDES  2600PPM         :Remark Line 6
R7   .                                   :Remark Line 7
R8   .        BOREHOLE ENVIRONMENT MAY AFFECT LOG QUALITY :Remark Line 8
TCS  .        18 00                      :Time Circulation Stopped
TLAB .        1 30                       :Time Logger At Bottom
EPD  .F         315.700012               :Elevation of Permanent Datum above Mean Sea Level
APD  .F          18.000000               :Elevation of Depth Reference (LMF) above Permanent Datum
#-----------------------------------------------------------------------------
~CURVE INFORMATION
#MNEM.UNIT   API CODE                                  DESCRIPTION
#---- -----  --------                                  -----------------------
DEPT .F                                                :DEPTH (BOREHOLE) {F12.4}
CTEM .DEGF                                             :Cartridge Temperature {F11.4}
DCAL .IN                                               :Differential Caliper {F11.4}
DT   .US/F                                             :Delta-T {F11.4}
GR_EDTC.GAPI                                           :Gamma Ray {F11.4}
GTEM .DEGF                                             :Generalized Borehole Temperature {F11.4}
ITT  .S                                                :Integrated Transit Time {F11.4}
RWA  .OHMM                                             :Apparent Water Resistivity {F11.4}
SPHI .CFCF                                             :Sonic Porosity {F11.4}
STIT .F                                                :Stuck Tool Indicator, Total {F11.4}
TENS .LBF                                              :Cable Tension {F11.4}
#-----------------------------------------------------------------------------
# 
#      DEPT        CTEM       DCAL        DT      GR_EDTC      GTEM       ITT        RWA        SPHI       STIT       TENS
#
~A  
# ...
  10352.0000   201.1296     3.4369    84.1081   139.4809   215.9414     0.0195   -43.5935     0.2089     0.0000  3591.0000
  10352.5000   201.1296     3.1588    78.1897   117.4728   215.9486     0.0195   -31.4367     0.1774     0.0000  3625.0000
  10353.0000   201.1296     3.1502    75.6032   100.6124   215.9557     0.0194   -26.2427     0.1621     0.0000  3645.0000
  10353.5000   201.1296     3.0601    78.2819   105.2856   215.9629     0.0194   -31.6239     0.1779     0.0000  3640.0000
  10354.0000   201.1296     3.3681    79.9935   106.6543   215.9700     0.0193   -35.1165     0.1875     0.0000  3584.0000
  10354.5000   201.1296     3.3396    81.3438   115.4035   215.9772     0.0193   -37.8904     0.1947     0.0000  3587.0000
  10355.0000   201.1296     2.7917    79.6839   107.1879   215.9843     0.0193   -34.4826     0.1858     0.0000  3588.0000
  10355.5000   201.1296     2.9586    78.2330   110.6921   215.9915     0.0192   -31.5247     0.1776     0.0000  3594.0000
  10356.0000   201.1296     2.5902    76.0247    99.2097   215.9986     0.0192   -27.0804     0.1646     0.0000  3553.0000
  10356.5000   201.1296     2.6324    72.8499   103.1770   216.0058     0.0191   -20.8820     0.1446     0.0000  3605.0000
  10357.0000   201.1296     1.8885    71.3735    98.8527   216.0129     0.0191   -18.1094     0.1346     0.0000  3574.0000
  10357.5000   201.1296     1.4634    69.4624   100.9886   216.0201     0.0191   -14.6615     0.1211     0.0000  3608.0000
  10358.0000   201.1296     1.4443    69.5902    89.4511   216.0272     0.0190   -14.8864     0.1221     0.0000  3606.0000
  10358.5000   201.1296     1.3741    68.2409    81.8327   216.0343     0.0190   -12.5595     0.1121     0.0000  3574.0000
  10359.0000   201.1296     1.4428    70.0784    85.0043   216.0415     0.0190   -15.7534     0.1256     0.0000  3595.0000
  10359.5000   201.1296     1.5542    70.2165    96.1637   216.0486     0.0189   -16.0008     0.1265     0.0000  3586.0000
  10360.0000   201.1296     1.4029    72.9070   103.4332   216.0558     0.0189   -20.9908     0.1449     0.0000  3576.0000
  10360.5000   201.1296     1.6674    73.2822   106.0243   216.0629     0.0189   -21.7088     0.1474     0.0000  3573.0000
  10361.0000   201.1296     1.5820    73.0293   116.4821   216.0701     0.0188   -21.2242     0.1457     0.0000  3569.0000
  10361.5000   201.1296     1.4455    72.6789   120.3587   216.0772     0.0188   -20.5566     0.1434     0.0000  3594.0000
  10362.0000   201.1296     1.2017    71.5949   123.9424   216.0844     0.0188   -18.5197     0.1361     0.0000  3649.0000
  10362.5000   201.1296     1.1821    69.5500   107.2236   216.0915     0.0187   -14.8156     0.1218     0.0000  3594.0000
  10363.0000   201.1296     1.1389    67.9893   106.4185   216.0986     0.0187   -12.1378     0.1102     0.0000  3619.0000
  10363.5000   201.1296     1.3886    67.5283   102.9517   216.1058     0.0187   -11.3761     0.1067     0.0000  3594.0000
  10364.0000   201.1296     1.1378    67.9842   116.4354   216.1129     0.0186   -12.1293     0.1102     0.0000  3574.0000
  10364.5000   201.1296     1.2944    73.2036   134.0490   216.1201     0.0186   -21.5580     0.1469     0.0000  3594.0000
  10365.0000   201.1296     1.8075    79.0843   132.4104   216.1272     0.0185   -33.2573     0.1824     0.0000  3567.0000
  10365.5000   201.1296     3.2279    82.0374   132.2383   216.1344     0.0185   -39.3193     0.1984     0.0000  3529.0000
  10366.0000   201.1296     3.5592    85.2495   122.4575   216.1415     0.0185   -45.9501     0.2144     0.0000  3568.0000
  10366.5000   201.1296     4.0515    90.2137   123.4089   216.1487     0.0184   -56.1422     0.2370     0.0000  3547.0000
  10367.0000   201.1296     3.9644    83.1498   127.0189   216.1558     0.0184   -41.6145     0.2041     0.0000  3614.0000
  10367.5000   201.1296     4.1651    83.4079   129.6152   216.1630     0.0183   -42.1475     0.2054     0.0000  3603.0000
  10368.0000   201.1296     3.6467    80.4132   132.0426   216.1701     0.0183   -35.9773     0.1897     0.0000  3629.0000
  10368.5000   201.1296     2.7326    75.4248   123.3630   216.1772     0.0183   -25.8891     0.1610     0.0000  3714.0000
  10369.0000   201.1296     2.4197    74.3150   113.7778   216.1844     0.0182   -23.7081     0.1540     0.0000  3673.0000
  10369.5000   201.1296     2.6393    74.8221   113.9466   216.1915     0.0182   -24.7008     0.1572     0.0000  3621.0000
  10370.0000   201.1296     3.0405    75.5685   111.8988   216.1987     0.0181   -26.1739     0.1618     0.0000  3647.0000
  10370.5000   201.1296     2.9361    76.8684   119.9815   216.2058     0.0181   -28.7684     0.1697     0.0000  3585.0000
  10371.0000   201.1296     2.7508    77.0613   116.2540   216.2130     0.0181   -29.1563     0.1708     0.0000  3618.0000
  10371.5000   201.1296     3.0386    76.7732   122.5049   216.2201     0.0180   -28.5772     0.1691     0.0000  3592.0000
  10372.0000   201.1296     2.1225    75.6774   119.7273   216.2273     0.0180   -26.3899     0.1625     0.0000  3563.0000
  10372.5000   200.5649     1.7105    74.8473   130.0925   216.2344     0.0180   -24.7502     0.1574     0.0000  3630.0000
  10373.0000   200.1413     1.6960    73.5345   119.7907   216.2416     0.0179   -22.1942     0.1490     0.0000  3600.0000
  10373.5000   199.4355     1.5718    73.0430   121.5720   216.2487     0.0179   -21.2506     0.1458     0.0000  3609.0000
  10374.0000   199.1531     1.6324    74.1379   111.7748   216.2559     0.0178   -23.3630     0.1529     0.0000  3588.0000
  10374.5000   199.1531     1.8589    76.3005   104.7610   216.2630     0.0178   -27.6309     0.1663     0.0000  3560.0000
  10375.0000   199.1531     2.5391    78.8829   107.7216   216.2701     0.0178   -32.8466     0.1813     0.0000  3562.0000
  10375.5000   199.1531     3.1572    80.0219   113.0087   216.2773     0.0177   -35.1747     0.1876     0.0000  3577.0000
  10376.0000   199.1531     2.8699    79.5625   127.6319   216.2844     0.0177   -34.2343     0.1851     0.0000  3548.0000
  10376.5000   199.1531     2.3110    78.2840   115.1855   216.2916     0.0176   -31.6281     0.1779     0.0000  3615.0000
  10377.0000   199.1531     1.0471    74.9295   111.6337   216.2987     0.0176   -24.9120     0.1579     0.0000  3609.0000
  10377.5000   199.1531     1.0032    70.0610   100.8256   216.3059     0.0176   -15.7223     0.1254     0.0000  3611.0000
  10378.0000   199.1531     0.9192    66.5382    92.9168   216.3130     0.0175    -9.7909     0.0990     0.0000  3661.0000
  10378.5000   199.1531     0.9330    66.6141    98.4949   216.3202     0.0175    -9.9099     0.0996     0.0000  3621.0000
  10379.0000   199.1531     0.9578    66.5761   106.2297   216.3273     0.0175    -9.8503     0.0993     0.0000  3589.0000
  10379.5000   199.1531     1.4180    75.2430   123.5271   216.3344     0.0174   -25.5297     0.1598     0.0000  3602.0000
  10380.0000   199.1531     1.3329    78.3230   123.2078   216.3416     0.0174   -31.7075     0.1781     0.0000  3532.0000
  10380.5000   199.1531     2.3937    77.2619   126.8964   216.3487     0.0174   -29.5602     0.1720     0.0000  3587.0000
  10381.0000   199.1531     2.3895    79.1895   131.6294   216.3559     0.0173   -33.4720     0.1830     0.0000  3572.0000
  10381.5000   199.1531     2.2022    76.9750   128.0707   216.3630     0.0173   -28.9827     0.1703     0.0000  3600.0000
  10382.0000   199.1531     1.7457    73.4207   127.4493   216.3702     0.0172   -21.9750     0.1483     0.0000  3663.0000
  10382.5000   199.1531     1.3884    73.0682   122.9063   216.3773     0.0172   -21.2986     0.1460     0.0000  3628.0000
  10383.0000   199.1531     1.1943    72.9490   126.7843   216.3845     0.0172   -21.0709     0.1452     0.0000  3684.0000
  10383.5000   199.1531     1.1623    73.2835   116.5593   216.3916     0.0171   -21.7112     0.1474     0.0000  3656.0000
  10384.0000   199.1531     1.1416    73.2427   112.2640   216.3988     0.0171   -21.6329     0.1471     0.0000  3635.0000
  10384.5000   199.1531     1.2358    73.5852   107.0116   216.4059     0.0171   -22.2919     0.1494     0.0000  3603.0000
