~VERSION INFORMATION
VERS.           2.0   :CWLS Log ASCII Standard - VERSION 2.0
WRAP.           NO    :One Line per depth step
PROD.  Schlumberger   :LAS Producer
PROG.  DLIS to ASCII 10C0-306                          :LAS Program name and version
CREA.        2009/06/06 22:47                          :LAS Creation date {YYYY/MM/DD hh:mm}
SOURCE.     69098cc6-8793-4dd0-b26c-6d8e6a63e169       :DLIS File Name
#--------------------------------------------------
~WELL INFORMATION
#MNEM.UNIT      DATA             DESCRIPTION
#---- ------ --------------   -----------------------------
STRT .F      10286.0000      :START DEPTH     
STOP .F      10607.0000      :STOP DEPTH     
STEP .F       0.5000         :STEP       
NULL .          -999.25      :NULL VALUE
COMP .        DENBURY ONSHORE, LLC                     :COMPANY
WELL .        CFU 31F #1                               :WELL
FLD  .        CRANFIELD FIELD UNIT                     :FIELD
LOC  .        X: 248,375.1'                            :LOCATION
CNTY .        FRANKLIN                                 :COUNTY
STAT .        MISSISSIPPI                              :STATE
CTRY .                                                 :COUNTRY
API  .        23-037-21488-0000                        :API NUMBER
UWI  .                                                 :UNIQUE WELL ID
DATE .        06-Jun-2009                              :LOG DATE {DD-MMM-YYYY}
SRVC .        Schlumberger                             :SERVICE COMPANY
LATI .DEG                                              :LATITUDE
LONG .DEG                                              :LONGITUDE
GDAT .                                                 :GeoDetic Datum
#-----------------------------------------------------------------------------
~PARAMETER INFORMATION
#MNEM.UNIT    VALUE                      DESCRIPTION
#---- -----   --------------------       ------------------------
CN   .        DENBURY ONSHORE  LLC       :Company Name
WN   .        CFU 31F #1                 :Well Name
FN   .        CRANFIELD FIELD UNIT       :Field Name
FL   .        X  248 375.1'              :Field Location
FL1  .        Y  387 674.2'              :Field Location Line 1
COUN .        FRANKLIN                   :County or Rig Name
STAT .        MISSISSIPPI                :State or Province
NATI .                                   :Nation
DATE .        6-Jun-2009                 :Date as Month-Day-Year
APIN .        23-037-21488-0000          :API Serial Number
SECT .        31                         :Section
TOWN .        7N                         :Township
RANG .        1E                         :Range
DMF  .        KELLY BUSHING              :Drilling Measured From
LMF  .        KELLY BUSHING              :Log Measured From
PDAT .        GROUND LEVEL               :Permanent Datum
ENGI .        CHRISTIAN ZACCARO          :Engineer's Name
WITN .        FRED WALSH                 :Witness's Name
LATI .                                   :Latitude
LONG .                                   :Longitude
LUL  .        NATCHEZ  MS                :Logging Unit Location
LUN  .              2157                 :Logging Unit Number
RUN  .        ONE                        :Run Number
SON  .        APWH-00103                 :Service Order Number
BHT  .DEGF     220.00000                 :Bottom Hole Temperature (used in calculations)
BS   .IN         8.75000                 :Bit Size
DFD  .LB/G       9.90000                 :Drilling Fluid Density
DFV  .S         42.00000                 :Drilling Fluid Viscosity
DFL  .C3         8.30000                 :Drilling Fluid Loss
RMFS .OHMM       1.21700                 :Resistivity of Mud Filtrate Sample
EKB  .F        333.70001                 :Elevation of Kelly Bushing
EGL  .F        315.70001                 :Elevation of Ground Level
BLI  .F       10628.00000                :Bottom Log Interval
BSAL .PPM     2600.00000                 :Borehole Salinity
FLEV .F          0.00000                 :Fluid Level
MCST .DEGF      74.90000                 :Mud Cake Sample Temperature
MFST .DEGF      74.80000                 :Mud Filtrate Sample Temperature
MRT  .DEGF     221.00000                 :Maximum Recorded Temperature
MST  .DEGF      76.20000                 :Mud Sample Temperature
RMCS .OHMM       1.89800                 :Resistivity of Mud Cake Sample
RMS  .OHMM       1.45600                 :Resistivity of Mud Sample
RW   .OHMM       1.00000                 :Resistivity of Connate Water
TDD  .F       10700.00000                :Total Depth - Driller
TDL  .F       10636.00000                :Total Depth - Logger
TLI  .F       2028.00000                 :Top Log Interval
HIDE .        CALIPER LOG                :Header Identifier
MATR .        LIME                       :Rock Matrix for Neutron Porosity Corrections
FNUM .           1.00000                 :Form Factor Numerator
FEXP .           2.00000                 :Form Factor Exponent
DFT  .        FRESH WATER-BASED MUD      :Drilling Fluid Type
DFPH .           9.60000                 :Drilling Fluid PH
MCSS .        MUDPRESS                   :Mud Cake Sample Source
MFSS .        MUDPRESS                   :Mud Filtrate Sample Source
MSS  .        MUDPIT                     :Mud Sample Source
OS1  .        BHC SONIC                  :Other Services Line 1
OS2  .        CST                        :Other Services Line 2
OS3  .                                   :Other Services Line 3
OS4  .                                   :Other Services Line 4
OS5  .                                   :Other Services Line 5
R1   .        FIRST RUN IN WELL          :Remark Line 1
R2   .        ALL SCHLUMBERGER DEPTH PROCEDURES FOLLOWED :Remark Line 2
R3   .        TWO 1.5  STANDOFFS RAN ON INDUCTION TOOL :Remark Line 3
R4   .        BOWSPRING RAN ON NEUTRON TOOL FOR ECCENTRALIZATION :Remark Line 4
R5   .        MATRIX  LIMESTONE  2.71 G/CC :Remark Line 5
R6   .        CHLORIDES  2600PPM         :Remark Line 6
R7   .                                   :Remark Line 7
R8   .        BOREHOLE ENVIRONMENT MAY AFFECT LOG QUALITY :Remark Line 8
TCS  .        18 00                      :Time Circulation Stopped
TLAB .        1 30                       :Time Logger At Bottom
EPD  .F         315.700012               :Elevation of Permanent Datum above Mean Sea Level
APD  .F          18.000000               :Elevation of Depth Reference (LMF) above Permanent Datum
#-----------------------------------------------------------------------------
~CURVE INFORMATION
#MNEM.UNIT   API CODE                                  DESCRIPTION
#---- -----  --------                                  -----------------------
DEPT .F                                                :DEPTH (BOREHOLE) {F12.4}
CTEM .DEGF                                             :Cartridge Temperature {F11.4}
DCAL .IN                                               :Differential Caliper {F11.4}
DT   .US/F                                             :Delta-T {F11.4}
GR_EDTC.GAPI                                           :Gamma Ray {F11.4}
GTEM .DEGF                                             :Generalized Borehole Temperature {F11.4}
ITT  .S                                                :Integrated Transit Time {F11.4}
RWA  .OHMM                                             :Apparent Water Resistivity {F11.4}
SPHI .CFCF                                             :Sonic Porosity {F11.4}
STIT .F                                                :Stuck Tool Indicator, Total {F11.4}
TENS .LBF                                              :Cable Tension {F11.4}
#-----------------------------------------------------------------------------
# 
#      DEPT        CTEM       DCAL        DT      GR_EDTC      GTEM       ITT        RWA        SPHI       STIT       TENS
#
~A  
# ...
  10517.0000   193.2237     0.4712    58.5886    47.5452   218.2995     0.0064    -0.7620     0.0276     0.0000  3809.0000
  10517.5000   193.2237     0.5220    59.0747    55.5018   218.3066     0.0063    -1.0574     0.0325     0.0000  3720.0000
  10518.0000   193.2237     0.4972    58.6270    63.5748   218.3138     0.0063    -0.7837     0.0280     0.0000  3741.0000
  10518.5000   193.2237     0.4895    58.2960    65.1652   218.3209     0.0063    -0.6055     0.0246     0.0000  3756.0000
  10519.0000   193.2237     0.5011    57.2770    65.2701   218.3280     0.0063    -0.1940     0.0139     0.0000  3702.0000
  10519.5000   193.2237     0.5330    56.9601    58.7548   218.3352     0.0062    -0.1109     0.0105     0.0000  3660.0000
  10520.0000   193.2237     0.5221    56.2619    56.7395   218.3423     0.0062    -0.0085     0.0029     0.0000  3700.0000
  10520.5000   193.2237     0.5132    55.5538    58.1373   218.3495     0.0062    -0.0031    -0.0050     0.0000  3657.0000
  10521.0000   193.2237     0.4572    56.8265    51.3182   218.3566     0.0061    -0.0826     0.0091     0.0000  3645.0000
  10521.5000   193.2237     0.3806    57.6100    56.5006   218.3638     0.0061    -0.3049     0.0175     0.0000  3686.0000
  10522.0000   193.2237     0.3736    58.3355    58.0869   218.3709     0.0061    -0.6256     0.0250     0.0000  3651.0000
  10522.5000   193.2237     0.3649    58.3164    63.4144   218.3781     0.0061    -0.6159     0.0248     0.0000  3672.0000
  10523.0000   193.2237     0.3924    56.7722    57.7254   218.3852     0.0060    -0.0722     0.0085     0.0000  3683.0000
  10523.5000   193.2237     0.5550    62.3783    54.6726   218.3924     0.0060    -4.0811     0.0639     0.0000  3656.0000
  10524.0000   193.2237     0.5546    66.0816    64.9915   218.3995     0.0060    -9.0851     0.0954     0.0000  3681.0000
  10524.5000   193.2237     0.8618    72.2365    73.5136   218.4067     0.0059   -19.7200     0.1405     0.0000  3681.0000
  10525.0000   193.2237     0.6759    72.3313    89.5475   218.4138     0.0059   -19.8986     0.1411     0.0000  3699.0000
  10525.5000   193.2237     0.8241    65.9325    93.4947   218.4210     0.0059    -8.8583     0.0942     0.0000  3738.0000
  10526.0000   193.2237     0.5908    65.3523   101.0038   218.4281     0.0058    -7.9938     0.0894     0.0000  3720.0000
  10526.5000   193.2237     0.5109    65.3755   100.5785   218.4352     0.0058    -8.0277     0.0896     0.0000  3714.0000
  10527.0000   193.2237     0.6040    69.4195   113.2473   218.4424     0.0058   -14.5863     0.1208     0.0000  3753.0000
  10527.5000   193.2237     0.6815    69.6028   103.9569   218.4495     0.0057   -14.9086     0.1221     0.0000  3708.0000
  10528.0000   193.2237     0.4734    64.1970    95.5550   218.4567     0.0057    -6.3638     0.0798     0.0000  3737.0000
  10528.5000   193.2237     0.5425    65.6512    81.4904   218.4638     0.0057    -8.4356     0.0919     0.0000  3735.0000
  10529.0000   193.2237     0.5121    61.5713    78.9087   218.4710     0.0056    -3.1958     0.0566     0.0000  3721.0000
  10529.5000   193.2237     0.7658    68.2185    89.0504   218.4781     0.0056   -12.5217     0.1119     0.0000  3703.0000
  10530.0000   193.2237     0.6169    72.9139   103.1150   218.4853     0.0056   -21.0039     0.1450     0.0000  3687.0000
  10530.5000   193.2237     0.6663    75.2004   116.8294   218.4924     0.0055   -25.4457     0.1596     0.0000  3782.0000
  10531.0000   193.2237     1.0279    79.0694   111.8381   218.4996     0.0055   -33.2269     0.1824     0.0000  3743.0000
  10531.5000   193.2237     0.5880    79.7705   111.8907   218.5067     0.0055   -34.6599     0.1862     0.0000  3681.0000
  10532.0000   193.2237     1.0956    82.0021   120.3515   218.5139     0.0054   -39.2465     0.1982     0.0000  3693.0000
  10532.5000   193.2237     1.1090    81.6898   132.2793   218.5210     0.0054   -38.6029     0.1965     0.0000  3704.0000
  10533.0000   193.2237     0.8891    81.3077   124.4564   218.5281     0.0053   -37.8160     0.1945     0.0000  3702.0000
  10533.5000   193.2237     1.0821    81.5849   112.1190   218.5353     0.0053   -38.3867     0.1960     0.0000  3727.0000
  10534.0000   193.2237     0.6895    81.1761    99.4349   218.5424     0.0052   -37.5453     0.1938     0.0000  3732.0000
  10534.5000   193.2237     0.6748    80.1097   106.6860   218.5496     0.0052   -35.3548     0.1881     0.0000  3743.0000
  10535.0000   193.2237     0.5970    79.5068   118.9758   218.5567     0.0052   -34.1202     0.1848     0.0000  3721.0000
  10535.5000   193.2237     0.7104    80.1910   121.3760   218.5639     0.0051   -35.5215     0.1885     0.0000  3734.0000
  10536.0000   193.2237     0.8180    80.4537   133.2160   218.5710     0.0051   -36.0604     0.1900     0.0000  3782.0000
  10536.5000   193.2237     0.6447    80.1389   120.4069   218.5782     0.0050   -35.4146     0.1883     0.0000  3741.0000
  10537.0000   193.2237     0.9035    79.1657   123.3504   218.5853     0.0050   -33.4235     0.1829     0.0000  3722.0000
  10537.5000   193.2237     0.8785    79.3431   110.3711   218.5924     0.0050   -33.7857     0.1839     0.0000  3781.0000
  10538.0000   193.2237     0.7374    78.9790   115.2514   218.5996     0.0049   -33.0426     0.1818     0.0000  3782.0000
  10538.5000   193.2237     0.9639    78.4730   110.1868   218.6067     0.0049   -32.0122     0.1790     0.0000  3769.0000
  10539.0000   193.2237     0.7349    81.2125    99.6219   218.6139     0.0048   -37.6202     0.1940     0.0000  3753.0000
  10539.5000   193.2237     1.0313    80.2391   103.5689   218.6210     0.0048   -35.6201     0.1888     0.0000  3748.0000
  10540.0000   193.2237     0.7968    80.2746   107.6297   218.6282     0.0048   -35.6930     0.1890     0.0000  3752.0000
  10540.5000   193.2237     0.4838    77.6967   111.2639   218.6353     0.0047   -30.4380     0.1745     0.0000  3779.0000
  10541.0000   193.2237     0.6393    78.4964   105.5521   218.6425     0.0047   -32.0599     0.1791     0.0000  3737.0000
  10541.5000   193.2237     0.7844    75.9931   100.7321   218.6496     0.0046   -27.0176     0.1644     0.0000  3752.0000
  10542.0000   193.2237     0.7474    76.8619    99.9750   218.6568     0.0046   -28.7554     0.1696     0.0000  3721.0000
  10542.5000   193.2237     0.9097    79.4451   114.9533   218.6639     0.0046   -33.9942     0.1844     0.0000  3771.0000
  10543.0000   193.2237     0.6575    75.1200   121.0011   218.6711     0.0045   -25.2871     0.1591     0.0000  3786.0000
  10543.5000   193.2237     0.5614    70.3336   116.7882   218.6782     0.0045   -16.2113     0.1274     0.0000  3711.0000
  10544.0000   193.2237     0.5209    61.7005    96.6174   218.6853     0.0045    -3.3319     0.0577     0.0000  3731.0000
  10544.5000   193.2237     0.4930    57.8897    92.3489   218.6925     0.0044    -0.4159     0.0204     0.0000  3774.0000
  10545.0000   193.2237     0.4870    56.8907    91.3008   218.6996     0.0044    -0.0957     0.0098     0.0000  3742.0000
  10545.5000   193.2237     0.4670    58.4892    84.8845   218.7068     0.0044    -0.7070     0.0266     0.0000  3768.0000
  10546.0000   193.2237     0.4551    58.6253    70.9085   218.7139     0.0043    -0.7827     0.0280     0.0000  3780.0000
  10546.5000   193.2237     0.4258    59.2121    66.5881   218.7211     0.0043    -1.1487     0.0339     0.0000  3727.0000
  10547.0000   193.2237     0.5226    59.5951    58.9847   218.7282     0.0043    -1.4205     0.0377     0.0000  3725.0000
  10547.5000   193.2237     0.5109    59.8528    64.0913   218.7354     0.0043    -1.6174     0.0402     0.0000  3722.0000
  10548.0000   193.2237     0.5184    61.0380    66.9224   218.7425     0.0042    -2.6592     0.0516     0.0000  3724.0000
  10548.5000   193.2237     0.5138    64.0169    76.2556   218.7496     0.0042    -6.1215     0.0783     0.0000  3689.0000
  10549.0000   193.2237     0.4642    66.9289    80.4701   218.7568     0.0042   -10.4078     0.1021     0.0000  3666.0000
  10549.5000   193.2237     0.5361    68.7209    90.5777   218.7639     0.0041   -13.3750     0.1157     0.0000  3707.0000
