~VERSION INFORMATION
VERS.           2.0   :CWLS Log ASCII Standard - VERSION 2.0
WRAP.           NO    :One Line per depth step
PROD.  Schlumberger   :LAS Producer
PROG.  DLIS to ASCII 10C0-306                          :LAS Program name and version
CREA.        2009/06/06 22:47                          :LAS Creation date {YYYY/MM/DD hh:mm}
SOURCE.     69098cc6-8793-4dd0-b26c-6d8e6a63e169       :DLIS File Name
#--------------------------------------------------
~WELL INFORMATION
#MNEM.UNIT      DATA             DESCRIPTION
#---- ------ --------------   -----------------------------
STRT .F      10286.0000      :START DEPTH     
STOP .F      10607.0000      :STOP DEPTH     
STEP .F       0.5000         :STEP       
NULL .          -999.25      :NULL VALUE
COMP .        DENBURY ONSHORE, LLC                     :COMPANY
WELL .        CFU 31F #1                               :WELL
FLD  .        CRANFIELD FIELD UNIT                     :FIELD
LOC  .        X: 248,375.1'                            :LOCATION
CNTY .        FRANKLIN                                 :COUNTY
STAT .        MISSISSIPPI                              :STATE
CTRY .                                                 :COUNTRY
API  .        23-037-21488-0000                        :API NUMBER
UWI  .                                                 :UNIQUE WELL ID
DATE .        06-Jun-2009                              :LOG DATE {DD-MMM-YYYY}
SRVC .        Schlumberger                             :SERVICE COMPANY
LATI .DEG                                              :LATITUDE
LONG .DEG                                              :LONGITUDE
GDAT .                                                 :GeoDetic Datum
#-----------------------------------------------------------------------------
~PARAMETER INFORMATION
#MNEM.UNIT    VALUE                      DESCRIPTION
#---- -----   --------------------       ------------------------
CN   .        DENBURY ONSHORE  LLC       :Company Name
WN   .        CFU 31F #1                 :Well Name
FN   .        CRANFIELD FIELD UNIT       :Field Name
FL   .        X  248 375.1'              :Field Location
FL1  .        Y  387 674.2'              :Field Location Line 1
COUN .        FRANKLIN                   :County or Rig Name
STAT .        MISSISSIPPI                :State or Province
NATI .                                   :Nation
DATE .        6-Jun-2009                 :Date as Month-Day-Year
APIN .        23-037-21488-0000          :API Serial Number
SECT .        31                         :Section
TOWN .        7N                         :Township
RANG .        1E                         :Range
DMF  .        KELLY BUSHING              :Drilling Measured From
LMF  .        KELLY BUSHING              :Log Measured From
PDAT .        GROUND LEVEL               :Permanent Datum
ENGI .        CHRISTIAN ZACCARO          :Engineer's Name
WITN .        FRED WALSH                 :Witness's Name
LATI .                                   :Latitude
LONG .                                   :Longitude
LUL  .        NATCHEZ  MS                :Logging Unit Location
LUN  .              2157                 :Logging Unit Number
RUN  .        ONE                        :Run Number
SON  .        APWH-00103                 :Service Order Number
BHT  .DEGF     220.00000                 :Bottom Hole Temperature (used in calculations)
BS   .IN         8.75000                 :Bit Size
DFD  .LB/G       9.90000                 :Drilling Fluid Density
DFV  .S         42.00000                 :Drilling Fluid Viscosity
DFL  .C3         8.30000                 :Drilling Fluid Loss
RMFS .OHMM       1.21700                 :Resistivity of Mud Filtrate Sample
EKB  .F        333.70001                 :Elevation of Kelly Bushing
EGL  .F        315.70001                 :Elevation of Ground Level
BLI  .F       10628.00000                :Bottom Log Interval
BSAL .PPM     2600.00000                 :Borehole Salinity
FLEV .F          0.00000                 :Fluid Level
MCST .DEGF      74.90000                 :Mud Cake Sample Temperature
MFST .DEGF      74.80000                 :Mud Filtrate Sample Temperature
MRT  .DEGF     221.00000                 :Maximum Recorded Temperature
MST  .DEGF      76.20000                 :Mud Sample Temperature
RMCS .OHMM       1.89800                 :Resistivity of Mud Cake Sample
RMS  .OHMM       1.45600                 :Resistivity of Mud Sample
RW   .OHMM       1.00000                 :Resistivity of Connate Water
TDD  .F       10700.00000                :Total Depth - Driller
TDL  .F       10636.00000                :Total Depth - Logger
TLI  .F       2028.00000                 :Top Log Interval
HIDE .        CALIPER LOG                :Header Identifier
MATR .        LIME                       :Rock Matrix for Neutron Porosity Corrections
FNUM .           1.00000                 :Form Factor Numerator
FEXP .           2.00000                 :Form Factor Exponent
DFT  .        FRESH WATER-BASED MUD      :Drilling Fluid Type
DFPH .           9.60000                 :Drilling Fluid PH
MCSS .        MUDPRESS                   :Mud Cake Sample Source
MFSS .        MUDPRESS                   :Mud Filtrate Sample Source
MSS  .        MUDPIT                     :Mud Sample Source
OS1  .        BHC SONIC                  :Other Services Line 1
OS2  .        CST                        :Other Services Line 2
OS3  .                                   :Other Services Line 3
OS4  .                                   :Other Services Line 4
OS5  .                                   :Other Services Line 5
R1   .        FIRST RUN IN WELL          :Remark Line 1
R2   .        ALL SCHLUMBERGER DEPTH PROCEDURES FOLLOWED :Remark Line 2
R3   .        TWO 1.5  STANDOFFS RAN ON INDUCTION TOOL :Remark Line 3
R4   .        BOWSPRING RAN ON NEUTRON TOOL FOR ECCENTRALIZATION :Remark Line 4
R5   .        MATRIX  LIMESTONE  2.71 G/CC :Remark Line 5
R6   .        CHLORIDES  2600PPM         :Remark Line 6
R7   .                                   :Remark Line 7
R8   .        BOREHOLE ENVIRONMENT MAY AFFECT LOG QUALITY :Remark Line 8
TCS  .        18 00                      :Time Circulation Stopped
TLAB .        1 30                       :Time Logger At Bottom
EPD  .F         315.700012               :Elevation of Permanent Datum above Mean Sea Level
APD  .F          18.000000               :Elevation of Depth Reference (LMF) above Permanent Datum
#-----------------------------------------------------------------------------
~CURVE INFORMATION
#MNEM.UNIT   API CODE                                  DESCRIPTION
#---- -----  --------                                  -----------------------
DEPT .F                                                :DEPTH (BOREHOLE) {F12.4}
CTEM .DEGF                                             :Cartridge Temperature {F11.4}
DCAL .IN                                               :Differential Caliper {F11.4}
DT   .US/F                                             :Delta-T {F11.4}
GR_EDTC.GAPI                                           :Gamma Ray {F11.4}
GTEM .DEGF                                             :Generalized Borehole Temperature {F11.4}
ITT  .S                                                :Integrated Transit Time {F11.4}
RWA  .OHMM                                             :Apparent Water Resistivity {F11.4}
SPHI .CFCF                                             :Sonic Porosity {F11.4}
STIT .F                                                :Stuck Tool Indicator, Total {F11.4}
TENS .LBF                                              :Cable Tension {F11.4}
#-----------------------------------------------------------------------------
# 
#      DEPT        CTEM       DCAL        DT      GR_EDTC      GTEM       ITT        RWA        SPHI       STIT       TENS
#
~A  
# ...
  10418.0000   199.1531     1.0277    70.0578   113.7943   216.8847     0.0147   -15.7165     0.1254     0.0000  3646.0000
  10418.5000   199.1531     1.1731    71.1650   116.4992   216.8918     0.0146   -17.7249     0.1332     0.0000  3624.0000
  10419.0000   199.1531     1.3384    73.8068   113.1688   216.8990     0.0146   -22.7202     0.1508     0.0000  3641.0000
  10419.5000   199.1531     1.6913    76.4529   123.1251   216.9061     0.0146   -27.9354     0.1672     0.0000  3603.0000
  10420.0000   199.1531     2.5603    77.4145   127.4912   216.9132     0.0145   -29.8680     0.1729     0.0000  3611.0000
  10420.5000   199.1531     2.0776    78.7904   138.3818   216.9204     0.0145   -32.6582     0.1808     0.0000  3639.0000
  10421.0000   199.1531     1.5208    78.9143   130.5063   216.9275     0.0144   -32.9105     0.1815     0.0000  3621.0000
  10421.5000   197.7413     1.4078    78.2393   131.2240   216.9347     0.0144   -31.5375     0.1777     0.0000  3658.0000
  10422.0000   197.1766     1.3422    76.4777   119.0980   216.9418     0.0144   -27.9851     0.1674     0.0000  3649.0000
  10422.5000   197.1766     1.2757    75.7395   122.4043   216.9490     0.0143   -26.5132     0.1629     0.0000  3616.0000
  10423.0000   197.1766     1.1825    74.1540   115.4523   216.9561     0.0143   -23.3942     0.1530     0.0000  3673.0000
  10423.5000   197.1766     1.0965    73.2408   114.6560   216.9633     0.0143   -21.6294     0.1471     0.0000  3627.0000
  10424.0000   197.1766     1.4466    73.4690   116.1097   216.9704     0.0142   -22.0679     0.1486     0.0000  3590.0000
  10424.5000   197.1766     1.5937    74.0951   125.3584   216.9776     0.0142   -23.2797     0.1526     0.0000  3621.0000
  10425.0000   197.1766     1.1601    74.2951   124.9677   216.9847     0.0141   -23.6691     0.1539     0.0000  3610.0000
  10425.5000   197.1766     1.0578    73.4725   126.5255   216.9918     0.0141   -22.0747     0.1486     0.0000  3631.0000
  10426.0000   197.1766     1.0444    73.0797   124.1718   216.9990     0.0141   -21.3207     0.1461     0.0000  3650.0000
  10426.5000   197.1766     1.0944    71.5408   122.8345   217.0061     0.0140   -18.4193     0.1358     0.0000  3625.0000
  10427.0000   197.1766     1.1259    70.9501   117.6420   217.0133     0.0140   -17.3307     0.1317     0.0000  3642.0000
  10427.5000   197.1766     1.1209    68.9318   104.9227   217.0204     0.0140   -13.7377     0.1173     0.0000  3644.0000
  10428.0000   197.1766     1.3113    68.8857   105.1339   217.0276     0.0139   -13.6582     0.1169     0.0000  3628.0000
  10428.5000   197.1766     1.2559    68.4599    98.0744   217.0347     0.0139   -12.9297     0.1138     0.0000  3646.0000
  10429.0000   197.1766     1.0895    68.4154    93.7870   217.0419     0.0139   -12.8543     0.1134     0.0000  3629.0000
  10429.5000   197.1766     1.0809    68.6451    86.4161   217.0490     0.0138   -13.2452     0.1151     0.0000  3668.0000
  10430.0000   197.1766     1.0077    69.7882    77.8981   217.0562     0.0138   -15.2365     0.1235     0.0000  3642.0000
  10430.5000   197.1766     1.2259    70.7042    75.5130   217.0633     0.0138   -16.8821     0.1300     0.0000  3630.0000
  10431.0000   197.1766     1.3297    72.8548    70.9004   217.0704     0.0137   -20.8912     0.1446     0.0000  3663.0000
  10431.5000   197.1766     1.3441    76.1861    68.3898   217.0776     0.0137   -27.4024     0.1656     0.0000  3654.0000
  10432.0000   197.1766     1.4225    81.8278    68.1071   217.0847     0.0136   -38.8872     0.1973     0.0000  3642.0000
  10432.5000   197.1766     1.3403    78.9230    64.9477   217.0919     0.0136   -32.9284     0.1815     0.0000  3636.0000
  10433.0000   197.1766     1.5228    78.9523    67.6711   217.0990     0.0136   -32.9881     0.1817     0.0000  3591.0000
  10433.5000   197.1766     1.3985    80.1889    64.0364   217.1062     0.0135   -35.5171     0.1885     0.0000  3613.0000
  10434.0000   197.1766     1.3994    79.6711    66.8882   217.1133     0.0135   -34.4564     0.1857     0.0000  3639.0000
  10434.5000   197.1766     1.5130    81.2286    63.0659   217.1205     0.0134   -37.6533     0.1941     0.0000  3593.0000
  10435.0000   197.1766     1.1787    80.7956    62.0274   217.1276     0.0134   -36.7627     0.1918     0.0000  3636.0000
  10435.5000   197.1766     1.1884    80.7511    66.9206   217.1348     0.0134   -36.6713     0.1916     0.0000  3604.0000
  10436.0000   197.1766     1.1391    80.8081    64.8183   217.1419     0.0133   -36.7885     0.1919     0.0000  3637.0000
  10436.5000   197.1766     1.1098    81.0098    60.4146   217.1490     0.0133   -37.2032     0.1930     0.0000  3640.0000
  10437.0000   197.1766     1.1283    80.0770    54.3195   217.1562     0.0132   -35.2876     0.1879     0.0000  3626.0000
  10437.5000   197.1766     1.1055    78.6249    53.5128   217.1633     0.0132   -32.3212     0.1798     0.0000  3597.0000
  10438.0000   197.1766     1.0891    77.0275    56.3341   217.1705     0.0132   -29.0882     0.1706     0.0000  3618.0000
  10438.5000   197.1766     1.0792    76.8831    58.8939   217.1776     0.0131   -28.7981     0.1698     0.0000  3578.0000
  10439.0000   197.1766     1.0455    78.6383    60.7391   217.1848     0.0131   -32.3484     0.1799     0.0000  3624.0000
  10439.5000   197.1766     0.7273    80.2611    64.6336   217.1919     0.0131   -35.6652     0.1889     0.0000  3615.0000
  10440.0000   197.1766     0.6654    82.3901    55.7947   217.1991     0.0130   -40.0466     0.2002     0.0000  3609.0000
  10440.5000   197.1766     0.5757    81.9185    52.5794   217.2062     0.0130   -39.0742     0.1977     0.0000  3667.0000
  10441.0000   197.1766     0.5580    79.8255    46.6545   217.2133     0.0129   -34.7724     0.1865     0.0000  3605.0000
  10441.5000   197.1766     0.6138    79.5866    51.8470   217.2205     0.0129   -34.2835     0.1852     0.0000  3644.0000
  10442.0000   197.1766     0.4187    79.7967    51.8813   217.2276     0.0128   -34.7134     0.1864     0.0000  3626.0000
  10442.5000   197.1766     0.2767    79.4241    47.7052   217.2348     0.0128   -33.9512     0.1843     0.0000  3577.0000
  10443.0000   197.1766     0.3452    80.0888    47.7696   217.2419     0.0128   -35.3118     0.1880     0.0000  3586.0000
  10443.5000   197.1766     0.4747    79.9474    46.2957   217.2491     0.0127   -35.0222     0.1872     0.0000  3564.0000
  10444.0000   197.1766     0.5746    77.9479    46.1402   217.2562     0.0127   -30.9466     0.1760     0.0000  3565.0000
  10444.5000   197.1766     0.4588    78.0531    46.0531   217.2634     0.0127   -31.1598     0.1766     0.0000  3577.0000
  10445.0000   197.1766     0.3802    78.6635    47.0985   217.2705     0.0126   -32.3998     0.1801     0.0000  3577.0000
  10445.5000   197.1766     0.4231    77.8855    51.9272   217.2777     0.0126   -30.8200     0.1756     0.0000  3604.0000
  10446.0000   197.1766     0.8215    78.2992    50.6617   217.2848     0.0125   -31.6591     0.1780     0.0000  3595.0000
  10446.5000   197.1766     0.4190    75.8915    52.7579   217.2920     0.0125   -26.8152     0.1638     0.0000  3600.0000
  10447.0000   197.1766     0.4714    75.0625    56.3809   217.2991     0.0125   -25.1738     0.1587     0.0000  3618.0000
  10447.5000   197.1766     0.5212    75.3453    58.7076   217.3062     0.0124   -25.7320     0.1605     0.0000  3595.0000
  10448.0000   197.1766     0.4648    76.6426    53.9901   217.3134     0.0124   -28.3155     0.1683     0.0000  3577.0000
  10448.5000   197.1766     0.5301    75.5409    43.3142   217.3205     0.0123   -26.1191     0.1617     0.0000  3589.0000
  10449.0000   197.1766     0.6639    76.9029    39.1790   217.3277     0.0123   -28.8378     0.1699     0.0000  3598.0000
  10449.5000   197.1766     1.2375    76.9029    40.4324   217.3348     0.0123   -28.8379     0.1699     0.0000  3642.0000
  10450.0000   197.1766     0.5569    76.4192    36.0535   217.3420     0.0122   -27.8680     0.1670     0.0000  3600.0000
  10450.5000   197.1766     0.5360    77.9425    32.1211   217.3491     0.0122   -30.9355     0.1760     0.0000  3606.0000
