~VERSION INFORMATION
VERS.           2.0   :CWLS Log ASCII Standard - VERSION 2.0
WRAP.           NO    :One Line per depth step
PROD.  Schlumberger   :LAS Producer
PROG.  DLIS to ASCII 10C0-306                          :LAS Program name and version
CREA.        2009/06/06 22:47                          :LAS Creation date {YYYY/MM/DD hh:mm}
SOURCE.     69098cc6-8793-4dd0-b26c-6d8e6a63e169       :DLIS File Name
#--------------------------------------------------
~WELL INFORMATION
#MNEM.UNIT      DATA             DESCRIPTION
#---- ------ --------------   -----------------------------
STRT .F      10286.0000      :START DEPTH     
STOP .F      10607.0000      :STOP DEPTH     
STEP .F       0.5000         :STEP       
NULL .          -999.25      :NULL VALUE
COMP .        DENBURY ONSHORE, LLC                     :COMPANY
WELL .        CFU 31F #1                               :WELL
FLD  .        CRANFIELD FIELD UNIT                     :FIELD
LOC  .        X: 248,375.1'                            :LOCATION
CNTY .        FRANKLIN                                 :COUNTY
STAT .        MISSISSIPPI                              :STATE
CTRY .                                                 :COUNTRY
API  .        23-037-21488-0000                        :API NUMBER
UWI  .                                                 :UNIQUE WELL ID
DATE .        06-Jun-2009                              :LOG DATE {DD-MMM-YYYY}
SRVC .        Schlumberger                             :SERVICE COMPANY
LATI .DEG                                              :LATITUDE
LONG .DEG                                              :LONGITUDE
GDAT .                                                 :GeoDetic Datum
#-----------------------------------------------------------------------------
~PARAMETER INFORMATION
#MNEM.UNIT    VALUE                      DESCRIPTION
#---- -----   --------------------       ------------------------
CN   .        DENBURY ONSHORE  LLC       :Company Name
WN   .        CFU 31F #1                 :Well Name
FN   .        CRANFIELD FIELD UNIT       :Field Name
FL   .        X  248 375.1'              :Field Location
FL1  .        Y  387 674.2'              :Field Location Line 1
COUN .        FRANKLIN                   :County or Rig Name
STAT .        MISSISSIPPI                :State or Province
NATI .                                   :Nation
DATE .        6-Jun-2009                 :Date as Month-Day-Year
APIN .        23-037-21488-0000          :API Serial Number
SECT .        31                         :Section
TOWN .        7N                         :Township
RANG .        1E                         :Range
DMF  .        KELLY BUSHING              :Drilling Measured From
LMF  .        KELLY BUSHING              :Log Measured From
PDAT .        GROUND LEVEL               :Permanent Datum
ENGI .        CHRISTIAN ZACCARO          :Engineer's Name
WITN .        FRED WALSH                 :Witness's Name
LATI .                                   :Latitude
LONG .                                   :Longitude
LUL  .        NATCHEZ  MS                :Logging Unit Location
LUN  .              2157                 :Logging Unit Number
RUN  .        ONE                        :Run Number
SON  .        APWH-00103                 :Service Order Number
BHT  .DEGF     220.00000                 :Bottom Hole Temperature (used in calculations)
BS   .IN         8.75000                 :Bit Size
DFD  .LB/G       9.90000                 :Drilling Fluid Density
DFV  .S         42.00000                 :Drilling Fluid Viscosity
DFL  .C3         8.30000                 :Drilling Fluid Loss
RMFS .OHMM       1.21700                 :Resistivity of Mud Filtrate Sample
EKB  .F        333.70001                 :Elevation of Kelly Bushing
EGL  .F        315.70001                 :Elevation of Ground Level
BLI  .F       10628.00000                :Bottom Log Interval
BSAL .PPM     2600.00000                 :Borehole Salinity
FLEV .F          0.00000                 :Fluid Level
MCST .DEGF      74.90000                 :Mud Cake Sample Temperature
MFST .DEGF      74.80000                 :Mud Filtrate Sample Temperature
MRT  .DEGF     221.00000                 :Maximum Recorded Temperature
MST  .DEGF      76.20000                 :Mud Sample Temperature
RMCS .OHMM       1.89800                 :Resistivity of Mud Cake Sample
RMS  .OHMM       1.45600                 :Resistivity of Mud Sample
RW   .OHMM       1.00000                 :Resistivity of Connate Water
TDD  .F       10700.00000                :Total Depth - Driller
TDL  .F       10636.00000                :Total Depth - Logger
TLI  .F       2028.00000                 :Top Log Interval
HIDE .        CALIPER LOG                :Header Identifier
MATR .        LIME                       :Rock Matrix for Neutron Porosity Corrections
FNUM .           1.00000                 :Form Factor Numerator
FEXP .           2.00000                 :Form Factor Exponent
DFT  .        FRESH WATER-BASED MUD      :Drilling Fluid Type
DFPH .           9.60000                 :Drilling Fluid PH
MCSS .        MUDPRESS                   :Mud Cake Sample Source
MFSS .        MUDPRESS                   :Mud Filtrate Sample Source
MSS  .        MUDPIT                     :Mud Sample Source
OS1  .        BHC SONIC                  :Other Services Line 1
OS2  .        CST                        :Other Services Line 2
OS3  .                                   :Other Services Line 3
OS4  .                                   :Other Services Line 4
OS5  .                                   :Other Services Line 5
R1   .        FIRST RUN IN WELL          :Remark Line 1
R2   .        ALL SCHLUMBERGER DEPTH PROCEDURES FOLLOWED :Remark Line 2
R3   .        TWO 1.5  STANDOFFS RAN ON INDUCTION TOOL :Remark Line 3
R4   .        BOWSPRING RAN ON NEUTRON TOOL FOR ECCENTRALIZATION :Remark Line 4
R5   .        MATRIX  LIMESTONE  2.71 G/CC :Remark Line 5
R6   .        CHLORIDES  2600PPM         :Remark Line 6
R7   .                                   :Remark Line 7
R8   .        BOREHOLE ENVIRONMENT MAY AFFECT LOG QUALITY :Remark Line 8
TCS  .        18 00                      :Time Circulation Stopped
TLAB .        1 30                       :Time Logger At Bottom
EPD  .F         315.700012               :Elevation of Permanent Datum above Mean Sea Level
APD  .F          18.000000               :Elevation of Depth Reference (LMF) above Permanent Datum
#-----------------------------------------------------------------------------
~CURVE INFORMATION
#MNEM.UNIT   API CODE                                  DESCRIPTION
#---- -----  --------                                  -----------------------
DEPT .F                                                :DEPTH (BOREHOLE) {F12.4}
CTEM .DEGF                                             :Cartridge Temperature {F11.4}
DCAL .IN                                               :Differential Caliper {F11.4}
DT   .US/F                                             :Delta-T {F11.4}
GR_EDTC.GAPI                                           :Gamma Ray {F11.4}
GTEM .DEGF                                             :Generalized Borehole Temperature {F11.4}
ITT  .S                                                :Integrated Transit Time {F11.4}
RWA  .OHMM                                             :Apparent Water Resistivity {F11.4}
SPHI .CFCF                                             :Sonic Porosity {F11.4}
STIT .F                                                :Stuck Tool Indicator, Total {F11.4}
TENS .LBF                                              :Cable Tension {F11.4}
#-----------------------------------------------------------------------------
# 
#      DEPT        CTEM       DCAL        DT      GR_EDTC      GTEM       ITT        RWA        SPHI       STIT       TENS
#
~A  
# ...
  10319.0000   203.1061     1.8737    77.3997   122.5208   215.4698     0.0220   -29.8382     0.1728     0.0000  3555.0000
  10319.5000   203.1061     2.0488    75.7113   129.8435   215.4770     0.0220   -26.4571     0.1627     0.0000  3574.0000
  10320.0000   203.1061     2.8313    75.3427   118.2529   215.4841     0.0219   -25.7269     0.1605     0.0000  3568.0000
  10320.5000   203.1061     2.3914    74.2364   114.0301   215.4913     0.0219   -23.5547     0.1535     0.0000  3584.0000
  10321.0000   203.1061     2.3302    73.8818    99.5131   215.4984     0.0219   -22.8655     0.1513     0.0000  3595.0000
  10321.5000   202.8237     2.1377    74.0482   103.8343   215.5056     0.0218   -23.1885     0.1523     0.0000  3542.0000
  10322.0000   201.7884     1.8452    73.2912   101.3286   215.5127     0.0218   -21.7260     0.1475     0.0000  3572.0000
  10322.5000   201.1296     2.0681    72.4576   108.3557   215.5199     0.0218   -20.1373     0.1420     0.0000  3550.0000
  10323.0000   201.1296     1.5886    72.9747   100.0477   215.5270     0.0217   -21.1199     0.1454     0.0000  3599.0000
  10323.5000   201.1296     1.6125    71.8496    97.0228   215.5341     0.0217   -18.9942     0.1379     0.0000  3609.0000
  10324.0000   201.1296     1.6919    73.0065   102.9017   215.5413     0.0216   -21.1807     0.1456     0.0000  3545.0000
  10324.5000   201.1296     2.1602    75.2429   117.5155   215.5484     0.0216   -25.5297     0.1598     0.0000  3559.0000
  10325.0000   201.1296     2.1897    77.3571   131.5004   215.5556     0.0216   -29.7522     0.1726     0.0000  3534.0000
  10325.5000   201.1296     2.6434    77.7630   131.4482   215.5627     0.0215   -30.5722     0.1749     0.0000  3536.0000
  10326.0000   201.1296     2.1474    75.9576   127.7385   215.5699     0.0215   -26.9468     0.1642     0.0000  3577.0000
  10326.5000   201.1296     1.7645    75.5255   129.7847   215.5770     0.0215   -26.0886     0.1616     0.0000  3557.0000
  10327.0000   201.1296     1.5358    74.0981   128.2301   215.5842     0.0214   -23.2856     0.1527     0.0000  3569.0000
  10327.5000   201.1296     1.4295    74.3345   123.5768   215.5913     0.0214   -23.7460     0.1542     0.0000  3590.0000
  10328.0000   201.1296     1.5091    75.3733   112.1284   215.5985     0.0213   -25.7873     0.1606     0.0000  3605.0000
  10328.5000   201.1296     1.6366    75.2352   112.2625   215.6056     0.0213   -25.5145     0.1598     0.0000  3600.0000
  10329.0000   201.1296     1.6819    74.4580   112.3360   215.6128     0.0213   -23.9872     0.1549     0.0000  3588.0000
  10329.5000   201.1296     1.6963    74.4767   115.2827   215.6199     0.0212   -24.0239     0.1551     0.0000  3552.0000
  10330.0000   201.1296     1.3928    72.2810   125.1252   215.6270     0.0212   -19.8038     0.1408     0.0000  3589.0000
  10330.5000   201.1296     1.2395    68.3394   129.1856   215.6342     0.0212   -12.7257     0.1129     0.0000  3520.0000
  10331.0000   201.1296     1.1259    71.4351   130.9649   215.6413     0.0211   -18.2233     0.1350     0.0000  3577.0000
  10331.5000   201.1296     1.3187    72.6862   108.0894   215.6485     0.0211   -20.5704     0.1435     0.0000  3574.0000
  10332.0000   201.1296     2.1156    73.9419   100.3568   215.6556     0.0211   -22.9820     0.1517     0.0000  3541.0000
  10332.5000   201.1296     1.3090    74.0278    90.3633   215.6628     0.0210   -23.1489     0.1522     0.0000  3572.0000
  10333.0000   201.1296     1.3976    72.5898    96.8721   215.6699     0.0210   -20.3875     0.1428     0.0000  3562.0000
  10333.5000   201.1296     1.3395    69.3391   100.9700   215.6771     0.0209   -14.4454     0.1202     0.0000  3591.0000
  10334.0000   201.1296     1.3875    67.5051   106.0703   215.6842     0.0209   -11.3381     0.1065     0.0000  3585.0000
  10334.5000   201.1296     1.6230    73.0737   108.8749   215.6913     0.0209   -21.3092     0.1460     0.0000  3581.0000
  10335.0000   201.1296     2.1202    72.5293   107.8908   215.6985     0.0208   -20.2730     0.1424     0.0000  3609.0000
  10335.5000   201.1296     3.0836    74.9583   118.5001   215.7056     0.0208   -24.9685     0.1581     0.0000  3694.0000
  10336.0000   201.1296     2.8589    77.0722   119.5386   215.7128     0.0208   -29.1782     0.1709     0.0000  3541.0000
  10336.5000   201.1296     3.3877    77.3300   121.7209   215.7199     0.0207   -29.6975     0.1724     0.0000  3588.0000
  10337.0000   201.1296     2.5177    79.1755   117.6138   215.7271     0.0207   -33.4435     0.1829     0.0000  3562.0000
  10337.5000   201.1296     2.5327    78.3065   123.0062   215.7342     0.0206   -31.6740     0.1780     0.0000  3583.0000
  10338.0000   201.1296     2.7052    77.4867   125.4427   215.7414     0.0206   -30.0136     0.1733     0.0000  3612.0000
  10338.5000   201.1296     2.7683    76.8433   125.2125   215.7485     0.0206   -28.7180     0.1695     0.0000  3602.0000
  10339.0000   201.1296     2.8554    76.5416   118.7369   215.7557     0.0205   -28.1131     0.1677     0.0000  3602.0000
  10339.5000   201.1296     3.0769    75.6213   113.3057   215.7628     0.0205   -26.2785     0.1622     0.0000  3600.0000
  10340.0000   201.1296     2.7700    74.7720   109.7971   215.7700     0.0205   -24.6024     0.1569     0.0000  3598.0000
  10340.5000   201.1296     2.4840    75.1799   110.4899   215.7771     0.0204   -25.4052     0.1594     0.0000  3604.0000
  10341.0000   201.1296     2.3136    73.9073   110.2094   215.7842     0.0204   -22.9150     0.1514     0.0000  3599.0000
  10341.5000   201.1296     1.9324    73.0959   107.9290   215.7914     0.0203   -21.3517     0.1462     0.0000  3614.0000
  10342.0000   201.1296     1.6963    72.6673   106.7616   215.7985     0.0203   -20.5346     0.1434     0.0000  3604.0000
  10342.5000   201.1296     2.0226    74.3245   105.7231   215.8057     0.0203   -23.7266     0.1541     0.0000  3583.0000
  10343.0000   201.1296     2.0792    74.2895   102.1264   215.8128     0.0202   -23.6582     0.1539     0.0000  3603.0000
  10343.5000   201.1296     2.6821    76.0258   110.4889   215.8200     0.0202   -27.0827     0.1646     0.0000  3559.0000
  10344.0000   201.1296     2.6218    77.3552   112.6203   215.8271     0.0202   -29.7483     0.1725     0.0000  3558.0000
  10344.5000   201.1296     3.0025    75.5906   114.7774   215.8343     0.0201   -26.2177     0.1620     0.0000  3574.0000
  10345.0000   201.1296     2.5893    77.1949   111.7160   215.8414     0.0201   -29.4253     0.1716     0.0000  3561.0000
  10345.5000   201.1296     2.0591    74.1154   115.8156   215.8486     0.0200   -23.3192     0.1528     0.0000  3564.0000
  10346.0000   201.1296     2.7595    74.4261   129.2276   215.8557     0.0200   -23.9249     0.1547     0.0000  3594.0000
  10346.5000   201.1296     2.7255    83.8971   134.3114   215.8629     0.0200   -43.1576     0.2078     0.0000  3576.0000
  10347.0000   201.1296     2.3137    86.1350   136.8843   215.8700     0.0199   -47.7769     0.2187     0.0000  3611.0000
  10347.5000   201.1296     2.7795    87.3744   135.5582   215.8771     0.0199   -50.3287     0.2244     0.0000  3603.0000
  10348.0000   201.1296     3.3721    86.0236   139.2406   215.8843     0.0198   -47.5472     0.2181     0.0000  3567.0000
  10348.5000   201.1296     3.1449    78.6766   142.7810   215.8914     0.0198   -32.4263     0.1801     0.0000  3588.0000
  10349.0000   201.1296     2.2427    73.2424   139.7977   215.8986     0.0198   -21.6325     0.1471     0.0000  3583.0000
  10349.5000   201.1296     2.8596    78.0020   136.6345   215.9057     0.0197   -31.0560     0.1763     0.0000  3618.0000
  10350.0000   201.1296     3.9151    84.4134   130.5212   215.9129     0.0197   -44.2240     0.2104     0.0000  3605.0000
  10350.5000   201.1296     3.6471    88.9489   132.1616   215.9200     0.0196   -53.5593     0.2315     0.0000  3573.0000
  10351.0000   201.1296     3.9227    92.5115   139.9504   215.9272     0.0196   -60.7998     0.2467     0.0000  3626.0000
  10351.5000   201.1296     3.4293    87.9249   147.0230   215.9343     0.0195   -51.4600     0.2269     0.0000  3613.0000
