~VERSION INFORMATION
VERS.           2.0   :CWLS Log ASCII Standard - VERSION 2.0
WRAP.           NO    :One Line per depth step
PROD.  Schlumberger   :LAS Producer
PROG.  DLIS to ASCII 10C0-306                          :LAS Program name and version
CREA.        2009/06/06 22:47                          :LAS Creation date {YYYY/MM/DD hh:mm}
SOURCE.     69098cc6-8793-4dd0-b26c-6d8e6a63e169       :DLIS File Name
#--------------------------------------------------
~WELL INFORMATION
#MNEM.UNIT      DATA             DESCRIPTION
#---- ------ --------------   -----------------------------
STRT .F      10286.0000      :START DEPTH     
STOP .F      10607.0000      :STOP DEPTH     
STEP .F       0.5000         :STEP       
NULL .          -999.25      :NULL VALUE
COMP .        DENBURY ONSHORE, LLC                     :COMPANY
WELL .        CFU 31F #1                               :WELL
FLD  .        CRANFIELD FIELD UNIT                     :FIELD
LOC  .        X: 248,375.1'                            :LOCATION
CNTY .        FRANKLIN                                 :COUNTY
STAT .        MISSISSIPPI                              :STATE
CTRY .                                                 :COUNTRY
API  .        23-037-21488-0000                        :API NUMBER
UWI  .                                                 :UNIQUE WELL ID
DATE .        06-Jun-2009                              :LOG DATE {DD-MMM-YYYY}
SRVC .        Schlumberger                             :SERVICE COMPANY
LATI .DEG                                              :LATITUDE
LONG .DEG                                              :LONGITUDE
GDAT .                                                 :GeoDetic Datum
#-----------------------------------------------------------------------------
~PARAMETER INFORMATION
#MNEM.UNIT    VALUE                      DESCRIPTION
#---- -----   --------------------       ------------------------
CN   .        DENBURY ONSHORE  LLC       :Company Name
WN   .        CFU 31F #1                 :Well Name
FN   .        CRANFIELD FIELD UNIT       :Field Name
FL   .        X  248 375.1'              :Field Location
FL1  .        Y  387 674.2'              :Field Location Line 1
COUN .        FRANKLIN                   :County or Rig Name
STAT .        MISSISSIPPI                :State or Province
NATI .                                   :Nation
DATE .        6-Jun-2009                 :Date as Month-Day-Year
APIN .        23-037-21488-0000          :API Serial Number
SECT .        31                         :Section
TOWN .        7N                         :Township
RANG .        1E                         :Range
DMF  .        KELLY BUSHING              :Drilling Measured From
LMF  .        KELLY BUSHING              :Log Measured From
PDAT .        GROUND LEVEL               :Permanent Datum
ENGI .        CHRISTIAN ZACCARO          :Engineer's Name
WITN .        FRED WALSH                 :Witness's Name
LATI .                                   :Latitude
LONG .                                   :Longitude
LUL  .        NATCHEZ  MS                :Logging Unit Location
LUN  .              2157                 :Logging Unit Number
RUN  .        ONE                        :Run Number
SON  .        APWH-00103                 :Service Order Number
BHT  .DEGF     220.00000                 :Bottom Hole Temperature (used in calculations)
BS   .IN         8.75000                 :Bit Size
DFD  .LB/G       9.90000                 :Drilling Fluid Density
DFV  .S         42.00000                 :Drilling Fluid Viscosity
DFL  .C3         8.30000                 :Drilling Fluid Loss
RMFS .OHMM       1.21700                 :Resistivity of Mud Filtrate Sample
EKB  .F        333.70001                 :Elevation of Kelly Bushing
EGL  .F        315.70001                 :Elevation of Ground Level
BLI  .F       10628.00000                :Bottom Log Interval
BSAL .PPM     2600.00000                 :Borehole Salinity
FLEV .F          0.00000                 :Fluid Level
MCST .DEGF      74.90000                 :Mud Cake Sample Temperature
MFST .DEGF      74.80000                 :Mud Filtrate Sample Temperature
MRT  .DEGF     221.00000                 :Maximum Recorded Temperature
MST  .DEGF      76.20000                 :Mud Sample Temperature
RMCS .OHMM       1.89800                 :Resistivity of Mud Cake Sample
RMS  .OHMM       1.45600                 :Resistivity of Mud Sample
RW   .OHMM       1.00000                 :Resistivity of Connate Water
TDD  .F       10700.00000                :Total Depth - Driller
TDL  .F       10636.00000                :Total Depth - Logger
TLI  .F       2028.00000                 :Top Log Interval
HIDE .        CALIPER LOG                :Header Identifier
MATR .        LIME                       :Rock Matrix for Neutron Porosity Corrections
FNUM .           1.00000                 :Form Factor Numerator
FEXP .           2.00000                 :Form Factor Exponent
DFT  .        FRESH WATER-BASED MUD      :Drilling Fluid Type
DFPH .           9.60000                 :Drilling Fluid PH
MCSS .        MUDPRESS                   :Mud Cake Sample Source
MFSS .        MUDPRESS                   :Mud Filtrate Sample Source
MSS  .        MUDPIT                     :Mud Sample Source
OS1  .        BHC SONIC                  :Other Services Line 1
OS2  .        CST                        :Other Services Line 2
OS3  .                                   :Other Services Line 3
OS4  .                                   :Other Services Line 4
OS5  .                                   :Other Services Line 5
R1   .        FIRST RUN IN WELL          :Remark Line 1
R2   .        ALL SCHLUMBERGER DEPTH PROCEDURES FOLLOWED :Remark Line 2
R3   .        TWO 1.5  STANDOFFS RAN ON INDUCTION TOOL :Remark Line 3
R4   .        BOWSPRING RAN ON NEUTRON TOOL FOR ECCENTRALIZATION :Remark Line 4
R5   .        MATRIX  LIMESTONE  2.71 G/CC :Remark Line 5
R6   .        CHLORIDES  2600PPM         :Remark Line 6
R7   .                                   :Remark Line 7
R8   .        BOREHOLE ENVIRONMENT MAY AFFECT LOG QUALITY :Remark Line 8
TCS  .        18 00                      :Time Circulation Stopped
TLAB .        1 30                       :Time Logger At Bottom
EPD  .F         315.700012               :Elevation of Permanent Datum above Mean Sea Level
APD  .F          18.000000               :Elevation of Depth Reference (LMF) above Permanent Datum
#-----------------------------------------------------------------------------
~CURVE INFORMATION
#MNEM.UNIT   API CODE                                  DESCRIPTION
#---- -----  --------                                  -----------------------
DEPT .F                                                :DEPTH (BOREHOLE) {F12.4}
CTEM .DEGF                                             :Cartridge Temperature {F11.4}
DCAL .IN                                               :Differential Caliper {F11.4}
DT   .US/F                                             :Delta-T {F11.4}
GR_EDTC.GAPI                                           :Gamma Ray {F11.4}
GTEM .DEGF                                             :Generalized Borehole Temperature {F11.4}
ITT  .S                                                :Integrated Transit Time {F11.4}
RWA  .OHMM                                             :Apparent Water Resistivity {F11.4}
SPHI .CFCF                                             :Sonic Porosity {F11.4}
STIT .F                                                :Stuck Tool Indicator, Total {F11.4}
TENS .LBF                                              :Cable Tension {F11.4}
#-----------------------------------------------------------------------------
# 
#      DEPT        CTEM       DCAL        DT      GR_EDTC      GTEM       ITT        RWA        SPHI       STIT       TENS
#
~A  
  10286.0000   203.1061     0.8877    77.6283    93.5688   214.9982     0.0244   -30.2997     0.1741     0.0000  3557.0000
  10286.5000   203.1061     1.0560    77.6283    87.0900   215.0054     0.0244   -30.2997     0.1741     0.0000  3543.0000
  10287.0000   203.1061     0.9837    77.6283    86.5979   215.0125     0.0244   -30.2997     0.1741     0.0000  3545.0000
  10287.5000   203.1061     1.1498    77.6283    90.6641   215.0197     0.0244   -30.2997     0.1741     0.0000  3573.0000
  10288.0000   203.1061     1.1909    77.6283    90.8237   215.0268     0.0244   -30.2997     0.1741     0.0000  3553.0000
  10288.5000   203.1061     0.9680    77.6283    85.1473   215.0340     0.0244   -30.2997     0.1741     0.0000  3530.0000
  10289.0000   203.1061     1.0157    77.6283    96.1393   215.0411     0.0244   -30.2997     0.1741     0.0000  3535.0000
  10289.5000   203.1061     1.0384    77.6283    97.3484   215.0482     0.0244   -30.2997     0.1741     0.0000  3520.0000
  10290.0000   203.1061     1.4474    77.6283   104.0229   215.0554     0.0244   -30.2997     0.1741     0.0000  3574.0000
  10290.5000   203.1061     0.9830    78.8127   102.7423   215.0625     0.0243   -32.7036     0.1809     0.0000  3537.0000
  10291.0000   203.1061     1.0427    78.0472   105.8182   215.0697     0.0243   -31.1476     0.1766     0.0000  3534.0000
  10291.5000   203.1061     0.9959    77.2654    96.9482   215.0768     0.0243   -29.5673     0.1720     0.0000  3574.0000
  10292.0000   203.1061     0.9839    73.4048    88.6000   215.0840     0.0242   -21.9444     0.1482     0.0000  3510.0000
  10292.5000   203.1061     0.9645    73.3136    85.9128   215.0911     0.0242   -21.7690     0.1476     0.0000  3556.0000
  10293.0000   203.1061     1.1587    71.9559    88.9084   215.0983     0.0242   -19.1930     0.1386     0.0000  3574.0000
  10293.5000   203.1061     1.4566    73.3246    87.6649   215.1054     0.0241   -21.7902     0.1477     0.0000  3550.0000
  10294.0000   203.1061     1.1528    74.2252    79.2963   215.1126     0.0241   -23.5329     0.1535     0.0000  3559.0000
  10294.5000   203.1061     1.1434    73.9510    78.3434   215.1197     0.0240   -22.9998     0.1517     0.0000  3593.0000
  10295.0000   203.1061     1.2323    74.7160    85.4107   215.1269     0.0240   -24.4925     0.1566     0.0000  3529.0000
  10295.5000   203.1061     2.1476    76.3032    93.7793   215.1340     0.0240   -27.6362     0.1663     0.0000  3542.0000
  10296.0000   203.1061     2.0884    85.6026    96.5420   215.1411     0.0239   -46.6788     0.2161     0.0000  3532.0000
  10296.5000   203.1061     2.3487    87.6234   101.3855   215.1483     0.0239   -50.8406     0.2256     0.0000  3573.0000
  10297.0000   203.1061     2.4592    84.5995    86.3040   215.1554     0.0238   -44.6082     0.2113     0.0000  3603.0000
  10297.5000   203.1061     1.7255    81.4524    71.2122   215.1626     0.0238   -38.1140     0.1953     0.0000  3536.0000
  10298.0000   203.1061     1.6505    78.9467    52.0000   215.1697     0.0238   -32.9766     0.1817     0.0000  3582.0000
  10298.5000   203.1061     1.5477    77.4889    46.6896   215.1769     0.0237   -30.0180     0.1733     0.0000  3551.0000
  10299.0000   203.1061     1.9208    80.7255    42.9564   215.1840     0.0237   -36.6188     0.1914     0.0000  3588.0000
  10299.5000   203.1061     2.0188    84.4904    37.2247   215.1912     0.0236   -44.3829     0.2108     0.0000  3569.0000
  10300.0000   203.1061     2.1226    87.2452    38.9425   215.1983     0.0236   -50.0630     0.2238     0.0000  3568.0000
  10300.5000   203.1061     2.2450    88.0150    37.3158   215.2055     0.0236   -51.6450     0.2273     0.0000  3541.0000
  10301.0000   203.1061     2.0572    85.3371    35.2329   215.2126     0.0235   -46.1310     0.2149     0.0000  3534.0000
  10301.5000   203.1061     2.1360    81.3310    37.3340   215.2197     0.0235   -37.8640     0.1947     0.0000  3527.0000
  10302.0000   203.1061     2.2496    76.1458    41.3270   215.2269     0.0234   -27.3220     0.1654     0.0000  3564.0000
  10302.5000   203.1061     2.2534    69.8203    44.4683   215.2340     0.0234   -15.2935     0.1237     0.0000  3534.0000
  10303.0000   203.1061     2.6004    69.7259    41.0948   215.2412     0.0234   -15.1261     0.1230     0.0000  3510.0000
  10303.5000   203.1061     2.4999    70.8733    40.7886   215.2483     0.0233   -17.1902     0.1312     0.0000  3568.0000
  10304.0000   203.1061     2.5247    72.7988    38.4328   215.2555     0.0233   -20.7846     0.1442     0.0000  3513.0000
  10304.5000   203.1061     2.6312    75.4552    36.0517   215.2626     0.0233   -25.9493     0.1611     0.0000  3562.0000
  10305.0000   203.1061     2.7531    82.2489    34.1337   215.2698     0.0232   -39.7554     0.1995     0.0000  3556.0000
  10305.5000   203.1061     2.5342    84.9936    37.0088   215.2769     0.0232   -45.4220     0.2132     0.0000  3521.0000
  10306.0000   203.1061     2.5619    87.9892    42.9338   215.2841     0.0231   -51.5920     0.2272     0.0000  3557.0000
  10306.5000   203.1061     2.8006    85.8961    49.5646   215.2912     0.0231   -47.2842     0.2175     0.0000  3540.0000
  10307.0000   203.1061     2.2566    84.4445    49.7947   215.2983     0.0230   -44.2881     0.2105     0.0000  3526.0000
  10307.5000   203.1061     2.2783    87.5139    47.9849   215.3055     0.0230   -50.6156     0.2251     0.0000  3564.0000
  10308.0000   203.1061     2.2034    89.8433    46.2826   215.3126     0.0230   -55.3870     0.2354     0.0000  3532.0000
  10308.5000   203.1061     2.1634    94.4717    50.7256   215.3198     0.0229   -64.7313     0.2545     0.0000  3553.0000
  10309.0000   203.1061     1.9939    99.7123    45.4291   215.3269     0.0229   -75.0142     0.2740     0.0000  3562.0000
  10309.5000   203.1061     2.1584   101.8096    48.1472   215.3341     0.0228   -79.0259     0.2812     0.0000  3541.0000
  10310.0000   203.1061     2.1826   100.0715    43.6737   215.3412     0.0228   -75.7057     0.2752     0.0000  3577.0000
  10310.5000   203.1061     2.0865    98.2551    52.1479   215.3484     0.0227   -72.1908     0.2688     0.0000  3529.0000
  10311.0000   203.1061     2.2448    95.9935    48.5132   215.3555     0.0227   -67.7532     0.2604     0.0000  3539.0000
  10311.5000   203.1061     2.2975    90.3906    51.2155   215.3627     0.0226   -56.5023     0.2378     0.0000  3537.0000
  10312.0000   203.1061     2.7255    89.7897    63.1348   215.3698     0.0226   -55.2777     0.2352     0.0000  3478.0000
  10312.5000   203.1061     3.3500    86.3151    82.2542   215.3770     0.0225   -48.1481     0.2195     0.0000  3510.0000
  10313.0000   203.1061     2.2685    81.1899    98.0860   215.3841     0.0225   -37.5737     0.1939     0.0000  3494.0000
  10313.5000   203.1061     1.9107    80.1683    95.9196   215.3913     0.0224   -35.4748     0.1884     0.0000  3480.0000
  10314.0000   203.1061     1.6963    76.9816    97.0062   215.3984     0.0224   -28.9960     0.1703     0.0000  3522.0000
  10314.5000   203.1061     1.9672    76.3479   100.3613   215.4055     0.0224   -27.7256     0.1666     0.0000  3504.0000
  10315.0000   203.1061     2.7261    77.4790   107.2009   215.4127     0.0223   -29.9982     0.1733     0.0000  3505.0000
  10315.5000   203.1061     2.0224    76.5533   114.6123   215.4198     0.0223   -28.1364     0.1678     0.0000  3553.0000
  10316.0000   203.1061     1.7324    76.4940   110.1779   215.4270     0.0222   -28.0178     0.1674     0.0000  3576.0000
  10316.5000   203.1061     1.8507    78.0189   119.7011   215.4341     0.0222   -31.0903     0.1764     0.0000  3582.0000
  10317.0000   203.1061     2.3645    77.6141   122.3144   215.4413     0.0222   -30.2711     0.1741     0.0000  3580.0000
  10317.5000   203.1061     2.9963    78.8503   128.9368   215.4484     0.0221   -32.7802     0.1811     0.0000  3550.0000
  10318.0000   203.1061     2.4732    78.4370   119.4135   215.4556     0.0221   -31.9390     0.1788     0.0000  3613.0000
  10318.5000   203.1061     2.3908    77.7223   120.3376   215.4627     0.0221   -30.4899     0.1747     0.0000  3568.0000
