~VERSION INFORMATION
VERS.           2.0   :CWLS Log ASCII Standard - VERSION 2.0
WRAP.           NO    :One Line per depth step
PROD.  Schlumberger   :LAS Producer
PROG.  DLIS to ASCII 10C0-306                          :LAS Program name and version
CREA.        2009/06/06 22:47                          :LAS Creation date {YYYY/MM/DD hh:mm}
SOURCE.     69098cc6-8793-4dd0-b26c-6d8e6a63e169       :DLIS File Name
#--------------------------------------------------
~WELL INFORMATION
#MNEM.UNIT      DATA             DESCRIPTION
#---- ------ --------------   -----------------------------
STRT .F      10286.0000      :START DEPTH     
STOP .F      10607.0000      :STOP DEPTH     
STEP .F       0.5000         :STEP       
NULL .          -999.25      :NULL VALUE
COMP .        DENBURY ONSHORE, LLC                     :COMPANY
WELL .        CFU 31F #1                               :WELL
FLD  .        CRANFIELD FIELD UNIT                     :FIELD
LOC  .        X: 248,375.1'                            :LOCATION
CNTY .        FRANKLIN                                 :COUNTY
STAT .        MISSISSIPPI                              :STATE
CTRY .                                                 :COUNTRY
API  .        23-037-21488-0000                        :API NUMBER
UWI  .                                                 :UNIQUE WELL ID
DATE .        06-Jun-2009                              :LOG DATE {DD-MMM-YYYY}
SRVC .        Schlumberger                             :SERVICE COMPANY
LATI .DEG                                              :LATITUDE
LONG .DEG                                              :LONGITUDE
GDAT .                                                 :GeoDetic Datum
#-----------------------------------------------------------------------------
~PARAMETER INFORMATION
#MNEM.UNIT    VALUE                      DESCRIPTION
#---- -----   --------------------       ------------------------
CN   .        DENBURY ONSHORE  LLC       :Company Name
WN   .        CFU 31F #1                 :Well Name
FN   .        CRANFIELD FIELD UNIT       :Field Name
FL   .        X  248 375.1'              :Field Location
FL1  .        Y  387 674.2'              :Field Location Line 1
COUN .        FRANKLIN                   :County or Rig Name
STAT .        MISSISSIPPI                :State or Province
NATI .                                   :Nation
DATE .        6-Jun-2009                 :Date as Month-Day-Year
APIN .        23-037-21488-0000          :API Serial Number
SECT .        31                         :Section
TOWN .        7N                         :Township
RANG .        1E                         :Range
DMF  .        KELLY BUSHING              :Drilling Measured From
LMF  .        KELLY BUSHING              :Log Measured From
PDAT .        GROUND LEVEL               :Permanent Datum
ENGI .        CHRISTIAN ZACCARO          :Engineer's Name
WITN .        FRED WALSH                 :Witness's Name
LATI .                                   :Latitude
LONG .                                   :Longitude
LUL  .        NATCHEZ  MS                :Logging Unit Location
LUN  .              2157                 :Logging Unit Number
RUN  .        ONE                        :Run Number
SON  .        APWH-00103                 :Service Order Number
BHT  .DEGF     220.00000                 :Bottom Hole Temperature (used in calculations)
BS   .IN         8.75000                 :Bit Size
DFD  .LB/G       9.90000                 :Drilling Fluid Density
DFV  .S         42.00000                 :Drilling Fluid Viscosity
DFL  .C3         8.30000                 :Drilling Fluid Loss
RMFS .OHMM       1.21700                 :Resistivity of Mud Filtrate Sample
EKB  .F        333.70001                 :Elevation of Kelly Bushing
EGL  .F        315.70001                 :Elevation of Ground Level
BLI  .F       10628.00000                :Bottom Log Interval
BSAL .PPM     2600.00000                 :Borehole Salinity
FLEV .F          0.00000                 :Fluid Level
MCST .DEGF      74.90000                 :Mud Cake Sample Temperature
MFST .DEGF      74.80000                 :Mud Filtrate Sample Temperature
MRT  .DEGF     221.00000                 :Maximum Recorded Temperature
MST  .DEGF      76.20000                 :Mud Sample Temperature
RMCS .OHMM       1.89800                 :Resistivity of Mud Cake Sample
RMS  .OHMM       1.45600                 :Resistivity of Mud Sample
RW   .OHMM       1.00000                 :Resistivity of Connate Water
TDD  .F       10700.00000                :Total Depth - Driller
TDL  .F       10636.00000                :Total Depth - Logger
TLI  .F       2028.00000                 :Top Log Interval
HIDE .        CALIPER LOG                :Header Identifier
MATR .        LIME                       :Rock Matrix for Neutron Porosity Corrections
FNUM .           1.00000                 :Form Factor Numerator
FEXP .           2.00000                 :Form Factor Exponent
DFT  .        FRESH WATER-BASED MUD      :Drilling Fluid Type
DFPH .           9.60000                 :Drilling Fluid PH
MCSS .        MUDPRESS                   :Mud Cake Sample Source
MFSS .        MUDPRESS                   :Mud Filtrate Sample Source
MSS  .        MUDPIT                     :Mud Sample Source
OS1  .        BHC SONIC                  :Other Services Line 1
OS2  .        CST                        :Other Services Line 2
OS3  .                                   :Other Services Line 3
OS4  .                                   :Other Services Line 4
OS5  .                                   :Other Services Line 5
R1   .        FIRST RUN IN WELL          :Remark Line 1
R2   .        ALL SCHLUMBERGER DEPTH PROCEDURES FOLLOWED :Remark Line 2
R3   .        TWO 1.5  STANDOFFS RAN ON INDUCTION TOOL :Remark Line 3
R4   .        BOWSPRING RAN ON NEUTRON TOOL FOR ECCENTRALIZATION :Remark Line 4
R5   .        MATRIX  LIMESTONE  2.71 G/CC :Remark Line 5
R6   .        CHLORIDES  2600PPM         :Remark Line 6
R7   .                                   :Remark Line 7
R8   .        BOREHOLE ENVIRONMENT MAY AFFECT LOG QUALITY :Remark Line 8
TCS  .        18 00                      :Time Circulation Stopped
TLAB .        1 30                       :Time Logger At Bottom
EPD  .F         315.700012               :Elevation of Permanent Datum above Mean Sea Level
APD  .F          18.000000               :Elevation of Depth Reference (LMF) above Permanent Datum
#-----------------------------------------------------------------------------
~CURVE INFORMATION
#MNEM.UNIT   API CODE                                  DESCRIPTION
#---- -----  --------                                  -----------------------
DEPT .F                                                :DEPTH (BOREHOLE) {F12.4}
CTEM .DEGF                                             :Cartridge Temperature {F11.4}
DCAL .IN                                               :Differential Caliper {F11.4}
DT   .US/F                                             :Delta-T {F11.4}
GR_EDTC.GAPI                                           :Gamma Ray {F11.4}
GTEM .DEGF                                             :Generalized Borehole Temperature {F11.4}
ITT  .S                                                :Integrated Transit Time {F11.4}
RWA  .OHMM                                             :Apparent Water Resistivity {F11.4}
SPHI .CFCF                                             :Sonic Porosity {F11.4}
STIT .F                                                :Stuck Tool Indicator, Total {F11.4}
TENS .LBF                                              :Cable Tension {F11.4}
#-----------------------------------------------------------------------------
# 
#      DEPT        CTEM       DCAL        DT      GR_EDTC      GTEM       ITT        RWA        SPHI       STIT       TENS
#
~A  
# ...
  10550.0000   193.2237     0.5542    67.5637    98.3797   218.7711     0.0041   -11.4341     0.1070     0.0000  3687.0000
  10550.5000   192.9413     0.4938    63.8323    95.5011   218.7782     0.0041    -5.8766     0.0767     0.0000  3696.0000
  10551.0000   191.8119     0.4987    62.8982    81.7310   218.7854     0.0040    -4.6949     0.0685     0.0000  3747.0000
  10551.5000   191.2472     0.5710    67.1640    82.4164   218.7925     0.0040   -10.7844     0.1039     0.0000  3717.0000
  10552.0000   191.2472     1.1576    71.2229    81.1411   218.7997     0.0040   -17.8316     0.1336     0.0000  3732.0000
  10552.5000   191.2472     0.5997    75.0029    91.3488   218.8068     0.0039   -25.0563     0.1584     0.0000  3745.0000
  10553.0000   191.2472     1.4714    75.4329    94.2980   218.8139     0.0039   -25.9052     0.1610     0.0000  3709.0000
  10553.5000   191.2472     0.9034    79.3642   103.5517   218.8211     0.0039   -33.8287     0.1840     0.0000  3697.0000
  10554.0000   191.2472     1.3627    79.0922    98.0451   218.8282     0.0038   -33.2734     0.1825     0.0000  3640.0000
  10554.5000   191.2472     0.8818    80.6896    98.2130   218.8354     0.0038   -36.5450     0.1912     0.0000  3683.0000
  10555.0000   191.2472     1.0139    80.7785   101.3269   218.8425     0.0037   -36.7276     0.1917     0.0000  3708.0000
  10555.5000   191.2472     1.7091    80.6999   112.8465   218.8497     0.0037   -36.5662     0.1913     0.0000  3681.0000
  10556.0000   191.2472     2.0046    82.8208   112.8465   218.8568     0.0037   -40.9353     0.2024     0.0000  3727.0000
  10556.5000   191.2472     1.6542    85.1954   111.0672   218.8640     0.0036   -45.8386     0.2142     0.0000  3784.0000
  10557.0000   191.2472     2.2170    86.8786   111.7337   218.8711     0.0036   -49.3087     0.2221     0.0000  3755.0000
  10557.5000   191.2472     1.6237    86.7945   117.0327   218.8783     0.0035   -49.1356     0.2217     0.0000  3834.0000
  10558.0000   191.2472     1.9271    85.9131   125.6566   218.8854     0.0035   -47.3193     0.2176     0.0000  3890.0000
  10558.5000   191.2472     2.0933    84.3527   121.2035   218.8926     0.0034   -44.0986     0.2101     0.0000  3902.0000
  10559.0000   191.2472     1.6727    82.7074   113.1405   218.8997     0.0034   -40.7013     0.2018     0.0000  3857.0000
  10559.5000   191.2472     1.3998    80.6666   106.2958   218.9069     0.0034   -36.4977     0.1911     0.0000  3736.0000
  10560.0000   191.2472     0.8242    79.7435   107.5547   218.9140     0.0033   -34.6046     0.1861     0.0000  3772.0000
  10560.5000   191.2472     0.8179    77.7843   111.2495   218.9211     0.0033   -30.6152     0.1750     0.0000  3732.0000
  10561.0000   191.2472     0.8909    76.7770   109.0635   218.9283     0.0032   -28.5850     0.1691     0.0000  3711.0000
  10561.5000   191.2472     0.8210    70.4323   108.2123   218.9354     0.0032   -16.3894     0.1281     0.0000  3751.0000
  10562.0000   191.2472     0.5659    65.7963   101.0473   218.9426     0.0032    -8.6528     0.0931     0.0000  3729.0000
  10562.5000   191.2472     0.5199    62.7307    84.9952   218.9497     0.0031    -4.4936     0.0671     0.0000  3722.0000
  10563.0000   191.2472    -0.1917    62.0805    63.6581   218.9569     0.0031    -3.7445     0.0612     0.0000  3748.0000
  10563.5000   191.2472     0.2169    59.7490    52.8126   218.9640     0.0031    -1.5368     0.0392     0.0000  3713.0000
  10564.0000   191.2472     0.0224    59.9736    47.5204   218.9712     0.0030    -1.7135     0.0414     0.0000  3755.0000
  10564.5000   191.2472     0.4598    59.7153    43.9470   218.9783     0.0030    -1.5110     0.0389     0.0000  3742.0000
  10565.0000   191.2472     0.4648    59.2302    38.3161   218.9854     0.0030    -1.1609     0.0341     0.0000  3693.0000
  10565.5000   191.2472     0.4856    57.7770    44.0531   218.9926     0.0029    -0.3692     0.0192     0.0000  3687.0000
  10566.0000   191.2472     0.8400    63.8735    61.8614   218.9997     0.0029    -5.9310     0.0770     0.0000  3661.0000
  10566.5000   191.2472     0.7762    68.3929    86.7986   219.0069     0.0029   -12.8162     0.1133     0.0000  3700.0000
  10567.0000   191.2472     0.7837    74.4162   104.6863   219.0140     0.0029   -23.9055     0.1547     0.0000  3744.0000
  10567.5000   191.2472     0.7687    80.1046   118.9511   219.0212     0.0028   -35.3444     0.1881     0.0000  3686.0000
  10568.0000   191.2472     0.8166    81.3077   122.9132   219.0283     0.0028   -37.8161     0.1945     0.0000  3678.0000
  10568.5000   191.2472     0.8269    84.2815   127.3123   219.0355     0.0027   -43.9516     0.2097     0.0000  3739.0000
  10569.0000   191.2472     0.7112    82.7054   117.0703   219.0426     0.0027   -40.6972     0.2018     0.0000  3711.0000
  10569.5000   191.2472     0.7467    80.7891   108.9892   219.0498     0.0027   -36.7495     0.1918     0.0000  3777.0000
  10570.0000   191.2472     0.3396    79.7293    99.2273   219.0569     0.0026   -34.5756     0.1860     0.0000  3738.0000
  10570.5000   191.2472     0.2947    78.0638    93.8836   219.0641     0.0026   -31.1814     0.1766     0.0000  3758.0000
  10571.0000   191.2472     0.3132    74.3780    87.6896   219.0712     0.0025   -23.8311     0.1544     0.0000  3819.0000
  10571.5000   191.2472     0.3674    72.7681    81.6289   219.0783     0.0025   -20.7263     0.1440     0.0000  3768.0000
  10572.0000   191.2472     0.2301    68.5883    70.4879   219.0855     0.0025   -13.1483     0.1147     0.0000  3776.0000
  10572.5000   191.2472     0.1283    66.4133    61.5309   219.0926     0.0024    -9.5962     0.0980     0.0000  3726.0000
  10573.0000   191.2472     0.1719    68.4477    67.4027   219.0998     0.0024   -12.9090     0.1137     0.0000  3651.0000
  10573.5000   191.2472     0.2201    71.1227    82.9413   219.1069     0.0024   -17.6472     0.1329     0.0000  3672.0000
  10574.0000   191.2472     0.1224    75.1746    98.8225   219.1141     0.0023   -25.3948     0.1594     0.0000  3642.0000
  10574.5000   191.2472     0.2492    78.2107   101.3625   219.1212     0.0023   -31.4793     0.1775     0.0000  3652.0000
  10575.0000   191.2472     0.1537    78.2929   104.8283   219.1284     0.0022   -31.6463     0.1780     0.0000  3626.0000
  10575.5000   191.2472     0.2263    81.1030   106.8612   219.1355     0.0022   -37.3949     0.1935     0.0000  3618.0000
  10576.0000   191.2472     0.1957    80.6102   110.7301   219.1427     0.0022   -36.3819     0.1908     0.0000  3632.0000
  10576.5000   191.2472     0.1551    80.3686   110.7371   219.1498     0.0021   -35.8857     0.1895     0.0000  3639.0000
  10577.0000   191.2472     0.0436    76.0840   108.7343   219.1570     0.0021   -27.1987     0.1650     0.0000  3683.0000
  10577.5000   191.2472     0.1206    72.8236   105.7163   219.1641     0.0020   -20.8319     0.1444     0.0000  3666.0000
  10578.0000   191.2472     0.1029    73.5658   104.6189   219.1712     0.0020   -22.2545     0.1492     0.0000  3604.0000
  10578.5000   191.2472     0.5900    74.9271   103.3783   219.1784     0.0020   -24.9071     0.1579     0.0000  3657.0000
  10579.0000   191.2472     0.1999    79.6426   101.7765   219.1855     0.0019   -34.3980     0.1855     0.0000  3648.0000
  10579.5000   191.2472     0.4877    80.9050   102.4275   219.1927     0.0019   -36.9876     0.1924     0.0000  3610.0000
  10580.0000   191.2472     0.4656    79.9980   102.4275   219.1998     0.0019   -35.1257     0.1875     0.0000  3646.0000
  10580.5000   191.2472     0.1618    79.7391   102.4275   219.2070     0.0018   -34.5955     0.1861     0.0000  3619.0000
  10581.0000   191.2472     0.0680    79.2663   102.4275   219.2141     0.0018   -33.6288     0.1835     0.0000  3650.0000
  10581.5000   191.2472     0.0805    78.8335   102.4275   219.2213     0.0017   -32.7458     0.1810     0.0000  3673.0000
  10582.0000   191.2472     0.3231    80.9370   102.4275   219.2284     0.0017   -37.0534     0.1926     0.0000  3684.0000
  10582.5000   191.2472     0.3070    79.2861   102.4275   219.2355     0.0017   -33.6694     0.1836     0.0000  3639.0000
