~VERSION INFORMATION
VERS.           2.0   :CWLS Log ASCII Standard - VERSION 2.0
WRAP.           NO    :One Line per depth step
PROD.  Schlumberger   :LAS Producer
PROG.  DLIS to ASCII 10C0-306                          :LAS Program name and version
CREA.        2009/06/06 22:47                          :LAS Creation date {YYYY/MM/DD hh:mm}
SOURCE.     69098cc6-8793-4dd0-b26c-6d8e6a63e169       :DLIS File Name
#--------------------------------------------------
~WELL INFORMATION
#MNEM.UNIT      DATA             DESCRIPTION
#---- ------ --------------   -----------------------------
STRT .F      10286.0000      :START DEPTH     
STOP .F      10607.0000      :STOP DEPTH     
STEP .F       0.5000         :STEP       
NULL .          -999.25      :NULL VALUE
COMP .        DENBURY ONSHORE, LLC                     :COMPANY
WELL .        CFU 31F #1                               :WELL
FLD  .        CRANFIELD FIELD UNIT                     :FIELD
LOC  .        X: 248,375.1'                            :LOCATION
CNTY .        FRANKLIN                                 :COUNTY
STAT .        MISSISSIPPI                              :STATE
CTRY .                                                 :COUNTRY
API  .        23-037-21488-0000                        :API NUMBER
UWI  .                                                 :UNIQUE WELL ID
DATE .        06-Jun-2009                              :LOG DATE {DD-MMM-YYYY}
SRVC .        Schlumberger                             :SERVICE COMPANY
LATI .DEG                                              :LATITUDE
LONG .DEG                                              :LONGITUDE
GDAT .                                                 :GeoDetic Datum
#-----------------------------------------------------------------------------
~PARAMETER INFORMATION
#MNEM.UNIT    VALUE                      DESCRIPTION
#---- -----   --------------------       ------------------------
CN   .        DENBURY ONSHORE  LLC       :Company Name
WN   .        CFU 31F #1                 :Well Name
FN   .        CRANFIELD FIELD UNIT       :Field Name
FL   .        X  248 375.1'              :Field Location
FL1  .        Y  387 674.2'              :Field Location Line 1
COUN .        FRANKLIN                   :County or Rig Name
STAT .        MISSISSIPPI                :State or Province
NATI .                                   :Nation
DATE .        6-Jun-2009                 :Date as Month-Day-Year
APIN .        23-037-21488-0000          :API Serial Number
SECT .        31                         :Section
TOWN .        7N                         :Township
RANG .        1E                         :Range
DMF  .        KELLY BUSHING              :Drilling Measured From
LMF  .        KELLY BUSHING              :Log Measured From
PDAT .        GROUND LEVEL               :Permanent Datum
ENGI .        CHRISTIAN ZACCARO          :Engineer's Name
WITN .        FRED WALSH                 :Witness's Name
LATI .                                   :Latitude
LONG .                                   :Longitude
LUL  .        NATCHEZ  MS                :Logging Unit Location
LUN  .              2157                 :Logging Unit Number
RUN  .        ONE                        :Run Number
SON  .        APWH-00103                 :Service Order Number
BHT  .DEGF     220.00000                 :Bottom Hole Temperature (used in calculations)
BS   .IN         8.75000                 :Bit Size
DFD  .LB/G       9.90000                 :Drilling Fluid Density
DFV  .S         42.00000                 :Drilling Fluid Viscosity
DFL  .C3         8.30000                 :Drilling Fluid Loss
RMFS .OHMM       1.21700                 :Resistivity of Mud Filtrate Sample
EKB  .F        333.70001                 :Elevation of Kelly Bushing
EGL  .F        315.70001                 :Elevation of Ground Level
BLI  .F       10628.00000                :Bottom Log Interval
BSAL .PPM     2600.00000                 :Borehole Salinity
FLEV .F          0.00000                 :Fluid Level
MCST .DEGF      74.90000                 :Mud Cake Sample Temperature
MFST .DEGF      74.80000                 :Mud Filtrate Sample Temperature
MRT  .DEGF     221.00000                 :Maximum Recorded Temperature
MST  .DEGF      76.20000                 :Mud Sample Temperature
RMCS .OHMM       1.89800                 :Resistivity of Mud Cake Sample
RMS  .OHMM       1.45600                 :Resistivity of Mud Sample
RW   .OHMM       1.00000                 :Resistivity of Connate Water
TDD  .F       10700.00000                :Total Depth - Driller
TDL  .F       10636.00000                :Total Depth - Logger
TLI  .F       2028.00000                 :Top Log Interval
HIDE .        CALIPER LOG                :Header Identifier
MATR .        LIME                       :Rock Matrix for Neutron Porosity Corrections
FNUM .           1.00000                 :Form Factor Numerator
FEXP .           2.00000                 :Form Factor Exponent
DFT  .        FRESH WATER-BASED MUD      :Drilling Fluid Type
DFPH .           9.60000                 :Drilling Fluid PH
MCSS .        MUDPRESS                   :Mud Cake Sample Source
MFSS .        MUDPRESS                   :Mud Filtrate Sample Source
MSS  .        MUDPIT                     :Mud Sample Source
OS1  .        BHC SONIC                  :Other Services Line 1
OS2  .        CST                        :Other Services Line 2
OS3  .                                   :Other Services Line 3
OS4  .                                   :Other Services Line 4
OS5  .                                   :Other Services Line 5
R1   .        FIRST RUN IN WELL          :Remark Line 1
R2   .        ALL SCHLUMBERGER DEPTH PROCEDURES FOLLOWED :Remark Line 2
R3   .        TWO 1.5  STANDOFFS RAN ON INDUCTION TOOL :Remark Line 3
R4   .        BOWSPRING RAN ON NEUTRON TOOL FOR ECCENTRALIZATION :Remark Line 4
R5   .        MATRIX  LIMESTONE  2.71 G/CC :Remark Line 5
R6   .        CHLORIDES  2600PPM         :Remark Line 6
R7   .                                   :Remark Line 7
R8   .        BOREHOLE ENVIRONMENT MAY AFFECT LOG QUALITY :Remark Line 8
TCS  .        18 00                      :Time Circulation Stopped
TLAB .        1 30                       :Time Logger At Bottom
EPD  .F         315.700012               :Elevation of Permanent Datum above Mean Sea Level
APD  .F          18.000000               :Elevation of Depth Reference (LMF) above Permanent Datum
#-----------------------------------------------------------------------------
~CURVE INFORMATION
#MNEM.UNIT   API CODE                                  DESCRIPTION
#---- -----  --------                                  -----------------------
DEPT .F                                                :DEPTH (BOREHOLE) {F12.4}
CTEM .DEGF                                             :Cartridge Temperature {F11.4}
DCAL .IN                                               :Differential Caliper {F11.4}
DT   .US/F                                             :Delta-T {F11.4}
GR_EDTC.GAPI                                           :Gamma Ray {F11.4}
GTEM .DEGF                                             :Generalized Borehole Temperature {F11.4}
ITT  .S                                                :Integrated Transit Time {F11.4}
RWA  .OHMM                                             :Apparent Water Resistivity {F11.4}
SPHI .CFCF                                             :Sonic Porosity {F11.4}
STIT .F                                                :Stuck Tool Indicator, Total {F11.4}
TENS .LBF                                              :Cable Tension {F11.4}
#-----------------------------------------------------------------------------
# 
#      DEPT        CTEM       DCAL        DT      GR_EDTC      GTEM       ITT        RWA        SPHI       STIT       TENS
#
~A  
# ...
  10385.0000   199.1531     1.4976    74.1941   115.3105   216.4131     0.0170   -23.4724     0.1533     0.0000  3579.0000
  10385.5000   199.1531     1.5495    73.6248   111.9428   216.4202     0.0170   -22.3684     0.1496     0.0000  3606.0000
  10386.0000   199.1531     1.4673    73.5285   112.9455   216.4273     0.0169   -22.1826     0.1490     0.0000  3609.0000
  10386.5000   199.1531     1.6998    73.7415   109.6161   216.4345     0.0169   -22.5939     0.1504     0.0000  3629.0000
  10387.0000   199.1531     1.0562    72.2496   111.3773   216.4416     0.0169   -19.7445     0.1406     0.0000  3650.0000
  10387.5000   199.1531     0.9893    71.4422   102.6458   216.4488     0.0168   -18.2366     0.1351     0.0000  3633.0000
  10388.0000   199.1531     1.0573    72.1418   114.1856   216.4559     0.0168   -19.5418     0.1398     0.0000  3606.0000
  10388.5000   199.1531     0.9333    71.5582   119.8973   216.4631     0.0168   -18.4516     0.1359     0.0000  3637.0000
  10389.0000   199.1531     0.9994    71.7503   131.7138   216.4702     0.0167   -18.8089     0.1372     0.0000  3577.0000
  10389.5000   199.1531     1.3049    72.4723   132.2820   216.4774     0.0167   -20.1651     0.1421     0.0000  3616.0000
  10390.0000   199.1531     0.9034    72.6601   128.7744   216.4845     0.0167   -20.5210     0.1433     0.0000  3645.0000
  10390.5000   199.1531     0.7875    71.4117   126.8730   216.4917     0.0166   -18.1801     0.1349     0.0000  3576.0000
  10391.0000   199.1531     0.7479    72.0486   119.9829   216.4988     0.0166   -19.3668     0.1392     0.0000  3640.0000
  10391.5000   199.1531     0.7241    70.0239   118.3454   216.5060     0.0166   -15.6560     0.1252     0.0000  3623.0000
  10392.0000   199.1531     0.7663    70.0153   118.4657   216.5131     0.0165   -15.6406     0.1251     0.0000  3613.0000
  10392.5000   199.1531     0.7524    68.1474   112.8937   216.5202     0.0165   -12.4024     0.1114     0.0000  3652.0000
  10393.0000   199.1531     0.7189    66.6829   104.3001   216.5274     0.0164   -10.0181     0.1001     0.0000  3608.0000
  10393.5000   199.1531     0.6950    64.5882    85.9304   216.5345     0.0164    -6.9014     0.0831     0.0000  3592.0000
  10394.0000   199.1531     0.6965    64.2369    74.0169   216.5417     0.0164    -6.4179     0.0801     0.0000  3623.0000
  10394.5000   199.1531     0.8108    63.8805    70.0405   216.5488     0.0163    -5.9403     0.0771     0.0000  3590.0000
  10395.0000   199.1531     0.6556    63.7948    71.6248   216.5560     0.0163    -5.8274     0.0764     0.0000  3623.0000
  10395.5000   199.1531     0.6794    65.0667    72.7214   216.5631     0.0163    -7.5791     0.0871     0.0000  3608.0000
  10396.0000   199.1531     0.6896    64.8394    65.4898   216.5703     0.0163    -7.2544     0.0852     0.0000  3620.0000
  10396.5000   199.1531     0.7631    64.6003    67.1349   216.5774     0.0162    -6.9182     0.0832     0.0000  3632.0000
  10397.0000   199.1531     0.7739    64.4595    64.4513   216.5845     0.0162    -6.7227     0.0820     0.0000  3610.0000
  10397.5000   199.1531     0.7867    63.5750    71.2242   216.5917     0.0162    -5.5415     0.0745     0.0000  3631.0000
  10398.0000   199.1531     0.8462    63.3565    71.2242   216.5988     0.0161    -5.2625     0.0726     0.0000  3639.0000
  10398.5000   199.1531     0.7759    62.5963    79.4947   216.6060     0.0161    -4.3345     0.0659     0.0000  3586.0000
  10399.0000   199.1531     0.7930    62.2060    76.8600   216.6131     0.0161    -3.8851     0.0624     0.0000  3629.0000
  10399.5000   199.1531     0.6014    61.6515    65.8685   216.6203     0.0160    -3.2800     0.0573     0.0000  3631.0000
  10400.0000   199.1531     0.5361    64.6861    54.4726   216.6274     0.0160    -7.0383     0.0839     0.0000  3608.0000
  10400.5000   199.1531     0.6882    65.6467    60.7420   216.6346     0.0160    -8.4288     0.0918     0.0000  3642.0000
  10401.0000   199.1531     1.2064    70.3794    95.6764   216.6417     0.0159   -16.2939     0.1277     0.0000  3598.0000
  10401.5000   199.1531     1.1330    74.6794   112.9113   216.6488     0.0159   -24.4207     0.1563     0.0000  3599.0000
  10402.0000   199.1531     1.1501    73.5295   130.6151   216.6560     0.0159   -22.1846     0.1490     0.0000  3592.0000
  10402.5000   199.1531     1.5160    75.4370   119.0469   216.6631     0.0158   -25.9134     0.1610     0.0000  3573.0000
  10403.0000   199.1531     1.0032    74.4901   118.3084   216.6703     0.0158   -24.0500     0.1551     0.0000  3559.0000
  10403.5000   199.1531     1.0629    74.6349   108.8666   216.6774     0.0157   -24.3335     0.1561     0.0000  3571.0000
  10404.0000   199.1531     1.4683    76.4769   116.1912   216.6846     0.0157   -27.9835     0.1673     0.0000  3581.0000
  10404.5000   199.1531     1.8636    74.6531   124.6054   216.6917     0.0157   -24.3692     0.1562     0.0000  3672.0000
  10405.0000   199.1531     1.8973    75.1072   128.2356   216.6989     0.0156   -25.2619     0.1590     0.0000  3640.0000
  10405.5000   199.1531     1.6208    73.5871   128.1771   216.7060     0.0156   -22.2956     0.1494     0.0000  3651.0000
  10406.0000   199.1531     1.2132    72.6237   119.8924   216.7132     0.0156   -20.4519     0.1431     0.0000  3633.0000
  10406.5000   199.1531     1.0549    72.4975   118.5868   216.7203     0.0155   -20.2126     0.1422     0.0000  3618.0000
  10407.0000   199.1531     0.9849    70.8672   115.4746   216.7275     0.0155   -17.1791     0.1311     0.0000  3666.0000
  10407.5000   199.1531     0.9975    72.7817   118.8661   216.7346     0.0155   -20.7521     0.1441     0.0000  3657.0000
  10408.0000   199.1531     1.0159    72.6763   120.7928   216.7418     0.0154   -20.5517     0.1434     0.0000  3608.0000
  10408.5000   199.1531     1.7664    74.6031   133.7740   216.7489     0.0154   -24.2711     0.1559     0.0000  3606.0000
  10409.0000   199.1531     1.6320    74.7937   140.0016   216.7560     0.0153   -24.6450     0.1570     0.0000  3559.0000
  10409.5000   199.1531     1.4155    72.0135   145.2006   216.7632     0.0153   -19.3009     0.1390     0.0000  3583.0000
  10410.0000   199.1531     0.9884    73.6213   141.5186   216.7703     0.0153   -22.3615     0.1496     0.0000  3614.0000
  10410.5000   199.1531     0.9608    73.6129   142.8037   216.7775     0.0152   -22.3454     0.1495     0.0000  3611.0000
  10411.0000   199.1531     1.6255    76.1645   130.3401   216.7846     0.0152   -27.3592     0.1655     0.0000  3641.0000
  10411.5000   199.1531     2.5009    78.4580   128.2501   216.7918     0.0152   -31.9817     0.1789     0.0000  3639.0000
  10412.0000   199.1531     1.9559    79.6366   131.5192   216.7989     0.0151   -34.3857     0.1855     0.0000  3648.0000
  10412.5000   199.1531     1.7796    78.0288   136.6556   216.8061     0.0151   -31.1104     0.1764     0.0000  3630.0000
  10413.0000   199.1531     1.2564    76.6647   128.5035   216.8132     0.0150   -28.3596     0.1685     0.0000  3599.0000
  10413.5000   199.1531     1.6556    75.3613   131.4653   216.8203     0.0150   -25.7636     0.1606     0.0000  3629.0000
  10414.0000   199.1531     2.0779    76.4203   136.1386   216.8275     0.0150   -27.8702     0.1670     0.0000  3663.0000
  10414.5000   199.1531     2.1821    76.7400   138.3199   216.8346     0.0149   -28.5108     0.1689     0.0000  3644.0000
  10415.0000   199.1531     1.5715    75.8209   129.4927   216.8418     0.0149   -26.6749     0.1634     0.0000  3651.0000
  10415.5000   199.1531     1.2479    73.7172   123.7270   216.8489     0.0148   -22.5468     0.1502     0.0000  3627.0000
  10416.0000   199.1531     1.0824    72.2690   115.2191   216.8561     0.0148   -19.7811     0.1407     0.0000  3606.0000
  10416.5000   199.1531     1.0777    70.1526   108.0785   216.8632     0.0148   -15.8862     0.1261     0.0000  3668.0000
  10417.0000   199.1531     1.0349    69.2357   108.1324   216.8704     0.0147   -14.2648     0.1195     0.0000  3660.0000
  10417.5000   199.1531     1.0683    69.6054   114.0137   216.8775     0.0147   -14.9132     0.1222     0.0000  3656.0000
