~VERSION INFORMATION
VERS.           2.0   :CWLS Log ASCII Standard - VERSION 2.0
WRAP.           NO    :One Line per depth step
PROD.  Schlumberger   :LAS Producer
PROG.  DLIS to ASCII 10C0-306                          :LAS Program name and version
CREA.        2009/06/06 22:47                          :LAS Creation date {YYYY/MM/DD hh:mm}
SOURCE.     69098cc6-8793-4dd0-b26c-6d8e6a63e169       :DLIS File Name
#--------------------------------------------------
~WELL INFORMATION
#MNEM.UNIT      DATA             DESCRIPTION
#---- ------ --------------   -----------------------------
STRT .F      10286.0000      :START DEPTH     
STOP .F      10607.0000      :STOP DEPTH     
STEP .F       0.5000         :STEP       
NULL .          -999.25      :NULL VALUE
COMP .        DENBURY ONSHORE, LLC                     :COMPANY
WELL .        CFU 31F #1                               :WELL
FLD  .        CRANFIELD FIELD UNIT                     :FIELD
LOC  .        X: 248,375.1'                            :LOCATION
CNTY .        FRANKLIN                                 :COUNTY
STAT .        MISSISSIPPI                              :STATE
CTRY .                                                 :COUNTRY
API  .        23-037-21488-0000                        :API NUMBER
UWI  .                                                 :UNIQUE WELL ID
DATE .        06-Jun-2009                              :LOG DATE {DD-MMM-YYYY}
SRVC .        Schlumberger                             :SERVICE COMPANY
LATI .DEG                                              :LATITUDE
LONG .DEG                                              :LONGITUDE
GDAT .                                                 :GeoDetic Datum
#-----------------------------------------------------------------------------
~PARAMETER INFORMATION
#MNEM.UNIT    VALUE                      DESCRIPTION
#---- -----   --------------------       ------------------------
CN   .        DENBURY ONSHORE  LLC       :Company Name
WN   .        CFU 31F #1                 :Well Name
FN   .        CRANFIELD FIELD UNIT       :Field Name
FL   .        X  248 375.1'              :Field Location
FL1  .        Y  387 674.2'              :Field Location Line 1
COUN .        FRANKLIN                   :County or Rig Name
STAT .        MISSISSIPPI                :State or Province
NATI .                                   :Nation
DATE .        6-Jun-2009                 :Date as Month-Day-Year
APIN .        23-037-21488-0000          :API Serial Number
SECT .        31                         :Section
TOWN .        7N                         :Township
RANG .        1E                         :Range
DMF  .        KELLY BUSHING              :Drilling Measured From
LMF  .        KELLY BUSHING              :Log Measured From
PDAT .        GROUND LEVEL               :Permanent Datum
ENGI .        CHRISTIAN ZACCARO          :Engineer's Name
WITN .        FRED WALSH                 :Witness's Name
LATI .                                   :Latitude
LONG .                                   :Longitude
LUL  .        NATCHEZ  MS                :Logging Unit Location
LUN  .              2157                 :Logging Unit Number
RUN  .        ONE                        :Run Number
SON  .        APWH-00103                 :Service Order Number
BHT  .DEGF     220.00000                 :Bottom Hole Temperature (used in calculations)
BS   .IN         8.75000                 :Bit Size
DFD  .LB/G       9.90000                 :Drilling Fluid Density
DFV  .S         42.00000                 :Drilling Fluid Viscosity
DFL  .C3         8.30000                 :Drilling Fluid Loss
RMFS .OHMM       1.21700                 :Resistivity of Mud Filtrate Sample
EKB  .F        333.70001                 :Elevation of Kelly Bushing
EGL  .F        315.70001                 :Elevation of Ground Level
BLI  .F       10628.00000                :Bottom Log Interval
BSAL .PPM     2600.00000                 :Borehole Salinity
FLEV .F          0.00000                 :Fluid Level
MCST .DEGF      74.90000                 :Mud Cake Sample Temperature
MFST .DEGF      74.80000                 :Mud Filtrate Sample Temperature
MRT  .DEGF     221.00000                 :Maximum Recorded Temperature
MST  .DEGF      76.20000                 :Mud Sample Temperature
RMCS .OHMM       1.89800                 :Resistivity of Mud Cake Sample
RMS  .OHMM       1.45600                 :Resistivity of Mud Sample
RW   .OHMM       1.00000                 :Resistivity of Connate Water
TDD  .F       10700.00000                :Total Depth - Driller
TDL  .F       10636.00000                :Total Depth - Logger
TLI  .F       2028.00000                 :Top Log Interval
HIDE .        CALIPER LOG                :Header Identifier
MATR .        LIME                       :Rock Matrix for Neutron Porosity Corrections
FNUM .           1.00000                 :Form Factor Numerator
FEXP .           2.00000                 :Form Factor Exponent
DFT  .        FRESH WATER-BASED MUD      :Drilling Fluid Type
DFPH .           9.60000                 :Drilling Fluid PH
MCSS .        MUDPRESS                   :Mud Cake Sample Source
MFSS .        MUDPRESS                   :Mud Filtrate Sample Source
MSS  .        MUDPIT                     :Mud Sample Source
OS1  .        BHC SONIC                  :Other Services Line 1
OS2  .        CST                        :Other Services Line 2
OS3  .                                   :Other Services Line 3
OS4  .                                   :Other Services Line 4
OS5  .                                   :Other Services Line 5
R1   .        FIRST RUN IN WELL          :Remark Line 1
R2   .        ALL SCHLUMBERGER DEPTH PROCEDURES FOLLOWED :Remark Line 2
R3   .        TWO 1.5  STANDOFFS RAN ON INDUCTION TOOL :Remark Line 3
R4   .        BOWSPRING RAN ON NEUTRON TOOL FOR ECCENTRALIZATION :Remark Line 4
R5   .        MATRIX  LIMESTONE  2.71 G/CC :Remark Line 5
R6   .        CHLORIDES  2600PPM         :Remark Line 6
R7   .                                   :Remark Line 7
R8   .        BOREHOLE ENVIRONMENT MAY AFFECT LOG QUALITY :Remark Line 8
TCS  .        18 00                      :Time Circulation Stopped
TLAB .        1 30                       :Time Logger At Bottom
EPD  .F         315.700012               :Elevation of Permanent Datum above Mean Sea Level
APD  .F          18.000000               :Elevation of Depth Reference (LMF) above Permanent Datum
#-----------------------------------------------------------------------------
~CURVE INFORMATION
#MNEM.UNIT   API CODE                                  DESCRIPTION
#---- -----  --------                                  -----------------------
DEPT .F                                                :DEPTH (BOREHOLE) {F12.4}
CTEM .DEGF                                             :Cartridge Temperature {F11.4}
DCAL .IN                                               :Differential Caliper {F11.4}
DT   .US/F                                             :Delta-T {F11.4}
GR_EDTC.GAPI                                           :Gamma Ray {F11.4}
GTEM .DEGF                                             :Generalized Borehole Temperature {F11.4}
ITT  .S                                                :Integrated Transit Time {F11.4}
RWA  .OHMM                                             :Apparent Water Resistivity {F11.4}
SPHI .CFCF                                             :Sonic Porosity {F11.4}
STIT .F                                                :Stuck Tool Indicator, Total {F11.4}
TENS .LBF                                              :Cable Tension {F11.4}
#-----------------------------------------------------------------------------
# 
#      DEPT        CTEM       DCAL        DT      GR_EDTC      GTEM       ITT        RWA        SPHI       STIT       TENS
#
~A  
# ...
  10484.0000   195.2002     0.4231    75.5346    68.1105   217.8279     0.0093   -26.1066     0.1616     0.0000  3607.0000
  10484.5000   195.2002     0.4961    77.1826    74.8607   217.8350     0.0093   -29.4004     0.1715     0.0000  3618.0000
  10485.0000   195.2002     0.2133    82.9859    63.1926   217.8422     0.0092   -41.2761     0.2032     0.0000  3598.0000
  10485.5000   195.2002     0.1524    88.0391    44.4328   217.8493     0.0092   -51.6944     0.2274     0.0000  3624.0000
  10486.0000   195.2002     0.1524    92.8227    34.1900   217.8565     0.0091   -61.4268     0.2479     0.0000  3621.0000
  10486.5000   195.2002     0.1516    96.1346    29.2422   217.8636     0.0091   -68.0320     0.2609     0.0000  3611.0000
  10487.0000   195.2002     0.1514    97.1778    27.0725   217.8707     0.0090   -70.0852     0.2648     0.0000  3634.0000
  10487.5000   195.2002     0.1705    98.2280    23.2956   217.8779     0.0090   -72.1381     0.2687     0.0000  3603.0000
  10488.0000   195.2002     0.1992    98.1874    21.5933   217.8850     0.0089   -72.0590     0.2685     0.0000  3642.0000
  10488.5000   195.2002     0.1843    98.1340    20.6254   217.8922     0.0089   -71.9550     0.2683     0.0000  3639.0000
  10489.0000   195.2002     0.1793    98.0639    20.3907   217.8993     0.0088   -71.8182     0.2681     0.0000  3597.0000
  10489.5000   195.2002     0.1881    97.7860    22.1041   217.9065     0.0088   -71.2759     0.2671     0.0000  3630.0000
  10490.0000   195.2002     0.1953    97.6729    21.0656   217.9136     0.0087   -71.0549     0.2667     0.0000  3593.0000
  10490.5000   195.2002     0.1893    97.6515    20.6288   217.9208     0.0087   -71.0129     0.2666     0.0000  3591.0000
  10491.0000   195.2002     0.1584    97.7604    18.5492   217.9279     0.0086   -71.2259     0.2670     0.0000  3616.0000
  10491.5000   195.2002     0.1465    98.3250    20.9933   217.9351     0.0086   -72.3270     0.2690     0.0000  3588.0000
  10492.0000   195.2002     0.1743    98.2800    25.8336   217.9422     0.0085   -72.2394     0.2689     0.0000  3608.0000
  10492.5000   195.2002     0.2142    98.5752    27.9716   217.9493     0.0085   -72.8135     0.2699     0.0000  3610.0000
  10493.0000   195.2002     0.1993    98.6561    28.1147   217.9565     0.0084   -72.9707     0.2702     0.0000  3592.0000
  10493.5000   195.2002     0.2162    99.0801    22.8438   217.9636     0.0084   -73.7929     0.2718     0.0000  3616.0000
  10494.0000   195.2002     0.2161    99.2013    23.8129   217.9708     0.0083   -74.0276     0.2722     0.0000  3621.0000
  10494.5000   195.2002     0.2789    98.0323    24.9953   217.9779     0.0083   -71.7566     0.2680     0.0000  3604.0000
  10495.0000   195.2002     0.2970    96.7846    23.5075   217.9851     0.0082   -69.3128     0.2634     0.0000  3611.0000
  10495.5000   195.2002     0.3792    95.4281    21.6573   217.9922     0.0082   -66.6335     0.2582     0.0000  3590.0000
  10496.0000   195.2002     0.5264    93.8926    23.0803   217.9994     0.0082   -63.5742     0.2522     0.0000  3604.0000
  10496.5000   195.2002     0.5694    94.6921    27.2327   218.0065     0.0081   -65.1704     0.2554     0.0000  3594.0000
  10497.0000   195.2002     0.6669    95.0736    28.0444   218.0137     0.0081   -65.9298     0.2569     0.0000  3547.0000
  10497.5000   195.2002     0.6113    95.1011    23.3712   218.0208     0.0080   -65.9844     0.2570     0.0000  3593.0000
  10498.0000   195.2002     0.6114    95.3128    22.9164   218.0280     0.0080   -66.4048     0.2578     0.0000  3597.0000
  10498.5000   195.2002     0.6492    94.9290    24.4612   218.0351     0.0079   -65.6422     0.2563     0.0000  3609.0000
  10499.0000   195.2002     1.0507    94.3981    27.7386   218.0422     0.0079   -64.5844     0.2542     0.0000  3642.0000
  10499.5000   195.2002     0.3851    93.4753    22.4767   218.0494     0.0078   -62.7380     0.2506     0.0000  3589.0000
  10500.0000   195.2002     0.2294    92.2835    19.6668   218.0565     0.0078   -60.3398     0.2457     0.0000  3579.0000
  10500.5000   195.2002     0.3017    91.5625    20.0352   218.0637     0.0077   -58.8822     0.2427     0.0000  3590.0000
  10501.0000   195.2002     0.2930    91.9474    24.4074   218.0708     0.0077   -59.6610     0.2443     0.0000  3580.0000
  10501.5000   195.2002     0.2760    95.1832    28.2687   218.0780     0.0076   -66.1475     0.2573     0.0000  3611.0000
  10502.0000   195.2002     0.3041    97.4259    26.5554   218.0851     0.0076   -70.5715     0.2658     0.0000  3603.0000
  10502.5000   195.2002     0.3328    99.1484    28.4018   218.0923     0.0075   -73.9252     0.2720     0.0000  3583.0000
  10503.0000   195.2002     0.3553    99.0422    23.2127   218.0994     0.0075   -73.7196     0.2716     0.0000  3587.0000
  10503.5000   195.2002     0.3669    97.3500    28.0454   218.1065     0.0074   -70.4228     0.2655     0.0000  3583.0000
  10504.0000   195.2002     0.3062    99.2576    27.5152   218.1137     0.0074   -74.1364     0.2724     0.0000  3603.0000
  10504.5000   195.2002     0.3342    92.6312    32.4255   218.1208     0.0073   -61.0410     0.2472     0.0000  3618.0000
  10505.0000   195.2002     0.4691    89.1047    31.3720   218.1280     0.0073   -53.8782     0.2322     0.0000  3562.0000
  10505.5000   195.2002     0.4891    87.0624    44.3143   218.1351     0.0073   -49.6870     0.2230     0.0000  3611.0000
  10506.0000   194.9178     0.8167    83.7493    60.6898   218.1423     0.0072   -42.8525     0.2071     0.0000  3588.0000
  10506.5000   193.2237     0.7748    76.0373    72.4477   218.1494     0.0072   -27.1057     0.1647     0.0000  3607.0000
  10507.0000   193.2237     0.7919    72.3596    76.1772   218.1566     0.0071   -19.9521     0.1413     0.0000  3635.0000
  10507.5000   193.2237     0.7848    72.1083    80.2739   218.1637     0.0071   -19.4789     0.1396     0.0000  3609.0000
  10508.0000   193.2237     0.7617    73.9714    87.1351   218.1709     0.0071   -23.0394     0.1518     0.0000  3615.0000
  10508.5000   193.2237     0.7278    75.3451    95.0200   218.1780     0.0070   -25.7315     0.1605     0.0000  3687.0000
  10509.0000   193.2237     0.7471    74.8174   101.3556   218.1852     0.0070   -24.6915     0.1572     0.0000  3612.0000
  10509.5000   193.2237     0.8193    74.7775   104.7497   218.1923     0.0069   -24.6133     0.1569     0.0000  3704.0000
  10510.0000   193.2237     1.0363    75.7540   113.4484   218.1994     0.0069   -26.5421     0.1630     0.0000  3657.0000
  10510.5000   193.2237     1.3553    78.6947   122.5977   218.2066     0.0069   -32.4633     0.1802     0.0000  3642.0000
  10511.0000   193.2237     1.6750    80.1614   137.0499   218.2137     0.0068   -35.4608     0.1884     0.0000  3677.0000
  10511.5000   193.2237     2.3389    80.0275   128.7236   218.2209     0.0068   -35.1862     0.1877     0.0000  3636.0000
  10512.0000   193.2237     1.4463    76.3290   117.9692   218.2280     0.0067   -27.6876     0.1665     0.0000  3660.0000
  10512.5000   193.2237     1.0031    76.6319   109.5430   218.2352     0.0067   -28.2939     0.1683     0.0000  3671.0000
  10513.0000   193.2237     1.4520    80.2573   110.4703   218.2423     0.0067   -35.6575     0.1889     0.0000  3673.0000
  10513.5000   193.2237     2.9033    83.5238   110.9895   218.2495     0.0066   -42.3868     0.2060     0.0000  3719.0000
  10514.0000   193.2237     1.0535    83.5190   108.1159   218.2566     0.0066   -42.3768     0.2059     0.0000  3705.0000
  10514.5000   193.2237     1.0123    82.4613   104.5318   218.2637     0.0065   -40.1935     0.2006     0.0000  3705.0000
  10515.0000   193.2237     1.7995    77.4546    90.4002   218.2709     0.0065   -29.9488     0.1731     0.0000  3789.0000
  10515.5000   193.2237     0.6377    68.1636    79.7734   218.2780     0.0065   -12.4295     0.1115     0.0000  3726.0000
  10516.0000   193.2237     0.5646    64.4718    61.5374   218.2852     0.0064    -6.7398     0.0821     0.0000  3776.0000
  10516.5000   193.2237     0.4914    59.4986    53.8606   218.2923     0.0064    -1.3496     0.0368     0.0000  3862.0000
