~VERSION INFORMATION
VERS.           2.0   :CWLS Log ASCII Standard - VERSION 2.0
WRAP.           NO    :One Line per depth step
PROD.  Schlumberger   :LAS Producer
PROG.  DLIS to ASCII 10C0-306                          :LAS Program name and version
CREA.        2009/06/06 22:47                          :LAS Creation date {YYYY/MM/DD hh:mm}
SOURCE.     69098cc6-8793-4dd0-b26c-6d8e6a63e169       :DLIS File Name
#--------------------------------------------------
~WELL INFORMATION
#MNEM.UNIT      DATA             DESCRIPTION
#---- ------ --------------   -----------------------------
STRT .F      10286.0000      :START DEPTH     
STOP .F      10607.0000      :STOP DEPTH     
STEP .F       0.5000         :STEP       
NULL .          -999.25      :NULL VALUE
COMP .        DENBURY ONSHORE, LLC                     :COMPANY
WELL .        CFU 31F #1                               :WELL
FLD  .        CRANFIELD FIELD UNIT                     :FIELD
LOC  .        X: 248,375.1'                            :LOCATION
CNTY .        FRANKLIN                                 :COUNTY
STAT .        MISSISSIPPI                              :STATE
CTRY .                                                 :COUNTRY
API  .        23-037-21488-0000                        :API NUMBER
UWI  .                                                 :UNIQUE WELL ID
DATE .        06-Jun-2009                              :LOG DATE {DD-MMM-YYYY}
SRVC .        Schlumberger                             :SERVICE COMPANY
LATI .DEG                                              :LATITUDE
LONG .DEG                                              :LONGITUDE
GDAT .                                                 :GeoDetic Datum
#-----------------------------------------------------------------------------
~PARAMETER INFORMATION
#MNEM.UNIT    VALUE                      DESCRIPTION
#---- -----   --------------------       ------------------------
CN   .        DENBURY ONSHORE  LLC       :Company Name
WN   .        CFU 31F #1                 :Well Name
FN   .        CRANFIELD FIELD UNIT       :Field Name
FL   .        X  248 375.1'              :Field Location
FL1  .        Y  387 674.2'              :Field Location Line 1
COUN .        FRANKLIN                   :County or Rig Name
STAT .        MISSISSIPPI                :State or Province
NATI .                                   :Nation
DATE .        6-Jun-2009                 :Date as Month-Day-Year
APIN .        23-037-21488-0000          :API Serial Number
SECT .        31                         :Section
TOWN .        7N                         :Township
RANG .        1E                         :Range
DMF  .        KELLY BUSHING              :Drilling Measured From
LMF  .        KELLY BUSHING              :Log Measured From
PDAT .        GROUND LEVEL               :Permanent Datum
ENGI .        CHRISTIAN ZACCARO          :Engineer's Name
WITN .        FRED WALSH                 :Witness's Name
LATI .                                   :Latitude
LONG .                                   :Longitude
LUL  .        NATCHEZ  MS                :Logging Unit Location
LUN  .              2157                 :Logging Unit Number
RUN  .        ONE                        :Run Number
SON  .        APWH-00103                 :Service Order Number
BHT  .DEGF     220.00000                 :Bottom Hole Temperature (used in calculations)
BS   .IN         8.75000                 :Bit Size
DFD  .LB/G       9.90000                 :Drilling Fluid Density
DFV  .S         42.00000                 :Drilling Fluid Viscosity
DFL  .C3         8.30000                 :Drilling Fluid Loss
RMFS .OHMM       1.21700                 :Resistivity of Mud Filtrate Sample
EKB  .F        333.70001                 :Elevation of Kelly Bushing
EGL  .F        315.70001                 :Elevation of Ground Level
BLI  .F       10628.00000                :Bottom Log Interval
BSAL .PPM     2600.00000                 :Borehole Salinity
FLEV .F          0.00000                 :Fluid Level
MCST .DEGF      74.90000                 :Mud Cake Sample Temperature
MFST .DEGF      74.80000                 :Mud Filtrate Sample Temperature
MRT  .DEGF     221.00000                 :Maximum Recorded Temperature
MST  .DEGF      76.20000                 :Mud Sample Temperature
RMCS .OHMM       1.89800                 :Resistivity of Mud Cake Sample
RMS  .OHMM       1.45600                 :Resistivity of Mud Sample
RW   .OHMM       1.00000                 :Resistivity of Connate Water
TDD  .F       10700.00000                :Total Depth - Driller
TDL  .F       10636.00000                :Total Depth - Logger
TLI  .F       2028.00000                 :Top Log Interval
HIDE .        CALIPER LOG                :Header Identifier
MATR .        LIME                       :Rock Matrix for Neutron Porosity Corrections
FNUM .           1.00000                 :Form Factor Numerator
FEXP .           2.00000                 :Form Factor Exponent
DFT  .        FRESH WATER-BASED MUD      :Drilling Fluid Type
DFPH .           9.60000                 :Drilling Fluid PH
MCSS .        MUDPRESS                   :Mud Cake Sample Source
MFSS .        MUDPRESS                   :Mud Filtrate Sample Source
MSS  .        MUDPIT                     :Mud Sample Source
OS1  .        BHC SONIC                  :Other Services Line 1
OS2  .        CST                        :Other Services Line 2
OS3  .                                   :Other Services Line 3
OS4  .                                   :Other Services Line 4
OS5  .                                   :Other Services Line 5
R1   .        FIRST RUN IN WELL          :Remark Line 1
R2   .        ALL SCHLUMBERGER DEPTH PROCEDURES FOLLOWED :Remark Line 2
R3   .        TWO 1.5  STANDOFFS RAN ON INDUCTION TOOL :Remark Line 3
R4   .        BOWSPRING RAN ON NEUTRON TOOL FOR ECCENTRALIZATION :Remark Line 4
R5   .        MATRIX  LIMESTONE  2.71 G/CC :Remark Line 5
R6   .        CHLORIDES  2600PPM         :Remark Line 6
R7   .                                   :Remark Line 7
R8   .        BOREHOLE ENVIRONMENT MAY AFFECT LOG QUALITY :Remark Line 8
TCS  .        18 00                      :Time Circulation Stopped
TLAB .        1 30                       :Time Logger At Bottom
EPD  .F         315.700012               :Elevation of Permanent Datum above Mean Sea Level
APD  .F          18.000000               :Elevation of Depth Reference (LMF) above Permanent Datum
#-----------------------------------------------------------------------------
~CURVE INFORMATION
#MNEM.UNIT   API CODE                                  DESCRIPTION
#---- -----  --------                                  -----------------------
DEPT .F                                                :DEPTH (BOREHOLE) {F12.4}
CTEM .DEGF                                             :Cartridge Temperature {F11.4}
DCAL .IN                                               :Differential Caliper {F11.4}
DT   .US/F                                             :Delta-T {F11.4}
GR_EDTC.GAPI                                           :Gamma Ray {F11.4}
GTEM .DEGF                                             :Generalized Borehole Temperature {F11.4}
ITT  .S                                                :Integrated Transit Time {F11.4}
RWA  .OHMM                                             :Apparent Water Resistivity {F11.4}
SPHI .CFCF                                             :Sonic Porosity {F11.4}
STIT .F                                                :Stuck Tool Indicator, Total {F11.4}
TENS .LBF                                              :Cable Tension {F11.4}
#-----------------------------------------------------------------------------
# 
#      DEPT        CTEM       DCAL        DT      GR_EDTC      GTEM       ITT        RWA        SPHI       STIT       TENS
#
~A  
# ...
  10583.0000   191.2472     0.1457    77.8104   102.4275   219.2427     0.0016   -30.6681     0.1752     0.0000  3648.0000
  10583.5000   191.2472     0.7964    73.6109   102.4275   219.2498     0.0016   -22.3415     0.1495     0.0000  3633.0000
  10584.0000   191.2472     0.2976    72.5130   102.4275   219.2570     0.0015   -20.2420     0.1423     0.0000  3634.0000
  10584.5000   191.2472     0.1402    69.0375   102.4275   219.2641     0.0015   -13.9204     0.1180     0.0000  3650.0000
  10585.0000   191.2472     0.1891    67.1058   102.4275   219.2713     0.0015   -10.6909     0.1034     0.0000  3590.0000
  10585.5000   191.2472     0.2196    67.3342   102.4275   219.2784     0.0014   -11.0598     0.1052     0.0000  3620.0000
  10586.0000   191.2472     0.1861    70.5033   102.4275   219.2856     0.0014   -16.5177     0.1286     0.0000  3595.0000
  10586.5000   191.2472     0.2061    74.4812   102.4275   219.2927     0.0014   -24.0327     0.1551     0.0000  3668.0000
  10587.0000   191.2472     0.2141    73.3878   102.4275   219.2999     0.0013   -21.9116     0.1481     0.0000  3649.0000
  10587.5000   191.2472     0.3063    76.8684   102.4275   219.3070     0.0013   -28.7685     0.1697     0.0000  3591.0000
  10588.0000   191.2472     0.2255    73.1676   102.4275   219.3141     0.0013   -21.4890     0.1466     0.0000  3628.0000
  10588.5000   191.2472     0.3038    69.7867   102.4275   219.3213     0.0012   -15.2338     0.1235     0.0000  3630.0000
  10589.0000   191.2472     0.0844    67.0118   102.4275   219.3284     0.0012   -10.5402     0.1027     0.0000  3588.0000
  10589.5000   191.2472     0.3426    65.1143   102.4275   219.3356     0.0011    -7.6476     0.0875     0.0000  3636.0000
  10590.0000   191.2472     0.0295    63.7457   102.4275   219.3427     0.0011    -5.7631     0.0759     0.0000  3599.0000
  10590.5000   191.2472     0.0349    63.3471   102.4275   219.3499     0.0011    -5.2507     0.0725     0.0000  3621.0000
  10591.0000   191.2472     0.1541    64.8954   102.4275   219.3570     0.0011    -7.3339     0.0857     0.0000  3592.0000
  10591.5000   191.2472     0.0140    65.5687   102.4275   219.3642     0.0010    -8.3128     0.0912     0.0000  3562.0000
  10592.0000   191.2472     0.1731    65.6858   102.4275   219.3713     0.0010    -8.4871     0.0922     0.0000  3618.0000
  10592.5000   191.2472     0.1528    65.6859   102.4275   219.3785     0.0010    -8.4873     0.0922     0.0000  3571.0000
  10593.0000   191.2472     0.2888    65.6694   102.4275   219.3856     0.0009    -8.4627     0.0920     0.0000  3589.0000
  10593.5000   191.2472     0.1959    65.6272   102.4275   219.3928     0.0009    -8.3997     0.0917     0.0000  3619.0000
  10594.0000   191.2472     0.0681    65.4261   102.4275   219.3999     0.0009    -8.1020     0.0900     0.0000  3584.0000
  10594.5000   191.2472     0.1565    63.4399   102.4275   219.4070     0.0008    -5.3684     0.0733     0.0000  3642.0000
  10595.0000   191.2472     0.0712    63.4399   102.4275   219.4142     0.0008    -5.3684     0.0733     0.0000  3648.0000
  10595.5000   191.2472    -0.0767    63.4399   102.4275   219.4213     0.0008    -5.3684     0.0733     0.0000  3636.0000
  10596.0000   191.2472     0.1514    63.4399   102.4275   219.4285     0.0007    -5.3684     0.0733     0.0000  3665.0000
  10596.5000   191.2472    -0.1192    63.4399   102.4275   219.4356     0.0007    -5.3684     0.0733     0.0000  3651.0000
  10597.0000   191.2472    -0.3651    63.4399   102.4275   219.4428     0.0007    -5.3684     0.0733     0.0000  3624.0000
  10597.5000   191.2472    -1.4326    63.4399   102.4275   219.4499     0.0006    -5.3684     0.0733     0.0000  3666.0000
  10598.0000   191.2472    -2.4690    63.4399   102.4275   219.4570     0.0006    -5.3684     0.0733     0.0000  3619.0000
  10598.5000   191.2472    -3.2529    63.4399   102.4275   219.4642     0.0006    -5.3684     0.0733     0.0000  3645.0000
  10599.0000   191.2472    -4.4521    63.4399   102.4275   219.4713     0.0005    -5.3684     0.0733     0.0000  3635.0000
  10599.5000   191.2472    -5.8081    63.4399   102.4275   219.4785     0.0005    -5.3684     0.0733     0.0000  3614.0000
  10600.0000   191.2472    -5.7985    63.4399   102.4275   219.4856     0.0005    -5.3684     0.0733     0.0000  3647.0000
  10600.5000   191.2472    -5.7998    63.4399   102.4275   219.4928     0.0004    -5.3684     0.0733     0.0000  3609.0000
  10601.0000   191.2472    -5.7983    63.4399   102.4275   219.4999     0.0004    -5.3684     0.0733     0.0000  3611.0000
  10601.5000   191.2472    -5.7999    63.4399   102.4275   219.5071     0.0004    -5.3684     0.0733     0.0000  3633.0000
  10602.0000   191.2472    -5.8207    63.4399   102.4275   219.5142     0.0003    -5.3684     0.0733     0.0000  3621.0000
  10602.5000   191.2472    -5.7937    63.4399   102.4275   219.5214     0.0003    -5.3684     0.0733     0.0000  3633.0000
  10603.0000   191.2472    -5.7937    63.4399   102.4275   219.5285     0.0003    -5.3684     0.0733     0.0000  3619.0000
  10603.5000   191.2472    -5.7937    63.4399   102.4275   219.5357     0.0003    -5.3684     0.0733     0.0000  3571.0000
  10604.0000   191.2472    -5.7937    63.4399   102.4275   219.5428     0.0002    -5.3684     0.0733     0.0000  3537.0000
  10604.5000   191.2472    -5.7937    63.3595   102.4275   219.5500     0.0002    -5.2663     0.0726     0.0000  3443.0000
  10605.0000   191.2472    -5.7937    63.3595   102.4275   219.5571     0.0002    -5.2663     0.0726     0.0000  3417.0000
  10605.5000   191.2472    -5.7937    63.3595   102.4275   219.5642     0.0001    -5.2663     0.0726     0.0000  3368.0000
  10606.0000   191.2472    -5.7937    63.3595   102.4275   219.5714     0.0001    -5.2663     0.0726     0.0000  3262.0000
  10606.5000   191.2472    -5.7937    63.3595   102.4275   219.5785     0.0001    -5.2663     0.0726     0.0000  3189.0000
  10607.0000   191.2472    -5.7937    63.3595   102.4275   219.5857     0.0000    -5.2663     0.0726     0.0000  2968.0000
