~VERSION INFORMATION
VERS.           1.2   :CWLS Log ASCII Standard - VERSION 1.2
WRAP.           NO    :One Line per depth step
PROD.  Schlumberger   :LAS Producer
PROG.  DLIS to ASCII 10C0-306                          :LAS Program name and version
CREA.        2009/06/06 23:09                          :LAS Creation date {YYYY/MM/DD hh:mm}
SOURCE.     d986ea9e-f59c-4559-942d-7b7265e62d76       :DLIS File Name
#--------------------------------------------------
~WELL INFORMATION
#MNEM.UNIT      DATA             DESCRIPTION
#---- ------ --------------   -----------------------------
STRT .F      1945.5000       :START DEPTH     
STOP .F      10600.5000      :STOP DEPTH     
STEP .F       0.5000         :STEP       
NULL .          -999.25      :NULL VALUE
COMP .                 COMPANY:  DENBURY ONSHORE, LLC               
WELL .                    WELL:  CFU 31F #1                         
FLD  .                   FIELD:  CRANFIELD FIELD UNIT               
LOC  .                LOCATION:  X: 248,375.1'                      
CNTY .                  COUNTY:  FRANKLIN                           
STAT .                   STATE:  MISSISSIPPI                        
CTRY .                 COUNTRY:                                     
SRVC .         SERVICE COMPANY:  Schlumberger                       
API  .              API NUMBER:  23-037-21488-0000                  
DATE .                LOG DATE:  6-Jun-2009
UWI  .          UNIQUE WELL ID:                                     
#-----------------------------------------------------------------------------
~PARAMETER INFORMATION
#MNEM.UNIT    VALUE                      DESCRIPTION
#---- -----   --------------------       ------------------------
CN   .        DENBURY ONSHORE  LLC       :Company Name
WN   .        CFU 31F #1                 :Well Name
FN   .        CRANFIELD FIELD UNIT       :Field Name
FL   .        X  248 375.1'              :Field Location
FL1  .        Y  387 674.2'              :Field Location Line 1
COUN .        FRANKLIN                   :County or Rig Name
STAT .        MISSISSIPPI                :State or Province
NATI .                                   :Nation
DATE .        6-Jun-2009                 :Date as Month-Day-Year
APIN .        23-037-21488-0000          :API Serial Number
SECT .        31                         :Section
TOWN .        7N                         :Township
RANG .        1E                         :Range
DMF  .        KELLY BUSHING              :Drilling Measured From
LMF  .        KELLY BUSHING              :Log Measured From
PDAT .        GROUND LEVEL               :Permanent Datum
ENGI .        CHRISTIAN ZACCARO          :Engineer's Name
WITN .        FRED WALSH                 :Witness's Name
LATI .                                   :Latitude
LONG .                                   :Longitude
LUL  .        NATCHEZ  MS                :Logging Unit Location
LUN  .              2157                 :Logging Unit Number
RUN  .        ONE                        :Run Number
SON  .        APWH-00103                 :Service Order Number
BHT  .DEGF     220.00000                 :Bottom Hole Temperature (used in calculations)
BS   .IN         8.75000                 :Bit Size
DFD  .LB/G       9.90000                 :Drilling Fluid Density
DFV  .S         42.00000                 :Drilling Fluid Viscosity
DFL  .C3         8.30000                 :Drilling Fluid Loss
RMFS .OHMM       1.21700                 :Resistivity of Mud Filtrate Sample
EKB  .F        333.70001                 :Elevation of Kelly Bushing
EGL  .F        315.70001                 :Elevation of Ground Level
BLI  .F       10628.00000                :Bottom Log Interval
BSAL .PPM     2600.00000                 :Borehole Salinity
FLEV .F          0.00000                 :Fluid Level
MCST .DEGF      74.90000                 :Mud Cake Sample Temperature
MFST .DEGF      74.80000                 :Mud Filtrate Sample Temperature
MRT  .DEGF     221.00000                 :Maximum Recorded Temperature
MST  .DEGF      76.20000                 :Mud Sample Temperature
RMCS .OHMM       1.89800                 :Resistivity of Mud Cake Sample
RMS  .OHMM       1.45600                 :Resistivity of Mud Sample
RW   .OHMM       1.00000                 :Resistivity of Connate Water
TDD  .F       10700.00000                :Total Depth - Driller
TDL  .F       10636.00000                :Total Depth - Logger
TLI  .F       2028.00000                 :Top Log Interval
HIDE .        CALIPER LOG                :Header Identifier
MATR .        LIME                       :Rock Matrix for Neutron Porosity Corrections
FNUM .           1.00000                 :Form Factor Numerator
FEXP .           2.00000                 :Form Factor Exponent
DFT  .        FRESH WATER-BASED MUD      :Drilling Fluid Type
DFPH .           9.60000                 :Drilling Fluid PH
MCSS .        MUDPRESS                   :Mud Cake Sample Source
MFSS .        MUDPRESS                   :Mud Filtrate Sample Source
MSS  .        MUDPIT                     :Mud Sample Source
OS1  .        BHC SONIC                  :Other Services Line 1
OS2  .        CST                        :Other Services Line 2
OS3  .                                   :Other Services Line 3
OS4  .                                   :Other Services Line 4
OS5  .                                   :Other Services Line 5
R1   .        FIRST RUN IN WELL          :Remark Line 1
R2   .        ALL SCHLUMBERGER DEPTH PROCEDURES FOLLOWED :Remark Line 2
R3   .        TWO 1.5  STANDOFFS RAN ON INDUCTION TOOL :Remark Line 3
R4   .        BOWSPRING RAN ON NEUTRON TOOL FOR ECCENTRALIZATION :Remark Line 4
R5   .        MATRIX  LIMESTONE  2.71 G/CC :Remark Line 5
R6   .        CHLORIDES  2600PPM         :Remark Line 6
R7   .                                   :Remark Line 7
R8   .        BOREHOLE ENVIRONMENT MAY AFFECT LOG QUALITY :Remark Line 8
TCS  .        18 00                      :Time Circulation Stopped
TLAB .        1 30                       :Time Logger At Bottom
EPD  .F         315.700012               :Elevation of Permanent Datum above Mean Sea Level
APD  .F          18.000000               :Elevation of Depth Reference (LMF) above Permanent Datum
#-----------------------------------------------------------------------------
~CURVE INFORMATION
#MNEM.UNIT   API CODE                                  DESCRIPTION
#---- -----  --------                                  -----------------------
DEPT .F                                                :DEPTH (BOREHOLE) {F12.4}
CTEM .DEGF                                             :Cartridge Temperature {F11.4}
DCAL .IN                                               :Differential Caliper {F11.4}
DT   .US/F                                             :Delta-T {F11.4}
GR_EDTC.GAPI                                           :Gamma Ray {F11.4}
GTEM .DEGF                                             :Generalized Borehole Temperature {F11.4}
ITT  .S                                                :Integrated Transit Time {F11.4}
RWA  .OHMM                                             :Apparent Water Resistivity {F11.4}
SPHI .CFCF                                             :Sonic Porosity {F11.4}
STIT .F                                                :Stuck Tool Indicator, Total {F11.4}
TENS .LBF                                              :Cable Tension {F11.4}
#-----------------------------------------------------------------------------
# 
#      DEPT        CTEM       DCAL        DT      GR_EDTC      GTEM       ITT        RWA        SPHI       STIT       TENS
#
~A  
# ...
   5971.5000   187.2943     0.2801    95.6447    64.9569   153.3393     0.3926   -67.0629     0.2591     0.0000  2380.0000
   5972.0000   187.2943     0.2610    93.1420    55.1035   153.3464     0.3926   -62.0689     0.2492     0.0000  2385.0000
   5972.5000   187.2943     0.2830    92.3919    52.8942   153.3536     0.3925   -60.5586     0.2462     0.0000  2364.0000
   5973.0000   187.2943     0.3198    92.1485    45.1054   153.3607     0.3925   -60.0673     0.2452     0.0000  2370.0000
   5973.5000   187.2943     0.2681    92.9923    47.2032   153.3679     0.3924   -61.7678     0.2486     0.0000  2381.0000
   5974.0000   187.2943     0.2751    95.4208    47.6313   153.3750     0.3924   -66.6191     0.2582     0.0000  2375.0000
   5974.5000   187.2943     0.2681    95.9159    51.2660   153.3822     0.3923   -67.5997     0.2601     0.0000  2386.0000
   5975.0000   187.2943     0.2862    95.8292    49.4767   153.3893     0.3923   -67.4281     0.2598     0.0000  2382.0000
   5975.5000   187.2943     0.2803    96.3793    48.0585   153.3965     0.3922   -68.5148     0.2619     0.0000  2376.0000
   5976.0000   187.2943     0.2902    96.8934    53.2244   153.4036     0.3922   -69.5269     0.2638     0.0000  2386.0000
   5976.5000   187.2943     0.2932    97.2393    55.0438   153.4108     0.3921   -70.2058     0.2651     0.0000  2367.0000
   5977.0000   187.2943     0.2801    97.2394    58.1593   153.4179     0.3921   -70.2060     0.2651     0.0000  2380.0000
   5977.5000   187.2943     0.2681    96.6764    51.9174   153.4250     0.3920   -69.1000     0.2630     0.0000  2386.0000
   5978.0000   187.2943     0.2681    96.2622    48.7969   153.4322     0.3920   -68.2838     0.2614     0.0000  2372.0000
   5978.5000   187.2943     0.2681    95.7209    38.9311   153.4393     0.3919   -67.2139     0.2594     0.0000  2381.0000
   5979.0000   187.2943     0.2751    95.8420    32.7377   153.4465     0.3919   -67.4536     0.2598     0.0000  2380.0000
   5979.5000   187.2943     0.2882    95.6880    32.7043   153.4536     0.3918   -67.1488     0.2592     0.0000  2375.0000
   5980.0000   187.2943     0.2943    95.4274    40.4930   153.4608     0.3918   -66.6323     0.2582     0.0000  2398.0000
   5980.5000   187.2943     0.2924    95.0832    43.6234   153.4679     0.3917   -65.9489     0.2569     0.0000  2389.0000
   5981.0000   187.2943     0.2943    93.7852    40.5096   153.4751     0.3917   -63.3591     0.2518     0.0000  2383.0000
   5981.5000   187.2943     0.2821    93.3044    37.8798   153.4822     0.3917   -62.3951     0.2499     0.0000  2395.0000
   5982.0000   187.2943     0.2821    93.1940    40.4975   153.4893     0.3916   -62.1733     0.2494     0.0000  2372.0000
   5982.5000   187.2943     0.2882    93.5906    41.8467   153.4965     0.3916   -62.9693     0.2510     0.0000  2383.0000
   5983.0000   187.2943     0.2943    94.0144    39.2841   153.5036     0.3915   -63.8177     0.2527     0.0000  2381.0000
   5983.5000   187.2943     0.2555    93.7020    37.6900   153.5108     0.3915   -63.1924     0.2515     0.0000  2380.0000
   5984.0000   187.2943     0.2478    93.6633    36.3407   153.5179     0.3914   -63.1150     0.2513     0.0000  2393.0000
   5984.5000   187.2943     0.2604    93.0827    38.4339   153.5251     0.3914   -61.9496     0.2490     0.0000  2367.0000
   5985.0000   187.2943     0.2913    92.7656    38.3528   153.5322     0.3913   -61.3118     0.2477     0.0000  2371.0000
   5985.5000   187.2943     0.2484    93.0289    37.3068   153.5394     0.3913   -61.8416     0.2488     0.0000  2381.0000
   5986.0000   187.2943     0.2692    93.1779    38.3466   153.5465     0.3912   -62.1410     0.2494     0.0000  2361.0000
   5986.5000   187.2943     0.2873    93.4258    35.8314   153.5536     0.3912   -62.6388     0.2504     0.0000  2383.0000
   5987.0000   187.2943     0.2943    93.2903    38.1972   153.5608     0.3911   -62.3668     0.2498     0.0000  2388.0000
   5987.5000   187.2943     0.2885    93.0549    30.3988   153.5679     0.3911   -61.8938     0.2489     0.0000  2370.0000
   5988.0000   187.2943     0.2724    92.4464    31.9565   153.5751     0.3910   -60.6686     0.2464     0.0000  2387.0000
   5988.5000   187.2943     0.2665    92.0850    28.4236   153.5822     0.3910   -59.9391     0.2449     0.0000  2377.0000
   5989.0000   187.2943     0.2665    91.3484    32.5698   153.5894     0.3910   -58.4483     0.2419     0.0000  2375.0000
   5989.5000   187.2943     0.2665    91.6404    29.9735   153.5965     0.3909   -59.0398     0.2431     0.0000  2396.0000
   5990.0000   187.2943     0.2906    92.0990    29.5282   153.6037     0.3909   -59.9672     0.2450     0.0000  2380.0000
   5990.5000   187.2943     0.3896    98.5591    32.1245   153.6108     0.3908   -72.7822     0.2699     0.0000  2380.0000
   5991.0000   187.2943     0.4180   106.9593    31.0756   153.6180     0.3908   -88.6021     0.2978     0.0000  2393.0000
   5991.5000   187.2943     0.4273   121.8402    41.3177   153.6251     0.3907  -113.9817     0.3377     0.0000  2378.0000
   5992.0000   187.2943     1.3062   125.6340    53.2604   153.6323     0.3907  -119.9119     0.3464     0.0000  2397.0000
   5992.5000   187.2943     0.4972   120.1368    84.1079   153.6394     0.3906  -111.2492     0.3337     0.0000  2397.0000
   5993.0000   187.2943     0.5041   107.7537    98.3823   153.6466     0.3905   -90.0435     0.3002     0.0000  2397.0000
   5993.5000   187.2943     0.5348    95.6159   108.2480   153.6537     0.3905   -67.0060     0.2590     0.0000  2386.0000
   5994.0000   187.2943     0.4223    91.0673   111.3618   153.6608     0.3904   -57.8782     0.2407     0.0000  2371.0000
   5994.5000   187.2943     0.4652    90.4325   109.7613   153.6680     0.3904   -56.5877     0.2380     0.0000  2369.0000
   5995.0000   187.2943     0.4455    92.3685   102.4918   153.6751     0.3903   -60.5115     0.2461     0.0000  2408.0000
   5995.5000   187.2943     0.4525   100.4145    84.2794   153.6823     0.3903   -76.3645     0.2764     0.0000  2404.0000
   5996.0000   187.2943     0.4285   111.6072    68.1827   153.6894     0.3902   -96.8973     0.3114     0.0000  2444.0000
   5996.5000   187.2943     0.5231   126.4211    52.5755   153.6966     0.3902  -121.1157     0.3481     0.0000  2419.0000
   5997.0000   187.2943     1.7829   137.0427    49.4808   153.7037     0.3901  -136.5055     0.3696     0.0000  2394.0000
   5997.5000   187.2943     2.0455   131.0764    62.4620   153.7109     0.3901  -128.0536     0.3580     0.0000  2400.0000
   5998.0000   187.2943     1.6378   124.7717    85.3387   153.7180     0.3900  -118.5828     0.3445     0.0000  2401.0000
   5998.5000   187.2943     0.5792   113.9111   101.3473   153.7251     0.3899  -100.8847     0.3177     0.0000  2402.0000
   5999.0000   187.2943     0.3020   100.1246    97.7126   153.7323     0.3899   -75.8078     0.2754     0.0000  2393.0000
   5999.5000   187.2943     0.2743    97.6162    88.8854   153.7394     0.3898   -70.9440     0.2665     0.0000  2373.0000
   6000.0000   187.2943     0.2913    93.9650    75.0808   153.7466     0.3898   -63.7191     0.2525     0.0000  2405.0000
   6000.5000   187.2943     0.2216    93.3019    66.2322   153.7537     0.3897   -62.3900     0.2499     0.0000  2418.0000
   6001.0000   187.2943     0.2425    93.4547    64.7618   153.7609     0.3897   -62.6967     0.2505     0.0000  2441.0000
   6001.5000   187.2943     0.2473    94.4442    64.4527   153.7680     0.3896   -64.6764     0.2544     0.0000  2440.0000
   6002.0000   187.2943     0.2395    94.8700    67.0211   153.7752     0.3896   -65.5248     0.2561     0.0000  2417.0000
   6002.5000   187.2943     0.2275    95.6078    63.8717   153.7823     0.3895   -66.9899     0.2589     0.0000  2399.0000
   6003.0000   187.2943     0.2344    96.2521    59.2824   153.7895     0.3895   -68.2639     0.2614     0.0000  2391.0000
   6003.5000   187.2943     0.2793    96.2051    55.1581   153.7966     0.3894   -68.1712     0.2612     0.0000  2381.0000
   6004.0000   187.2943     0.2403    96.3466    51.4701   153.8038     0.3894   -68.4502     0.2617     0.0000  2383.0000
