~VERSION INFORMATION
VERS.           1.2   :CWLS Log ASCII Standard - VERSION 1.2
WRAP.           NO    :One Line per depth step
PROD.  Schlumberger   :LAS Producer
PROG.  DLIS to ASCII 10C0-306                          :LAS Program name and version
CREA.        2009/06/06 23:09                          :LAS Creation date {YYYY/MM/DD hh:mm}
SOURCE.     d986ea9e-f59c-4559-942d-7b7265e62d76       :DLIS File Name
#--------------------------------------------------
~WELL INFORMATION
#MNEM.UNIT      DATA             DESCRIPTION
#---- ------ --------------   -----------------------------
STRT .F      1945.5000       :START DEPTH     
STOP .F      10600.5000      :STOP DEPTH     
STEP .F       0.5000         :STEP       
NULL .          -999.25      :NULL VALUE
COMP .                 COMPANY:  DENBURY ONSHORE, LLC               
WELL .                    WELL:  CFU 31F #1                         
FLD  .                   FIELD:  CRANFIELD FIELD UNIT               
LOC  .                LOCATION:  X: 248,375.1'                      
CNTY .                  COUNTY:  FRANKLIN                           
STAT .                   STATE:  MISSISSIPPI                        
CTRY .                 COUNTRY:                                     
SRVC .         SERVICE COMPANY:  Schlumberger                       
API  .              API NUMBER:  23-037-21488-0000                  
DATE .                LOG DATE:  6-Jun-2009
UWI  .          UNIQUE WELL ID:                                     
#-----------------------------------------------------------------------------
~PARAMETER INFORMATION
#MNEM.UNIT    VALUE                      DESCRIPTION
#---- -----   --------------------       ------------------------
CN   .        DENBURY ONSHORE  LLC       :Company Name
WN   .        CFU 31F #1                 :Well Name
FN   .        CRANFIELD FIELD UNIT       :Field Name
FL   .        X  248 375.1'              :Field Location
FL1  .        Y  387 674.2'              :Field Location Line 1
COUN .        FRANKLIN                   :County or Rig Name
STAT .        MISSISSIPPI                :State or Province
NATI .                                   :Nation
DATE .        6-Jun-2009                 :Date as Month-Day-Year
APIN .        23-037-21488-0000          :API Serial Number
SECT .        31                         :Section
TOWN .        7N                         :Township
RANG .        1E                         :Range
DMF  .        KELLY BUSHING              :Drilling Measured From
LMF  .        KELLY BUSHING              :Log Measured From
PDAT .        GROUND LEVEL               :Permanent Datum
ENGI .        CHRISTIAN ZACCARO          :Engineer's Name
WITN .        FRED WALSH                 :Witness's Name
LATI .                                   :Latitude
LONG .                                   :Longitude
LUL  .        NATCHEZ  MS                :Logging Unit Location
LUN  .              2157                 :Logging Unit Number
RUN  .        ONE                        :Run Number
SON  .        APWH-00103                 :Service Order Number
BHT  .DEGF     220.00000                 :Bottom Hole Temperature (used in calculations)
BS   .IN         8.75000                 :Bit Size
DFD  .LB/G       9.90000                 :Drilling Fluid Density
DFV  .S         42.00000                 :Drilling Fluid Viscosity
DFL  .C3         8.30000                 :Drilling Fluid Loss
RMFS .OHMM       1.21700                 :Resistivity of Mud Filtrate Sample
EKB  .F        333.70001                 :Elevation of Kelly Bushing
EGL  .F        315.70001                 :Elevation of Ground Level
BLI  .F       10628.00000                :Bottom Log Interval
BSAL .PPM     2600.00000                 :Borehole Salinity
FLEV .F          0.00000                 :Fluid Level
MCST .DEGF      74.90000                 :Mud Cake Sample Temperature
MFST .DEGF      74.80000                 :Mud Filtrate Sample Temperature
MRT  .DEGF     221.00000                 :Maximum Recorded Temperature
MST  .DEGF      76.20000                 :Mud Sample Temperature
RMCS .OHMM       1.89800                 :Resistivity of Mud Cake Sample
RMS  .OHMM       1.45600                 :Resistivity of Mud Sample
RW   .OHMM       1.00000                 :Resistivity of Connate Water
TDD  .F       10700.00000                :Total Depth - Driller
TDL  .F       10636.00000                :Total Depth - Logger
TLI  .F       2028.00000                 :Top Log Interval
HIDE .        CALIPER LOG                :Header Identifier
MATR .        LIME                       :Rock Matrix for Neutron Porosity Corrections
FNUM .           1.00000                 :Form Factor Numerator
FEXP .           2.00000                 :Form Factor Exponent
DFT  .        FRESH WATER-BASED MUD      :Drilling Fluid Type
DFPH .           9.60000                 :Drilling Fluid PH
MCSS .        MUDPRESS                   :Mud Cake Sample Source
MFSS .        MUDPRESS                   :Mud Filtrate Sample Source
MSS  .        MUDPIT                     :Mud Sample Source
OS1  .        BHC SONIC                  :Other Services Line 1
OS2  .        CST                        :Other Services Line 2
OS3  .                                   :Other Services Line 3
OS4  .                                   :Other Services Line 4
OS5  .                                   :Other Services Line 5
R1   .        FIRST RUN IN WELL          :Remark Line 1
R2   .        ALL SCHLUMBERGER DEPTH PROCEDURES FOLLOWED :Remark Line 2
R3   .        TWO 1.5  STANDOFFS RAN ON INDUCTION TOOL :Remark Line 3
R4   .        BOWSPRING RAN ON NEUTRON TOOL FOR ECCENTRALIZATION :Remark Line 4
R5   .        MATRIX  LIMESTONE  2.71 G/CC :Remark Line 5
R6   .        CHLORIDES  2600PPM         :Remark Line 6
R7   .                                   :Remark Line 7
R8   .        BOREHOLE ENVIRONMENT MAY AFFECT LOG QUALITY :Remark Line 8
TCS  .        18 00                      :Time Circulation Stopped
TLAB .        1 30                       :Time Logger At Bottom
EPD  .F         315.700012               :Elevation of Permanent Datum above Mean Sea Level
APD  .F          18.000000               :Elevation of Depth Reference (LMF) above Permanent Datum
#-----------------------------------------------------------------------------
~CURVE INFORMATION
#MNEM.UNIT   API CODE                                  DESCRIPTION
#---- -----  --------                                  -----------------------
DEPT .F                                                :DEPTH (BOREHOLE) {F12.4}
CTEM .DEGF                                             :Cartridge Temperature {F11.4}
DCAL .IN                                               :Differential Caliper {F11.4}
DT   .US/F                                             :Delta-T {F11.4}
GR_EDTC.GAPI                                           :Gamma Ray {F11.4}
GTEM .DEGF                                             :Generalized Borehole Temperature {F11.4}
ITT  .S                                                :Integrated Transit Time {F11.4}
RWA  .OHMM                                             :Apparent Water Resistivity {F11.4}
SPHI .CFCF                                             :Sonic Porosity {F11.4}
STIT .F                                                :Stuck Tool Indicator, Total {F11.4}
TENS .LBF                                              :Cable Tension {F11.4}
#-----------------------------------------------------------------------------
# 
#      DEPT        CTEM       DCAL        DT      GR_EDTC      GTEM       ITT        RWA        SPHI       STIT       TENS
#
~A  
# ...
   7687.5000   205.0825     0.5448    83.4272    75.8149   177.8628     0.2409   -42.1872     0.2055     0.0000  2914.0000
   7688.0000   205.0825     0.5403    83.7078    71.8810   177.8700     0.2409   -42.7668     0.2069     0.0000  2890.0000
   7688.5000   205.0825     0.4428    83.9882    72.4009   177.8771     0.2409   -43.3458     0.2083     0.0000  2904.0000
   7689.0000   205.0825     0.4244    84.8605    72.4009   177.8842     0.2408   -45.1471     0.2126     0.0000  2918.0000
   7689.5000   205.0825     0.4553    84.6053    78.2337   177.8914     0.2408   -44.6202     0.2113     0.0000  2916.0000
   7690.0000   205.0825     0.5309    84.5607    75.0825   177.8985     0.2407   -44.5282     0.2111     0.0000  2909.0000
   7690.5000   205.0825     0.5771    84.0112    77.1595   177.9057     0.2407   -43.3934     0.2084     0.0000  2902.0000
   7691.0000   205.0825     0.5709    84.1520    79.9642   177.9128     0.2406   -43.6842     0.2091     0.0000  2897.0000
   7691.5000   205.0825     0.5640    84.6718    81.6849   177.9200     0.2406   -44.7576     0.2116     0.0000  2916.0000
   7692.0000   205.0825     0.6026    84.9013    81.1346   177.9271     0.2406   -45.2313     0.2128     0.0000  2892.0000
   7692.5000   205.0825     0.4774    84.7733    77.0117   177.9343     0.2405   -44.9671     0.2121     0.0000  2900.0000
   7693.0000   205.0825     0.5873    83.8005    74.7852   177.9414     0.2405   -42.9582     0.2073     0.0000  2897.0000
   7693.5000   205.0825     0.5625    83.9684    74.2362   177.9486     0.2404   -43.3050     0.2082     0.0000  2906.0000
   7694.0000   205.0825     0.5896    83.4587    82.5962   177.9557     0.2404   -42.2524     0.2056     0.0000  2941.0000
   7694.5000   205.0825     0.5416    83.8864    86.7006   177.9629     0.2404   -43.1356     0.2078     0.0000  2932.0000
   7695.0000   205.0825     0.5236    85.8144    91.3018   177.9700     0.2403   -47.1158     0.2171     0.0000  2908.0000
   7695.5000   205.0825     0.4739    84.7393    78.2374   177.9772     0.2403   -44.8969     0.2120     0.0000  2944.0000
   7696.0000   205.0825     0.2950    82.1851    69.9657   177.9843     0.2402   -39.6239     0.1991     0.0000  2913.0000
   7696.5000   205.0825     0.2723    77.9700    55.5596   177.9914     0.2402   -30.9912     0.1761     0.0000  2894.0000
   7697.0000   205.0825     0.2182    76.2107    55.3263   177.9986     0.2401   -27.4514     0.1657     0.0000  2930.0000
   7697.5000   205.0825     0.4145    77.3534    58.9306   178.0057     0.2401   -29.7446     0.1725     0.0000  2914.0000
   7698.0000   205.0825     0.5976    79.4235    63.1314   178.0129     0.2401   -33.9499     0.1843     0.0000  2947.0000
   7698.5000   205.0825     0.5980    80.3643    60.0176   178.0200     0.2400   -35.8770     0.1895     0.0000  2979.0000
   7699.0000   205.0825     0.6682    79.6721    51.2208   178.0272     0.2400   -34.4583     0.1857     0.0000  2993.0000
   7699.5000   205.0825     0.6820    76.8702    60.0012   178.0343     0.2400   -28.7720     0.1697     0.0000  3005.0000
   7700.0000   205.0825     0.6826    74.9200    61.7906   178.0415     0.2399   -24.8931     0.1578     0.0000  2924.0000
   7700.5000   205.0825     0.6828    74.7901    63.5801   178.0486     0.2399   -24.6379     0.1570     0.0000  2903.0000
   7701.0000   205.0825     0.5528    78.9632    52.8710   178.0557     0.2398   -33.0102     0.1818     0.0000  2939.0000
   7701.5000   205.0825     0.4505    83.4953    53.3264   178.0629     0.2398   -42.3279     0.2058     0.0000  2924.0000
   7702.0000   205.0825     0.4505    88.9428    63.9987   178.0700     0.2398   -53.5469     0.2315     0.0000  2941.0000
   7702.5000   205.0825     0.4752    90.9472    81.4580   178.0772     0.2397   -57.6343     0.2402     0.0000  2958.0000
   7703.0000   205.0825     1.2919    91.9423    97.8583   178.0843     0.2397   -59.6507     0.2443     0.0000  2938.0000
   7703.5000   205.0825     1.0959    91.5655   106.7778   178.0915     0.2396   -58.8881     0.2428     0.0000  2941.0000
   7704.0000   205.0825     1.0004    89.5287   108.3355   178.0986     0.2396   -54.7448     0.2341     0.0000  2919.0000
   7704.5000   205.0825     0.9215    89.3694   114.1564   178.1058     0.2395   -54.4194     0.2334     0.0000  2915.0000
   7705.0000   205.0825     1.1849    87.6964   108.8716   178.1129     0.2395   -50.9907     0.2259     0.0000  2926.0000
   7705.5000   205.0825     0.9478    87.6566   103.6791   178.1201     0.2394   -50.9089     0.2257     0.0000  2898.0000
   7706.0000   205.0825     0.9289    87.7541    97.6187   178.1272     0.2394   -51.1092     0.2262     0.0000  2918.0000
   7706.5000   205.0825     0.9416    88.1592    93.5536   178.1344     0.2394   -51.9410     0.2280     0.0000  2950.0000
   7707.0000   205.0825     1.3779    88.9041    95.1114   178.1415     0.2393   -53.4677     0.2313     0.0000  2976.0000
   7707.5000   205.0825     0.9464    89.3953    93.0344   178.1486     0.2393   -54.4723     0.2335     0.0000  2993.0000
   7708.0000   205.0825     1.2028    90.1412    99.2687   178.1558     0.2392   -55.9944     0.2367     0.0000  2960.0000
   7708.5000   205.0825     1.0423    90.0796   114.7271   178.1629     0.2392   -55.8690     0.2365     0.0000  2974.0000
   7709.0000   205.0825     1.2144    89.5033   119.4953   178.1701     0.2391   -54.6929     0.2340     0.0000  3001.0000
   7709.5000   205.0825     1.0242    90.2482   116.8067   178.1772     0.2391   -56.2126     0.2372     0.0000  2995.0000
   7710.0000   205.0825     0.9971    88.6096    98.9586   178.1844     0.2390   -52.8644     0.2300     0.0000  3010.0000
   7710.5000   205.0825     0.9022    87.5837    89.5530   178.1915     0.2390   -50.7592     0.2254     0.0000  3018.0000
   7711.0000   205.0825     0.8334    85.0980    89.0337   178.1987     0.2390   -45.6374     0.2137     0.0000  2968.0000
   7711.5000   205.0825     0.9599    86.6700    90.3849   178.2058     0.2389   -48.8791     0.2212     0.0000  3010.0000
   7712.0000   205.0825     0.9275    87.9384    98.7116   178.2130     0.2389   -51.4876     0.2270     0.0000  2984.0000
   7712.5000   205.0825     1.3193    87.8537    92.9999   178.2201     0.2388   -51.3137     0.2266     0.0000  2986.0000
   7713.0000   205.0825     0.9598    88.6170    99.7975   178.2272     0.2388   -52.8796     0.2300     0.0000  2990.0000
   7713.5000   205.0825     1.3003    88.4011    96.2388   178.2344     0.2387   -52.4370     0.2291     0.0000  2986.0000
   7714.0000   205.0825     0.8472    86.6092   105.0239   178.2415     0.2387   -48.7541     0.2209     0.0000  2970.0000
   7714.5000   205.0825     1.2051    88.0995   107.6234   178.2487     0.2386   -51.8184     0.2277     0.0000  2996.0000
   7715.0000   205.0825     1.3573    90.8287   116.3201   178.2558     0.2386   -57.3934     0.2397     0.0000  2974.0000
   7715.5000   205.0825     1.2100    91.0951   116.8387   178.2630     0.2386   -57.9344     0.2408     0.0000  3017.0000
   7716.0000   205.0825     1.1320    92.2856   111.5038   178.2701     0.2385   -60.3442     0.2457     0.0000  3045.0000
   7716.5000   205.0825     1.4459    91.9641   110.9846   178.2773     0.2385   -59.6948     0.2444     0.0000  2974.0000
   7717.0000   205.0825     1.4224    93.5010   111.0456   178.2844     0.2384   -62.7895     0.2507     0.0000  3036.0000
   7717.5000   205.0825     1.5408    93.4539   113.2145   178.2915     0.2384   -62.6950     0.2505     0.0000  3013.0000
   7718.0000   205.0825     1.5012    94.2728   104.3872   178.2987     0.2383   -64.3341     0.2537     0.0000  3019.0000
   7718.5000   205.0825     1.4458    94.2895   105.4074   178.3058     0.2383   -64.3676     0.2538     0.0000  3039.0000
   7719.0000   205.0825     1.4934    94.0170   104.8882   178.3130     0.2382   -63.8229     0.2527     0.0000  3004.0000
   7719.5000   205.0825     1.4405    94.4154   113.9897   178.3201     0.2382   -64.6188     0.2543     0.0000  3002.0000
   7720.0000   205.0825     1.5298    94.0395   113.4705   178.3273     0.2381   -63.8679     0.2528     0.0000  3040.0000
