~VERSION INFORMATION
VERS.           1.2   :CWLS Log ASCII Standard - VERSION 1.2
WRAP.           NO    :One Line per depth step
PROD.  Schlumberger   :LAS Producer
PROG.  DLIS to ASCII 10C0-306                          :LAS Program name and version
CREA.        2009/06/06 23:09                          :LAS Creation date {YYYY/MM/DD hh:mm}
SOURCE.     d986ea9e-f59c-4559-942d-7b7265e62d76       :DLIS File Name
#--------------------------------------------------
~WELL INFORMATION
#MNEM.UNIT      DATA             DESCRIPTION
#---- ------ --------------   -----------------------------
STRT .F      1945.5000       :START DEPTH     
STOP .F      10600.5000      :STOP DEPTH     
STEP .F       0.5000         :STEP       
NULL .          -999.25      :NULL VALUE
COMP .                 COMPANY:  DENBURY ONSHORE, LLC               
WELL .                    WELL:  CFU 31F #1                         
FLD  .                   FIELD:  CRANFIELD FIELD UNIT               
LOC  .                LOCATION:  X: 248,375.1'                      
CNTY .                  COUNTY:  FRANKLIN                           
STAT .                   STATE:  MISSISSIPPI                        
CTRY .                 COUNTRY:                                     
SRVC .         SERVICE COMPANY:  Schlumberger                       
API  .              API NUMBER:  23-037-21488-0000                  
DATE .                LOG DATE:  6-Jun-2009
UWI  .          UNIQUE WELL ID:                                     
#-----------------------------------------------------------------------------
~PARAMETER INFORMATION
#MNEM.UNIT    VALUE                      DESCRIPTION
#---- -----   --------------------       ------------------------
CN   .        DENBURY ONSHORE  LLC       :Company Name
WN   .        CFU 31F #1                 :Well Name
FN   .        CRANFIELD FIELD UNIT       :Field Name
FL   .        X  248 375.1'              :Field Location
FL1  .        Y  387 674.2'              :Field Location Line 1
COUN .        FRANKLIN                   :County or Rig Name
STAT .        MISSISSIPPI                :State or Province
NATI .                                   :Nation
DATE .        6-Jun-2009                 :Date as Month-Day-Year
APIN .        23-037-21488-0000          :API Serial Number
SECT .        31                         :Section
TOWN .        7N                         :Township
RANG .        1E                         :Range
DMF  .        KELLY BUSHING              :Drilling Measured From
LMF  .        KELLY BUSHING              :Log Measured From
PDAT .        GROUND LEVEL               :Permanent Datum
ENGI .        CHRISTIAN ZACCARO          :Engineer's Name
WITN .        FRED WALSH                 :Witness's Name
LATI .                                   :Latitude
LONG .                                   :Longitude
LUL  .        NATCHEZ  MS                :Logging Unit Location
LUN  .              2157                 :Logging Unit Number
RUN  .        ONE                        :Run Number
SON  .        APWH-00103                 :Service Order Number
BHT  .DEGF     220.00000                 :Bottom Hole Temperature (used in calculations)
BS   .IN         8.75000                 :Bit Size
DFD  .LB/G       9.90000                 :Drilling Fluid Density
DFV  .S         42.00000                 :Drilling Fluid Viscosity
DFL  .C3         8.30000                 :Drilling Fluid Loss
RMFS .OHMM       1.21700                 :Resistivity of Mud Filtrate Sample
EKB  .F        333.70001                 :Elevation of Kelly Bushing
EGL  .F        315.70001                 :Elevation of Ground Level
BLI  .F       10628.00000                :Bottom Log Interval
BSAL .PPM     2600.00000                 :Borehole Salinity
FLEV .F          0.00000                 :Fluid Level
MCST .DEGF      74.90000                 :Mud Cake Sample Temperature
MFST .DEGF      74.80000                 :Mud Filtrate Sample Temperature
MRT  .DEGF     221.00000                 :Maximum Recorded Temperature
MST  .DEGF      76.20000                 :Mud Sample Temperature
RMCS .OHMM       1.89800                 :Resistivity of Mud Cake Sample
RMS  .OHMM       1.45600                 :Resistivity of Mud Sample
RW   .OHMM       1.00000                 :Resistivity of Connate Water
TDD  .F       10700.00000                :Total Depth - Driller
TDL  .F       10636.00000                :Total Depth - Logger
TLI  .F       2028.00000                 :Top Log Interval
HIDE .        CALIPER LOG                :Header Identifier
MATR .        LIME                       :Rock Matrix for Neutron Porosity Corrections
FNUM .           1.00000                 :Form Factor Numerator
FEXP .           2.00000                 :Form Factor Exponent
DFT  .        FRESH WATER-BASED MUD      :Drilling Fluid Type
DFPH .           9.60000                 :Drilling Fluid PH
MCSS .        MUDPRESS                   :Mud Cake Sample Source
MFSS .        MUDPRESS                   :Mud Filtrate Sample Source
MSS  .        MUDPIT                     :Mud Sample Source
OS1  .        BHC SONIC                  :Other Services Line 1
OS2  .        CST                        :Other Services Line 2
OS3  .                                   :Other Services Line 3
OS4  .                                   :Other Services Line 4
OS5  .                                   :Other Services Line 5
R1   .        FIRST RUN IN WELL          :Remark Line 1
R2   .        ALL SCHLUMBERGER DEPTH PROCEDURES FOLLOWED :Remark Line 2
R3   .        TWO 1.5  STANDOFFS RAN ON INDUCTION TOOL :Remark Line 3
R4   .        BOWSPRING RAN ON NEUTRON TOOL FOR ECCENTRALIZATION :Remark Line 4
R5   .        MATRIX  LIMESTONE  2.71 G/CC :Remark Line 5
R6   .        CHLORIDES  2600PPM         :Remark Line 6
R7   .                                   :Remark Line 7
R8   .        BOREHOLE ENVIRONMENT MAY AFFECT LOG QUALITY :Remark Line 8
TCS  .        18 00                      :Time Circulation Stopped
TLAB .        1 30                       :Time Logger At Bottom
EPD  .F         315.700012               :Elevation of Permanent Datum above Mean Sea Level
APD  .F          18.000000               :Elevation of Depth Reference (LMF) above Permanent Datum
#-----------------------------------------------------------------------------
~CURVE INFORMATION
#MNEM.UNIT   API CODE                                  DESCRIPTION
#---- -----  --------                                  -----------------------
DEPT .F                                                :DEPTH (BOREHOLE) {F12.4}
CTEM .DEGF                                             :Cartridge Temperature {F11.4}
DCAL .IN                                               :Differential Caliper {F11.4}
DT   .US/F                                             :Delta-T {F11.4}
GR_EDTC.GAPI                                           :Gamma Ray {F11.4}
GTEM .DEGF                                             :Generalized Borehole Temperature {F11.4}
ITT  .S                                                :Integrated Transit Time {F11.4}
RWA  .OHMM                                             :Apparent Water Resistivity {F11.4}
SPHI .CFCF                                             :Sonic Porosity {F11.4}
STIT .F                                                :Stuck Tool Indicator, Total {F11.4}
TENS .LBF                                              :Cable Tension {F11.4}
#-----------------------------------------------------------------------------
# 
#      DEPT        CTEM       DCAL        DT      GR_EDTC      GTEM       ITT        RWA        SPHI       STIT       TENS
#
~A  
# ...
   5377.5000   181.3649     0.3481   101.4245    98.5660   144.8504     0.4497   -78.2940     0.2799     0.0000  2195.0000
   5378.0000   181.3649     0.3678   101.8068    98.1545   144.8575     0.4496   -79.0206     0.2812     0.0000  2180.0000
   5378.5000   181.3649     0.3346   101.6148    90.3658   144.8647     0.4496   -78.6559     0.2806     0.0000  2195.0000
   5379.0000   181.3649     0.3344   101.6672    76.6107   144.8718     0.4495   -78.7556     0.2807     0.0000  2195.0000
   5379.5000   181.3649     0.3481   101.7072    68.3146   144.8790     0.4495   -78.8315     0.2809     0.0000  2187.0000
   5380.0000   181.3649     0.3618   101.4439    72.9878   144.8861     0.4494   -78.3309     0.2800     0.0000  2196.0000
   5380.5000   181.3649     0.3745   101.5840    81.0162   144.8932     0.4494   -78.5974     0.2805     0.0000  2186.0000
   5381.0000   181.3649     0.4414   101.9731    93.4937   144.9004     0.4493   -79.3360     0.2818     0.0000  2187.0000
   5381.5000   181.3649     0.4658   101.2555    94.0130   144.9075     0.4493   -77.9721     0.2793     0.0000  2203.0000
   5382.0000   181.3649     0.4802   101.0934    98.4961   144.9147     0.4492   -77.6631     0.2788     0.0000  2190.0000
   5382.5000   181.3649     0.5534   101.4098    93.7787   144.9218     0.4492   -78.2662     0.2799     0.0000  2187.0000
   5383.0000   181.3649     0.6992   100.7812    98.9265   144.9290     0.4491   -77.0667     0.2777     0.0000  2206.0000
   5383.5000   181.3649     0.7383   102.9811    98.0359   144.9361     0.4491   -81.2391     0.2851     0.0000  2191.0000
   5384.0000   181.3649     0.8846   102.8618   103.2284   144.9433     0.4490   -81.0147     0.2847     0.0000  2211.0000
   5384.5000   181.3649     0.9813   103.1704    98.9942   144.9504     0.4490   -81.5949     0.2858     0.0000  2206.0000
   5385.0000   181.3649     1.0503   103.8616   101.7335   144.9576     0.4489   -82.8894     0.2880     0.0000  2208.0000
   5385.5000   181.3649     1.0213   103.0279   100.1758   144.9647     0.4489   -81.3271     0.2853     0.0000  2208.0000
   5386.0000   181.3649     1.5107   104.8476    96.2060   144.9719     0.4488   -84.7235     0.2912     0.0000  2187.0000
   5386.5000   181.3649     0.9147   104.1829    91.9662   144.9790     0.4488   -83.4886     0.2891     0.0000  2189.0000
   5387.0000   181.3649     1.3689   105.7428    91.4470   144.9861     0.4487   -86.3760     0.2940     0.0000  2215.0000
   5387.5000   181.3649     0.9318   104.0528    91.9218   144.9933     0.4487   -83.2461     0.2886     0.0000  2203.0000
   5388.0000   181.3649     1.5402   105.1825    96.0758   145.0004     0.4486   -85.3431     0.2922     0.0000  2246.0000
   5388.5000   181.3649     1.8840   106.1237    87.7045   145.0076     0.4486   -87.0755     0.2952     0.0000  2254.0000
   5389.0000   181.3649     0.6973   105.0224    91.3348   145.0147     0.4485   -85.0470     0.2917     0.0000  2236.0000
   5389.5000   181.3649     0.5457   102.9219    84.5846   145.0219     0.4484   -81.1279     0.2849     0.0000  2231.0000
   5390.0000   181.3649     0.3446   102.4010    74.7739   145.0290     0.4484   -80.1458     0.2832     0.0000  2215.0000
   5390.5000   181.3649     0.3778   101.4096    62.3014   145.0362     0.4483   -78.2656     0.2799     0.0000  2208.0000
   5391.0000   181.3649     0.4394   100.7818    55.5511   145.0433     0.4483   -77.0679     0.2777     0.0000  2237.0000
   5391.5000   181.3649     0.4987   100.2792    60.2327   145.0505     0.4482   -76.1048     0.2760     0.0000  2221.0000
   5392.0000   181.3649     0.4823    99.7451    62.8406   145.0576     0.4482   -75.0775     0.2741     0.0000  2251.0000
   5392.5000   181.3649     0.4248    99.2304    66.9325   145.0647     0.4481   -74.0838     0.2723     0.0000  2242.0000
   5393.0000   181.3649     0.4024    98.0139    66.9832   145.0719     0.4481   -71.7207     0.2679     0.0000  2211.0000
   5393.5000   181.3649     0.3776    97.6295    73.6324   145.0790     0.4480   -70.9699     0.2665     0.0000  2204.0000
   5394.0000   181.3649     0.4906    96.9717    75.2522   145.0862     0.4480   -69.6806     0.2641     0.0000  2190.0000
   5394.5000   181.3649     0.6286    96.9758    85.6247   145.0933     0.4479   -69.6888     0.2641     0.0000  2201.0000
   5395.0000   181.3649     0.7079    98.4063    87.8489   145.1005     0.4479   -72.4852     0.2693     0.0000  2228.0000
   5395.5000   181.3649     1.6315   100.3294    92.0029   145.1076     0.4478   -76.2011     0.2761     0.0000  2220.0000
   5396.0000   181.3649     1.7619   103.8472    90.4068   145.1148     0.4478   -82.8624     0.2880     0.0000  2213.0000
   5396.5000   181.3649     2.0139   105.2882    89.4853   145.1219     0.4477   -85.5382     0.2926     0.0000  2223.0000
   5397.0000   181.3649     1.6223   104.4634    85.3976   145.1291     0.4477   -84.0104     0.2900     0.0000  2205.0000
   5397.5000   181.3649     1.6688   104.5661    95.2633   145.1362     0.4476   -84.2013     0.2903     0.0000  2207.0000
   5398.0000   181.3649     1.6688   105.9423    91.7085   145.1433     0.4476   -86.7426     0.2946     0.0000  2177.0000
   5398.5000   181.3649     1.8636   107.2792    94.2748   145.1505     0.4475   -89.1837     0.2987     0.0000  2177.0000
   5399.0000   181.3649     2.2716   105.5072    82.8513   145.1576     0.4475   -85.9423     0.2933     0.0000  2237.0000
   5399.5000   181.3649     0.4792   102.4865    73.1107   145.1648     0.4474   -80.3071     0.2835     0.0000  2306.0000
   5400.0000   181.3649     0.3817    98.6162    66.3241   145.1719     0.4474   -72.8932     0.2701     0.0000  2268.0000
   5400.5000   181.3649     0.3656    94.9614    57.9113   145.1791     0.4473   -65.7067     0.2564     0.0000  2242.0000
   5401.0000   181.3649     0.3329    94.1257    62.7507   145.1862     0.4473   -64.0403     0.2532     0.0000  2189.0000
   5401.5000   181.3649     0.3147    93.7812    59.6352   145.1934     0.4472   -63.3511     0.2518     0.0000  2231.0000
   5402.0000   181.3649     0.3451    94.1635    67.1893   145.2005     0.4472   -64.1158     0.2533     0.0000  2264.0000
   5402.5000   181.3649     0.4015    94.1578    65.1097   145.2077     0.4471   -64.1045     0.2533     0.0000  2274.0000
   5403.0000   181.3649     0.4749    95.3140    72.1707   145.2148     0.4471   -66.4072     0.2578     0.0000  2259.0000
   5403.5000   181.3649     0.5364    96.1139    72.5102   145.2219     0.4470   -67.9911     0.2608     0.0000  2201.0000
   5404.0000   181.3649     0.5129    96.1415    82.8711   145.2291     0.4470   -68.0455     0.2610     0.0000  2181.0000
   5404.5000   181.3649     0.4889    95.5952    82.5604   145.2362     0.4470   -66.9648     0.2589     0.0000  2187.0000
   5405.0000   181.3649     0.4738    96.2832    83.5989   145.2434     0.4469   -68.3252     0.2615     0.0000  2184.0000
   5405.5000   181.3649     0.5911    96.3404    82.0561   145.2505     0.4469   -68.4380     0.2617     0.0000  2199.0000
   5406.0000   181.3649     0.5601    96.9248    84.5812   145.2577     0.4468   -69.5885     0.2639     0.0000  2216.0000
   5406.5000   181.3649     0.6614    97.6680    77.0480   145.2648     0.4468   -71.0452     0.2666     0.0000  2209.0000
   5407.0000   181.3649     0.6157    97.5857    73.9175   145.2720     0.4467   -70.8842     0.2663     0.0000  2206.0000
   5407.5000   181.3649     0.4490    97.6013    74.3440   145.2791     0.4467   -70.9148     0.2664     0.0000  2198.0000
   5408.0000   181.3649     0.4252    97.7130    86.5505   145.2863     0.4466   -71.1332     0.2668     0.0000  2195.0000
   5408.5000   181.3649     0.4135    97.7862    88.6275   145.2934     0.4466   -71.2763     0.2671     0.0000  2217.0000
   5409.0000   181.3649     0.4447    97.9867    86.4319   145.3006     0.4465   -71.6676     0.2678     0.0000  2201.0000
   5409.5000   181.3649     0.4691    98.3069    83.8357   145.3077     0.4465   -72.2917     0.2690     0.0000  2218.0000
   5410.0000   181.3649     0.5369    96.4685    90.0252   145.3148     0.4464   -68.6905     0.2622     0.0000  2220.0000
