~VERSION INFORMATION
VERS.           1.2   :CWLS Log ASCII Standard - VERSION 1.2
WRAP.           NO    :One Line per depth step
PROD.  Schlumberger   :LAS Producer
PROG.  DLIS to ASCII 10C0-306                          :LAS Program name and version
CREA.        2009/06/06 23:09                          :LAS Creation date {YYYY/MM/DD hh:mm}
SOURCE.     d986ea9e-f59c-4559-942d-7b7265e62d76       :DLIS File Name
#--------------------------------------------------
~WELL INFORMATION
#MNEM.UNIT      DATA             DESCRIPTION
#---- ------ --------------   -----------------------------
STRT .F      1945.5000       :START DEPTH     
STOP .F      10600.5000      :STOP DEPTH     
STEP .F       0.5000         :STEP       
NULL .          -999.25      :NULL VALUE
COMP .                 COMPANY:  DENBURY ONSHORE, LLC               
WELL .                    WELL:  CFU 31F #1                         
FLD  .                   FIELD:  CRANFIELD FIELD UNIT               
LOC  .                LOCATION:  X: 248,375.1'                      
CNTY .                  COUNTY:  FRANKLIN                           
STAT .                   STATE:  MISSISSIPPI                        
CTRY .                 COUNTRY:                                     
SRVC .         SERVICE COMPANY:  Schlumberger                       
API  .              API NUMBER:  23-037-21488-0000                  
DATE .                LOG DATE:  6-Jun-2009
UWI  .          UNIQUE WELL ID:                                     
#-----------------------------------------------------------------------------
~PARAMETER INFORMATION
#MNEM.UNIT    VALUE                      DESCRIPTION
#---- -----   --------------------       ------------------------
CN   .        DENBURY ONSHORE  LLC       :Company Name
WN   .        CFU 31F #1                 :Well Name
FN   .        CRANFIELD FIELD UNIT       :Field Name
FL   .        X  248 375.1'              :Field Location
FL1  .        Y  387 674.2'              :Field Location Line 1
COUN .        FRANKLIN                   :County or Rig Name
STAT .        MISSISSIPPI                :State or Province
NATI .                                   :Nation
DATE .        6-Jun-2009                 :Date as Month-Day-Year
APIN .        23-037-21488-0000          :API Serial Number
SECT .        31                         :Section
TOWN .        7N                         :Township
RANG .        1E                         :Range
DMF  .        KELLY BUSHING              :Drilling Measured From
LMF  .        KELLY BUSHING              :Log Measured From
PDAT .        GROUND LEVEL               :Permanent Datum
ENGI .        CHRISTIAN ZACCARO          :Engineer's Name
WITN .        FRED WALSH                 :Witness's Name
LATI .                                   :Latitude
LONG .                                   :Longitude
LUL  .        NATCHEZ  MS                :Logging Unit Location
LUN  .              2157                 :Logging Unit Number
RUN  .        ONE                        :Run Number
SON  .        APWH-00103                 :Service Order Number
BHT  .DEGF     220.00000                 :Bottom Hole Temperature (used in calculations)
BS   .IN         8.75000                 :Bit Size
DFD  .LB/G       9.90000                 :Drilling Fluid Density
DFV  .S         42.00000                 :Drilling Fluid Viscosity
DFL  .C3         8.30000                 :Drilling Fluid Loss
RMFS .OHMM       1.21700                 :Resistivity of Mud Filtrate Sample
EKB  .F        333.70001                 :Elevation of Kelly Bushing
EGL  .F        315.70001                 :Elevation of Ground Level
BLI  .F       10628.00000                :Bottom Log Interval
BSAL .PPM     2600.00000                 :Borehole Salinity
FLEV .F          0.00000                 :Fluid Level
MCST .DEGF      74.90000                 :Mud Cake Sample Temperature
MFST .DEGF      74.80000                 :Mud Filtrate Sample Temperature
MRT  .DEGF     221.00000                 :Maximum Recorded Temperature
MST  .DEGF      76.20000                 :Mud Sample Temperature
RMCS .OHMM       1.89800                 :Resistivity of Mud Cake Sample
RMS  .OHMM       1.45600                 :Resistivity of Mud Sample
RW   .OHMM       1.00000                 :Resistivity of Connate Water
TDD  .F       10700.00000                :Total Depth - Driller
TDL  .F       10636.00000                :Total Depth - Logger
TLI  .F       2028.00000                 :Top Log Interval
HIDE .        CALIPER LOG                :Header Identifier
MATR .        LIME                       :Rock Matrix for Neutron Porosity Corrections
FNUM .           1.00000                 :Form Factor Numerator
FEXP .           2.00000                 :Form Factor Exponent
DFT  .        FRESH WATER-BASED MUD      :Drilling Fluid Type
DFPH .           9.60000                 :Drilling Fluid PH
MCSS .        MUDPRESS                   :Mud Cake Sample Source
MFSS .        MUDPRESS                   :Mud Filtrate Sample Source
MSS  .        MUDPIT                     :Mud Sample Source
OS1  .        BHC SONIC                  :Other Services Line 1
OS2  .        CST                        :Other Services Line 2
OS3  .                                   :Other Services Line 3
OS4  .                                   :Other Services Line 4
OS5  .                                   :Other Services Line 5
R1   .        FIRST RUN IN WELL          :Remark Line 1
R2   .        ALL SCHLUMBERGER DEPTH PROCEDURES FOLLOWED :Remark Line 2
R3   .        TWO 1.5  STANDOFFS RAN ON INDUCTION TOOL :Remark Line 3
R4   .        BOWSPRING RAN ON NEUTRON TOOL FOR ECCENTRALIZATION :Remark Line 4
R5   .        MATRIX  LIMESTONE  2.71 G/CC :Remark Line 5
R6   .        CHLORIDES  2600PPM         :Remark Line 6
R7   .                                   :Remark Line 7
R8   .        BOREHOLE ENVIRONMENT MAY AFFECT LOG QUALITY :Remark Line 8
TCS  .        18 00                      :Time Circulation Stopped
TLAB .        1 30                       :Time Logger At Bottom
EPD  .F         315.700012               :Elevation of Permanent Datum above Mean Sea Level
APD  .F          18.000000               :Elevation of Depth Reference (LMF) above Permanent Datum
#-----------------------------------------------------------------------------
~CURVE INFORMATION
#MNEM.UNIT   API CODE                                  DESCRIPTION
#---- -----  --------                                  -----------------------
DEPT .F                                                :DEPTH (BOREHOLE) {F12.4}
CTEM .DEGF                                             :Cartridge Temperature {F11.4}
DCAL .IN                                               :Differential Caliper {F11.4}
DT   .US/F                                             :Delta-T {F11.4}
GR_EDTC.GAPI                                           :Gamma Ray {F11.4}
GTEM .DEGF                                             :Generalized Borehole Temperature {F11.4}
ITT  .S                                                :Integrated Transit Time {F11.4}
RWA  .OHMM                                             :Apparent Water Resistivity {F11.4}
SPHI .CFCF                                             :Sonic Porosity {F11.4}
STIT .F                                                :Stuck Tool Indicator, Total {F11.4}
TENS .LBF                                              :Cable Tension {F11.4}
#-----------------------------------------------------------------------------
# 
#      DEPT        CTEM       DCAL        DT      GR_EDTC      GTEM       ITT        RWA        SPHI       STIT       TENS
#
~A  
# ...
   7126.5000   199.1531     0.9716    87.2418   107.4556   169.8455     0.2884   -50.0562     0.2238     0.0000  2799.0000
   7127.0000   199.1531     0.7660    86.3184    97.6276   169.8527     0.2883   -48.1549     0.2195     0.0000  2811.0000
   7127.5000   199.1531     0.9084    85.7606   101.7649   169.8598     0.2883   -47.0047     0.2169     0.0000  2815.0000
   7128.0000   199.1531     0.7847    86.1312    94.9862   169.8669     0.2882   -47.7691     0.2186     0.0000  2835.0000
   7128.5000   199.1531     0.7824    86.3459    96.5856   169.8741     0.2882   -48.2114     0.2197     0.0000  2798.0000
   7129.0000   199.1531     0.9063    87.6485   100.0186   169.8812     0.2882   -50.8923     0.2257     0.0000  2792.0000
   7129.5000   199.1531     0.7861    86.0800   100.0554   169.8884     0.2881   -47.6634     0.2184     0.0000  2807.0000
   7130.0000   199.1531     0.9581    87.1002   104.6948   169.8955     0.2881   -49.7649     0.2232     0.0000  2802.0000
   7130.5000   199.1531     0.7585    88.1652   101.7811   169.9027     0.2880   -51.9533     0.2280     0.0000  2795.0000
   7131.0000   199.1531     0.9057    87.0991   102.8183   169.9098     0.2880   -49.7626     0.2232     0.0000  2830.0000
   7131.5000   199.1531     1.1396    87.9253   105.4178   169.9170     0.2879   -51.4607     0.2269     0.0000  2796.0000
   7132.0000   199.1531     0.7955    86.8576   108.5333   169.9241     0.2879   -49.2655     0.2220     0.0000  2792.0000
   7132.5000   199.1531     0.8389    85.6914   109.9637   169.9313     0.2879   -46.8619     0.2166     0.0000  2804.0000
   7133.0000   199.1531     0.7945    85.4015   109.9150   169.9384     0.2878   -46.2639     0.2152     0.0000  2809.0000
   7133.5000   199.1531     0.8536    84.3074   103.1247   169.9456     0.2878   -44.0051     0.2099     0.0000  2852.0000
   7134.0000   199.1531     0.7593    84.6999   107.4896   169.9527     0.2877   -44.8155     0.2118     0.0000  2828.0000
   7134.5000   199.1531     0.7761    85.1483   105.4126   169.9598     0.2877   -45.7413     0.2140     0.0000  2828.0000
   7135.0000   199.1531     0.7865    86.2345   102.3010   169.9670     0.2876   -47.9820     0.2191     0.0000  2825.0000
   7135.5000   199.1531     0.8980    86.3314   100.2214   169.9741     0.2876   -48.1816     0.2196     0.0000  2818.0000
   7136.0000   199.1531     0.8525    87.2838    94.0482   169.9813     0.2876   -50.1426     0.2240     0.0000  2810.0000
   7136.5000   199.1531     1.1297    87.2717    93.4940   169.9884     0.2875   -50.1176     0.2240     0.0000  2817.0000
   7137.0000   199.1531     0.9995    87.5608    87.8110   169.9956     0.2875   -50.7120     0.2253     0.0000  2815.0000
   7137.5000   199.1531     1.0205    87.5062    85.6762   170.0027     0.2874   -50.5997     0.2250     0.0000  2810.0000
   7138.0000   199.1531     0.8295    87.7270    99.7140   170.0099     0.2874   -51.0535     0.2260     0.0000  2812.0000
   7138.5000   199.1531     1.0895    88.5148   105.3970   170.0170     0.2873   -52.6701     0.2296     0.0000  2792.0000
   7139.0000   199.1531     1.1672    88.2561   109.7560   170.0242     0.2873   -52.1397     0.2284     0.0000  2817.0000
   7139.5000   199.1531     1.1873    88.6152   104.0973   170.0313     0.2872   -52.8759     0.2300     0.0000  2819.0000
   7140.0000   199.1531     1.1034    88.3529   104.5737   170.0385     0.2872   -52.3382     0.2289     0.0000  2827.0000
   7140.5000   199.1531     0.9497    88.3745   110.0805   170.0456     0.2872   -52.3825     0.2290     0.0000  2804.0000
   7141.0000   199.1531     0.9423    87.6808   103.3303   170.0527     0.2871   -50.9586     0.2258     0.0000  2821.0000
   7141.5000   199.1531     0.8854    88.0850    99.1763   170.0599     0.2871   -51.7885     0.2277     0.0000  2817.0000
   7142.0000   199.1531     0.9274    88.0722    94.5031   170.0670     0.2870   -51.7623     0.2276     0.0000  2798.0000
   7142.5000   199.1531     0.9290    87.0673    99.9732   170.0742     0.2870   -49.6971     0.2230     0.0000  2794.0000
   7143.0000   199.1531     0.9423    86.3532   101.0513   170.0813     0.2869   -48.2265     0.2197     0.0000  2795.0000
   7143.5000   199.1531     1.0372    85.7347   100.9673   170.0885     0.2869   -46.9514     0.2168     0.0000  2791.0000
   7144.0000   199.1531     1.0428    85.8428    94.5314   170.0956     0.2869   -47.1744     0.2173     0.0000  2807.0000
   7144.5000   199.1531     0.8784    85.0276    97.0881   170.1028     0.2868   -45.4922     0.2134     0.0000  2810.0000
   7145.0000   199.1531     0.8846    86.4463    93.9803   170.1099     0.2868   -48.4184     0.2201     0.0000  2807.0000
   7145.5000   199.1531     0.8264    86.6109    97.6242   170.1170     0.2867   -48.7575     0.2209     0.0000  2855.0000
   7146.0000   199.1531     1.8603    88.1413    95.8265   170.1242     0.2867   -51.9042     0.2279     0.0000  2833.0000
   7146.5000   199.1531     1.0741    88.3758    99.5376   170.1313     0.2866   -52.3853     0.2290     0.0000  2810.0000
   7147.0000   199.1531     1.3347    87.6231   102.0519   170.1385     0.2866   -50.8401     0.2256     0.0000  2830.0000
   7147.5000   199.1531     0.8745    88.0144    99.1763   170.1456     0.2866   -51.6438     0.2273     0.0000  2810.0000
   7148.0000   199.1531     0.8800    87.4005    98.6571   170.1528     0.2865   -50.3824     0.2245     0.0000  2787.0000
   7148.5000   199.1531     1.0584    88.1837    98.1378   170.1599     0.2865   -51.9911     0.2281     0.0000  2848.0000
   7149.0000   199.1531     1.0062    88.0641   102.3479   170.1671     0.2864   -51.7458     0.2276     0.0000  2827.0000
   7149.5000   199.1531     0.9830    87.8434    99.2324   170.1742     0.2864   -51.2926     0.2266     0.0000  2840.0000
   7150.0000   199.1531     0.9032    88.0487    96.1565   170.1814     0.2863   -51.7141     0.2275     0.0000  2851.0000
   7150.5000   199.1531     1.1960    87.9110    97.0956   170.1885     0.2863   -51.4314     0.2269     0.0000  2785.0000
   7151.0000   199.1531     1.0497    88.4731   101.8129   170.1956     0.2862   -52.5848     0.2294     0.0000  2794.0000
   7151.5000   199.1531     0.9959    87.4737   103.3311   170.2028     0.2862   -50.5330     0.2249     0.0000  2869.0000
   7152.0000   199.1531     0.9249    86.5125   107.6465   170.2099     0.2862   -48.5548     0.2204     0.0000  2840.0000
   7152.5000   199.1531     0.7634    86.4245    97.2798   170.2171     0.2861   -48.3735     0.2200     0.0000  2828.0000
   7153.0000   199.1531     0.7702    85.4877    98.3183   170.2242     0.2861   -46.4418     0.2156     0.0000  2827.0000
   7153.5000   199.1531     0.7804    85.7344    92.9237   170.2314     0.2860   -46.9507     0.2168     0.0000  2804.0000
   7154.0000   199.1531     0.8074    86.2321    99.1703   170.2385     0.2860   -47.9770     0.2191     0.0000  2802.0000
   7154.5000   199.1531     0.9493    86.2766   102.8050   170.2457     0.2859   -48.0688     0.2193     0.0000  2781.0000
   7155.0000   199.1531     1.0439    86.6015    99.3865   170.2528     0.2859   -48.7382     0.2209     0.0000  2799.0000
   7155.5000   199.1531     0.7546    87.1531   100.3470   170.2600     0.2859   -49.8736     0.2234     0.0000  2790.0000
   7156.0000   199.1531     0.8315    87.1908    97.7508   170.2671     0.2858   -49.9513     0.2236     0.0000  2821.0000
   7156.5000   199.1531     0.7738    86.6339    90.3491   170.2742     0.2858   -48.8048     0.2210     0.0000  2837.0000
   7157.0000   199.1531     0.7897    86.4165    93.9838   170.2814     0.2857   -48.3570     0.2200     0.0000  2826.0000
   7157.5000   199.1531     0.8009    85.8851    91.3876   170.2885     0.2857   -47.2615     0.2175     0.0000  2823.0000
   7158.0000   199.1531     0.8564    86.0850   101.0482   170.2957     0.2856   -47.6738     0.2184     0.0000  2824.0000
   7158.5000   199.1531     0.8920    86.6220    96.8942   170.3028     0.2856   -48.7803     0.2209     0.0000  2813.0000
   7159.0000   199.1531     1.0875    86.9758    99.4464   170.3100     0.2856   -49.5088     0.2226     0.0000  2851.0000
