~VERSION INFORMATION
VERS.           1.2   :CWLS Log ASCII Standard - VERSION 1.2
WRAP.           NO    :One Line per depth step
PROD.  Schlumberger   :LAS Producer
PROG.  DLIS to ASCII 10C0-306                          :LAS Program name and version
CREA.        2009/06/06 23:09                          :LAS Creation date {YYYY/MM/DD hh:mm}
SOURCE.     d986ea9e-f59c-4559-942d-7b7265e62d76       :DLIS File Name
#--------------------------------------------------
~WELL INFORMATION
#MNEM.UNIT      DATA             DESCRIPTION
#---- ------ --------------   -----------------------------
STRT .F      1945.5000       :START DEPTH     
STOP .F      10600.5000      :STOP DEPTH     
STEP .F       0.5000         :STEP       
NULL .          -999.25      :NULL VALUE
COMP .                 COMPANY:  DENBURY ONSHORE, LLC               
WELL .                    WELL:  CFU 31F #1                         
FLD  .                   FIELD:  CRANFIELD FIELD UNIT               
LOC  .                LOCATION:  X: 248,375.1'                      
CNTY .                  COUNTY:  FRANKLIN                           
STAT .                   STATE:  MISSISSIPPI                        
CTRY .                 COUNTRY:                                     
SRVC .         SERVICE COMPANY:  Schlumberger                       
API  .              API NUMBER:  23-037-21488-0000                  
DATE .                LOG DATE:  6-Jun-2009
UWI  .          UNIQUE WELL ID:                                     
#-----------------------------------------------------------------------------
~PARAMETER INFORMATION
#MNEM.UNIT    VALUE                      DESCRIPTION
#---- -----   --------------------       ------------------------
CN   .        DENBURY ONSHORE  LLC       :Company Name
WN   .        CFU 31F #1                 :Well Name
FN   .        CRANFIELD FIELD UNIT       :Field Name
FL   .        X  248 375.1'              :Field Location
FL1  .        Y  387 674.2'              :Field Location Line 1
COUN .        FRANKLIN                   :County or Rig Name
STAT .        MISSISSIPPI                :State or Province
NATI .                                   :Nation
DATE .        6-Jun-2009                 :Date as Month-Day-Year
APIN .        23-037-21488-0000          :API Serial Number
SECT .        31                         :Section
TOWN .        7N                         :Township
RANG .        1E                         :Range
DMF  .        KELLY BUSHING              :Drilling Measured From
LMF  .        KELLY BUSHING              :Log Measured From
PDAT .        GROUND LEVEL               :Permanent Datum
ENGI .        CHRISTIAN ZACCARO          :Engineer's Name
WITN .        FRED WALSH                 :Witness's Name
LATI .                                   :Latitude
LONG .                                   :Longitude
LUL  .        NATCHEZ  MS                :Logging Unit Location
LUN  .              2157                 :Logging Unit Number
RUN  .        ONE                        :Run Number
SON  .        APWH-00103                 :Service Order Number
BHT  .DEGF     220.00000                 :Bottom Hole Temperature (used in calculations)
BS   .IN         8.75000                 :Bit Size
DFD  .LB/G       9.90000                 :Drilling Fluid Density
DFV  .S         42.00000                 :Drilling Fluid Viscosity
DFL  .C3         8.30000                 :Drilling Fluid Loss
RMFS .OHMM       1.21700                 :Resistivity of Mud Filtrate Sample
EKB  .F        333.70001                 :Elevation of Kelly Bushing
EGL  .F        315.70001                 :Elevation of Ground Level
BLI  .F       10628.00000                :Bottom Log Interval
BSAL .PPM     2600.00000                 :Borehole Salinity
FLEV .F          0.00000                 :Fluid Level
MCST .DEGF      74.90000                 :Mud Cake Sample Temperature
MFST .DEGF      74.80000                 :Mud Filtrate Sample Temperature
MRT  .DEGF     221.00000                 :Maximum Recorded Temperature
MST  .DEGF      76.20000                 :Mud Sample Temperature
RMCS .OHMM       1.89800                 :Resistivity of Mud Cake Sample
RMS  .OHMM       1.45600                 :Resistivity of Mud Sample
RW   .OHMM       1.00000                 :Resistivity of Connate Water
TDD  .F       10700.00000                :Total Depth - Driller
TDL  .F       10636.00000                :Total Depth - Logger
TLI  .F       2028.00000                 :Top Log Interval
HIDE .        CALIPER LOG                :Header Identifier
MATR .        LIME                       :Rock Matrix for Neutron Porosity Corrections
FNUM .           1.00000                 :Form Factor Numerator
FEXP .           2.00000                 :Form Factor Exponent
DFT  .        FRESH WATER-BASED MUD      :Drilling Fluid Type
DFPH .           9.60000                 :Drilling Fluid PH
MCSS .        MUDPRESS                   :Mud Cake Sample Source
MFSS .        MUDPRESS                   :Mud Filtrate Sample Source
MSS  .        MUDPIT                     :Mud Sample Source
OS1  .        BHC SONIC                  :Other Services Line 1
OS2  .        CST                        :Other Services Line 2
OS3  .                                   :Other Services Line 3
OS4  .                                   :Other Services Line 4
OS5  .                                   :Other Services Line 5
R1   .        FIRST RUN IN WELL          :Remark Line 1
R2   .        ALL SCHLUMBERGER DEPTH PROCEDURES FOLLOWED :Remark Line 2
R3   .        TWO 1.5  STANDOFFS RAN ON INDUCTION TOOL :Remark Line 3
R4   .        BOWSPRING RAN ON NEUTRON TOOL FOR ECCENTRALIZATION :Remark Line 4
R5   .        MATRIX  LIMESTONE  2.71 G/CC :Remark Line 5
R6   .        CHLORIDES  2600PPM         :Remark Line 6
R7   .                                   :Remark Line 7
R8   .        BOREHOLE ENVIRONMENT MAY AFFECT LOG QUALITY :Remark Line 8
TCS  .        18 00                      :Time Circulation Stopped
TLAB .        1 30                       :Time Logger At Bottom
EPD  .F         315.700012               :Elevation of Permanent Datum above Mean Sea Level
APD  .F          18.000000               :Elevation of Depth Reference (LMF) above Permanent Datum
#-----------------------------------------------------------------------------
~CURVE INFORMATION
#MNEM.UNIT   API CODE                                  DESCRIPTION
#---- -----  --------                                  -----------------------
DEPT .F                                                :DEPTH (BOREHOLE) {F12.4}
CTEM .DEGF                                             :Cartridge Temperature {F11.4}
DCAL .IN                                               :Differential Caliper {F11.4}
DT   .US/F                                             :Delta-T {F11.4}
GR_EDTC.GAPI                                           :Gamma Ray {F11.4}
GTEM .DEGF                                             :Generalized Borehole Temperature {F11.4}
ITT  .S                                                :Integrated Transit Time {F11.4}
RWA  .OHMM                                             :Apparent Water Resistivity {F11.4}
SPHI .CFCF                                             :Sonic Porosity {F11.4}
STIT .F                                                :Stuck Tool Indicator, Total {F11.4}
TENS .LBF                                              :Cable Tension {F11.4}
#-----------------------------------------------------------------------------
# 
#      DEPT        CTEM       DCAL        DT      GR_EDTC      GTEM       ITT        RWA        SPHI       STIT       TENS
#
~A  
# ...
   4255.5000   171.4825     0.2602   109.8642    68.5523   128.8158     0.5672   -93.8258     0.3064     0.0000  1901.0000
   4256.0000   171.4825     0.4795   110.9662    66.5422   128.8229     0.5672   -95.7732     0.3096     0.0000  1904.0000
   4256.5000   171.4825     0.4949   111.7303    73.8208   128.8301     0.5671   -97.1124     0.3117     0.0000  1858.0000
   4257.0000   171.4825     0.5359   112.6577    87.7737   128.8372     0.5671   -98.7258     0.3143     0.0000  1848.0000
   4257.5000   171.4825     0.4925   113.6178    89.1686   128.8443     0.5670  -100.3818     0.3169     0.0000  1869.0000
   4258.0000   171.4825     0.4714   117.6676    91.2482   128.8515     0.5670  -107.2098     0.3276     0.0000  1877.0000
   4258.5000   171.4825     0.5100   119.3332    91.2482   128.8586     0.5669  -109.9448     0.3317     0.0000  1861.0000
   4259.0000   171.4825     0.5045   121.2240    91.8634   128.8658     0.5668  -112.9983     0.3363     0.0000  1864.0000
   4259.5000   171.4825     0.4934   118.9871    86.9211   128.8729     0.5668  -109.3800     0.3309     0.0000  1846.0000
   4260.0000   171.4825     0.5736   119.6471    79.5949   128.8801     0.5667  -110.4555     0.3325     0.0000  1856.0000
   4260.5000   171.4825     0.6934   119.3605    84.8677   128.8872     0.5667  -109.9893     0.3318     0.0000  1874.0000
   4261.0000   171.4825     0.4460   116.6581    96.3951   128.8944     0.5666  -105.5316     0.3250     0.0000  1882.0000
   4261.5000   171.4825     0.4578   115.6504   102.1655   128.9015     0.5665  -103.8405     0.3224     0.0000  1895.0000
   4262.0000   171.4825     0.4220   111.9728   102.1655   128.9087     0.5665   -97.5356     0.3124     0.0000  1874.0000
   4262.5000   171.4825     0.4382   109.5574    98.6999   128.9158     0.5664   -93.2802     0.3055     0.0000  1866.0000
   4263.0000   171.4825     0.2628   110.0042    98.9847   128.9230     0.5664   -94.0743     0.3068     0.0000  1874.0000
   4263.5000   171.4825     0.2655   111.1862    91.7061   128.9301     0.5663   -96.1598     0.3102     0.0000  1857.0000
   4264.0000   171.4825     0.2724   110.1320    85.4038   128.9372     0.5663   -94.3007     0.3072     0.0000  1887.0000
   4264.5000   171.4825     0.2593   110.5127    78.9607   128.9444     0.5662   -94.9742     0.3083     0.0000  1874.0000
   4265.0000   171.4825     0.2325   111.1989    83.4683   128.9515     0.5662   -96.1821     0.3102     0.0000  1852.0000
   4265.5000   171.4825     0.2448   111.6087    84.4397   128.9587     0.5661   -96.9000     0.3114     0.0000  1863.0000
   4266.0000   171.4825     0.2724   112.0914    85.9994   128.9658     0.5660   -97.7423     0.3128     0.0000  1868.0000
   4266.5000   171.4825     0.2655   111.8775    83.3906   128.9730     0.5660   -97.3695     0.3122     0.0000  1859.0000
   4267.0000   171.4825     0.2654   111.8164    81.3820   128.9801     0.5659   -97.2628     0.3120     0.0000  1873.0000
   4267.5000   171.4825     0.2785   111.3681    80.7947   128.9873     0.5659   -96.4788     0.3107     0.0000  1868.0000
   4268.0000   171.4825     0.2724   111.7269    78.3759   128.9944     0.5658   -97.1065     0.3117     0.0000  1850.0000
   4268.5000   171.4825     0.2654   112.1833    80.2749   129.0016     0.5658   -97.9021     0.3130     0.0000  1854.0000
   4269.0000   171.4825     0.2665   112.3532    81.8307   129.0087     0.5657   -98.1974     0.3135     0.0000  1832.0000
   4269.5000   171.4825     0.2615   112.1860    84.3563   129.0158     0.5657   -97.9068     0.3130     0.0000  1855.0000
   4270.0000   171.4825     0.2483   111.3782    92.8171   129.0230     0.5656   -96.4964     0.3108     0.0000  1877.0000
   4270.5000   171.4825     0.2586   110.5890    90.2889   129.0301     0.5655   -95.1087     0.3085     0.0000  1866.0000
   4271.0000   171.4825     0.2275   109.8979    83.0843   129.0373     0.5655   -93.8856     0.3065     0.0000  1863.0000
   4271.5000   171.4825     0.2268   109.5114    73.3053   129.0444     0.5654   -93.1984     0.3054     0.0000  1845.0000
   4272.0000   171.4825     0.2268   109.6041    82.0567   129.0516     0.5654   -93.3634     0.3057     0.0000  1861.0000
   4272.5000   171.4825     0.2425   108.0926    89.9821   129.0587     0.5653   -90.6556     0.3012     0.0000  1867.0000
   4273.0000   171.4825     0.3123   110.7559   102.3662   129.0659     0.5653   -95.4030     0.3090     0.0000  1854.0000
   4273.5000   171.4825     0.4968   114.0520    96.1430   129.0730     0.5652  -101.1260     0.3181     0.0000  1867.0000
   4274.0000   171.4825     0.6208   112.9737    90.8529   129.0802     0.5652   -99.2724     0.3152     0.0000  1870.0000
   4274.5000   171.4825     1.2018   113.0143    79.4436   129.0873     0.5651   -99.3425     0.3153     0.0000  1853.0000
   4275.0000   171.4825     1.2171   108.7665    83.5924   129.0944     0.5650   -91.8673     0.3032     0.0000  1865.0000
   4275.5000   171.4825     1.0054   105.1809    90.2864   129.1016     0.5650   -85.3402     0.2922     0.0000  1859.0000
   4276.0000   171.4825     0.9786   107.6489    97.4642   129.1087     0.5649   -89.8539     0.2999     0.0000  1858.0000
   4276.5000   171.4825     0.8470   110.6225   105.3444   129.1159     0.5649   -95.1679     0.3086     0.0000  1853.0000
   4277.0000   171.4825     0.7222   111.1916   102.7739   129.1230     0.5648   -96.1693     0.3102     0.0000  1829.0000
   4277.5000   171.4825     0.6370   111.0294   100.7710   129.1302     0.5648   -95.8843     0.3098     0.0000  1861.0000
   4278.0000   171.4825     0.5854   109.2540    90.3730   129.1373     0.5647   -92.7394     0.3046     0.0000  1869.0000
   4278.5000   171.4825     0.4971   106.0038    91.4128   129.1445     0.5647   -86.8556     0.2948     0.0000  1889.0000
   4279.0000   171.4825     0.4925   105.9172    88.3023   129.1516     0.5646   -86.6965     0.2946     0.0000  1882.0000
   4279.5000   171.4825     0.4299   106.1019    85.7028   129.1588     0.5646   -87.0354     0.2951     0.0000  1858.0000
   4280.0000   171.4825     0.4034   106.3354    81.0238   129.1659     0.5645   -87.4633     0.2959     0.0000  1853.0000
   4280.5000   171.4825     0.3609   105.9340    77.4035   129.1730     0.5644   -86.7274     0.2946     0.0000  1862.0000
   4281.0000   171.4825     0.3471   106.1129    80.5752   129.1802     0.5644   -87.0556     0.2952     0.0000  1858.0000
   4281.5000   171.4825     0.3291   104.9763    79.4745   129.1873     0.5643   -84.9617     0.2916     0.0000  1858.0000
   4282.0000   171.4825     0.3982   104.6072    86.7172   129.1945     0.5643   -84.2776     0.2904     0.0000  1858.0000
   4282.5000   171.4825     0.7170   105.2299    98.1026   129.2016     0.5642   -85.4306     0.2924     0.0000  1847.0000
   4283.0000   171.4825     0.5718   105.4181   107.3535   129.2088     0.5642   -85.7780     0.2930     0.0000  1848.0000
   4283.5000   171.4825     0.6798   106.8981   113.1692   129.2159     0.5641   -88.4907     0.2976     0.0000  1865.0000
   4284.0000   171.4825     0.9083   107.9944    96.5325   129.2231     0.5641   -90.4784     0.3009     0.0000  1864.0000
   4284.5000   171.4825     0.8614   108.3258    97.1961   129.2302     0.5640   -91.0756     0.3019     0.0000  1864.0000
   4285.0000   171.4825     0.5788   106.8310   102.8073   129.2374     0.5640   -88.3684     0.2974     0.0000  1857.0000
   4285.5000   171.4825     0.2949   104.8078   113.2053   129.2445     0.5639   -84.6497     0.2911     0.0000  1853.0000
   4286.0000   171.4825     0.3477   102.4707   109.1975   129.2516     0.5639   -80.2775     0.2834     0.0000  1869.0000
   4286.5000   171.4825     0.3670   101.5299    99.3441   129.2588     0.5638   -78.4946     0.2803     0.0000  1849.0000
   4287.0000   171.4825     0.3215   102.0670    97.6988   129.2659     0.5638   -79.5139     0.2821     0.0000  1872.0000
   4287.5000   171.4825     0.3864   101.8584   103.0425   129.2731     0.5637   -79.1186     0.2814     0.0000  1872.0000
   4288.0000   171.4825     0.3363   102.5621   107.2847   129.2802     0.5637   -80.4498     0.2837     0.0000  1895.0000
