~VERSION INFORMATION
VERS.           1.2   :CWLS Log ASCII Standard - VERSION 1.2
WRAP.           NO    :One Line per depth step
PROD.  Schlumberger   :LAS Producer
PROG.  DLIS to ASCII 10C0-306                          :LAS Program name and version
CREA.        2009/06/06 23:09                          :LAS Creation date {YYYY/MM/DD hh:mm}
SOURCE.     d986ea9e-f59c-4559-942d-7b7265e62d76       :DLIS File Name
#--------------------------------------------------
~WELL INFORMATION
#MNEM.UNIT      DATA             DESCRIPTION
#---- ------ --------------   -----------------------------
STRT .F      1945.5000       :START DEPTH     
STOP .F      10600.5000      :STOP DEPTH     
STEP .F       0.5000         :STEP       
NULL .          -999.25      :NULL VALUE
COMP .                 COMPANY:  DENBURY ONSHORE, LLC               
WELL .                    WELL:  CFU 31F #1                         
FLD  .                   FIELD:  CRANFIELD FIELD UNIT               
LOC  .                LOCATION:  X: 248,375.1'                      
CNTY .                  COUNTY:  FRANKLIN                           
STAT .                   STATE:  MISSISSIPPI                        
CTRY .                 COUNTRY:                                     
SRVC .         SERVICE COMPANY:  Schlumberger                       
API  .              API NUMBER:  23-037-21488-0000                  
DATE .                LOG DATE:  6-Jun-2009
UWI  .          UNIQUE WELL ID:                                     
#-----------------------------------------------------------------------------
~PARAMETER INFORMATION
#MNEM.UNIT    VALUE                      DESCRIPTION
#---- -----   --------------------       ------------------------
CN   .        DENBURY ONSHORE  LLC       :Company Name
WN   .        CFU 31F #1                 :Well Name
FN   .        CRANFIELD FIELD UNIT       :Field Name
FL   .        X  248 375.1'              :Field Location
FL1  .        Y  387 674.2'              :Field Location Line 1
COUN .        FRANKLIN                   :County or Rig Name
STAT .        MISSISSIPPI                :State or Province
NATI .                                   :Nation
DATE .        6-Jun-2009                 :Date as Month-Day-Year
APIN .        23-037-21488-0000          :API Serial Number
SECT .        31                         :Section
TOWN .        7N                         :Township
RANG .        1E                         :Range
DMF  .        KELLY BUSHING              :Drilling Measured From
LMF  .        KELLY BUSHING              :Log Measured From
PDAT .        GROUND LEVEL               :Permanent Datum
ENGI .        CHRISTIAN ZACCARO          :Engineer's Name
WITN .        FRED WALSH                 :Witness's Name
LATI .                                   :Latitude
LONG .                                   :Longitude
LUL  .        NATCHEZ  MS                :Logging Unit Location
LUN  .              2157                 :Logging Unit Number
RUN  .        ONE                        :Run Number
SON  .        APWH-00103                 :Service Order Number
BHT  .DEGF     220.00000                 :Bottom Hole Temperature (used in calculations)
BS   .IN         8.75000                 :Bit Size
DFD  .LB/G       9.90000                 :Drilling Fluid Density
DFV  .S         42.00000                 :Drilling Fluid Viscosity
DFL  .C3         8.30000                 :Drilling Fluid Loss
RMFS .OHMM       1.21700                 :Resistivity of Mud Filtrate Sample
EKB  .F        333.70001                 :Elevation of Kelly Bushing
EGL  .F        315.70001                 :Elevation of Ground Level
BLI  .F       10628.00000                :Bottom Log Interval
BSAL .PPM     2600.00000                 :Borehole Salinity
FLEV .F          0.00000                 :Fluid Level
MCST .DEGF      74.90000                 :Mud Cake Sample Temperature
MFST .DEGF      74.80000                 :Mud Filtrate Sample Temperature
MRT  .DEGF     221.00000                 :Maximum Recorded Temperature
MST  .DEGF      76.20000                 :Mud Sample Temperature
RMCS .OHMM       1.89800                 :Resistivity of Mud Cake Sample
RMS  .OHMM       1.45600                 :Resistivity of Mud Sample
RW   .OHMM       1.00000                 :Resistivity of Connate Water
TDD  .F       10700.00000                :Total Depth - Driller
TDL  .F       10636.00000                :Total Depth - Logger
TLI  .F       2028.00000                 :Top Log Interval
HIDE .        CALIPER LOG                :Header Identifier
MATR .        LIME                       :Rock Matrix for Neutron Porosity Corrections
FNUM .           1.00000                 :Form Factor Numerator
FEXP .           2.00000                 :Form Factor Exponent
DFT  .        FRESH WATER-BASED MUD      :Drilling Fluid Type
DFPH .           9.60000                 :Drilling Fluid PH
MCSS .        MUDPRESS                   :Mud Cake Sample Source
MFSS .        MUDPRESS                   :Mud Filtrate Sample Source
MSS  .        MUDPIT                     :Mud Sample Source
OS1  .        BHC SONIC                  :Other Services Line 1
OS2  .        CST                        :Other Services Line 2
OS3  .                                   :Other Services Line 3
OS4  .                                   :Other Services Line 4
OS5  .                                   :Other Services Line 5
R1   .        FIRST RUN IN WELL          :Remark Line 1
R2   .        ALL SCHLUMBERGER DEPTH PROCEDURES FOLLOWED :Remark Line 2
R3   .        TWO 1.5  STANDOFFS RAN ON INDUCTION TOOL :Remark Line 3
R4   .        BOWSPRING RAN ON NEUTRON TOOL FOR ECCENTRALIZATION :Remark Line 4
R5   .        MATRIX  LIMESTONE  2.71 G/CC :Remark Line 5
R6   .        CHLORIDES  2600PPM         :Remark Line 6
R7   .                                   :Remark Line 7
R8   .        BOREHOLE ENVIRONMENT MAY AFFECT LOG QUALITY :Remark Line 8
TCS  .        18 00                      :Time Circulation Stopped
TLAB .        1 30                       :Time Logger At Bottom
EPD  .F         315.700012               :Elevation of Permanent Datum above Mean Sea Level
APD  .F          18.000000               :Elevation of Depth Reference (LMF) above Permanent Datum
#-----------------------------------------------------------------------------
~CURVE INFORMATION
#MNEM.UNIT   API CODE                                  DESCRIPTION
#---- -----  --------                                  -----------------------
DEPT .F                                                :DEPTH (BOREHOLE) {F12.4}
CTEM .DEGF                                             :Cartridge Temperature {F11.4}
DCAL .IN                                               :Differential Caliper {F11.4}
DT   .US/F                                             :Delta-T {F11.4}
GR_EDTC.GAPI                                           :Gamma Ray {F11.4}
GTEM .DEGF                                             :Generalized Borehole Temperature {F11.4}
ITT  .S                                                :Integrated Transit Time {F11.4}
RWA  .OHMM                                             :Apparent Water Resistivity {F11.4}
SPHI .CFCF                                             :Sonic Porosity {F11.4}
STIT .F                                                :Stuck Tool Indicator, Total {F11.4}
TENS .LBF                                              :Cable Tension {F11.4}
#-----------------------------------------------------------------------------
# 
#      DEPT        CTEM       DCAL        DT      GR_EDTC      GTEM       ITT        RWA        SPHI       STIT       TENS
#
~A  
# ...
   9403.5000   218.9178     1.1053    73.3001    90.1768   202.3863     0.0926   -21.7432     0.1475     0.0000  3404.0000
   9404.0000   218.9178     1.1111    74.4223    77.9580   202.3935     0.0925   -23.9175     0.1547     0.0000  3393.0000
   9404.5000   218.9178     1.4792    73.6468    79.9071   202.4006     0.0925   -22.4109     0.1498     0.0000  3361.0000
   9405.0000   218.9178     1.3078    73.5425    82.4247   202.4078     0.0925   -22.2095     0.1491     0.0000  3330.0000
   9405.5000   218.9178     0.7833    71.9421    77.7398   202.4149     0.0924   -19.1673     0.1385     0.0000  3419.0000
   9406.0000   218.9178     0.7705    70.7535    64.8601   202.4221     0.0924   -16.9719     0.1303     0.0000  3431.0000
   9406.5000   218.9178     0.7318    67.4789    56.5223   202.4292     0.0923   -11.2953     0.1063     0.0000  3499.0000
   9407.0000   218.9178     0.7705    65.2408    55.1660   202.4364     0.0923    -7.8310     0.0885     0.0000  3524.0000
   9407.5000   218.9178     0.9091    67.1114    51.6146   202.4435     0.0923   -10.6999     0.1035     0.0000  3632.0000
   9408.0000   218.9178     0.9971    69.7802    56.0760   202.4507     0.0922   -15.2223     0.1234     0.0000  3599.0000
   9408.5000   218.9178     1.0423    71.1572    58.4826   202.4578     0.0922   -17.7106     0.1331     0.0000  3405.0000
   9409.0000   218.9178     0.7380    69.2092    58.4714   202.4649     0.0922   -14.2188     0.1193     0.0000  3388.0000
   9409.5000   218.9178     0.6881    67.2782    54.5293   202.4721     0.0921   -10.9690     0.1048     0.0000  3428.0000
   9410.0000   218.9178     1.1526    66.2942    62.8206   202.4792     0.0921    -9.4117     0.0971     0.0000  3430.0000
   9410.5000   218.9178     0.8799    71.0946    71.6394   202.4864     0.0921   -17.5957     0.1327     0.0000  3479.0000
   9411.0000   218.9178     0.8883    76.9553    82.2041   202.4935     0.0920   -28.9431     0.1702     0.0000  3488.0000
   9411.5000   218.9178     0.7336    78.3683    75.1383   202.5007     0.0920   -31.7995     0.1784     0.0000  3464.0000
   9412.0000   218.9178     0.7614    79.4167    77.2153   202.5078     0.0920   -33.9361     0.1843     0.0000  3518.0000
   9412.5000   218.9178     0.7614    77.4923    78.1630   202.5150     0.0919   -30.0250     0.1733     0.0000  3356.0000
   9413.0000   218.9178     0.7545    71.7255    72.2643   202.5221     0.0919   -18.7627     0.1370     0.0000  3364.0000
   9413.5000   218.9178     0.7344    67.2132    58.6828   202.5293     0.0918   -10.8639     0.1043     0.0000  3416.0000
   9414.0000   218.9178     0.7275    65.8936    52.9094   202.5364     0.0918    -8.7995     0.0938     0.0000  3462.0000
   9414.5000   218.9178     0.7614    64.3184    51.1944   202.5435     0.0918    -6.5290     0.0808     0.0000  3468.0000
   9415.0000   218.9178     0.7018    64.6362    56.0686   202.5507     0.0917    -6.9683     0.0835     0.0000  3529.0000
   9415.5000   218.9178     0.6889    64.8094    46.2055   202.5578     0.0917    -7.2120     0.0850     0.0000  3652.0000
   9416.0000   218.9178     0.6820    64.4018    45.3158   202.5650     0.0917    -6.6432     0.0815     0.0000  3696.0000
   9416.5000   218.9178     0.6950    66.5802    49.3500   202.5721     0.0916    -9.8567     0.0993     0.0000  3592.0000
   9417.0000   218.9178     0.7088    67.3080    56.0803   202.5793     0.0916   -11.0172     0.1050     0.0000  3487.0000
   9417.5000   218.9178     0.7003    66.9126    57.4148   202.5864     0.0916   -10.3818     0.1019     0.0000  3442.0000
   9418.0000   218.9178     0.6880    65.0140    49.6436   202.5936     0.0915    -7.5034     0.0867     0.0000  3401.0000
   9418.5000   218.9178     0.7582    63.0261    41.1718   202.6007     0.0915    -4.8509     0.0697     0.0000  3432.0000
   9419.0000   218.9178     0.7128    61.8886    42.4192   202.6078     0.0915    -3.5337     0.0595     0.0000  3426.0000
   9419.5000   218.9178     0.7257    62.6275    48.8881   202.6150     0.0915    -4.3713     0.0661     0.0000  3409.0000
   9420.0000   218.9178     0.7703    64.7535    55.7922   202.6221     0.0914    -7.1329     0.0845     0.0000  3429.0000
   9420.5000   218.9178     0.7961    65.7223    53.2269   202.6293     0.0914    -8.5417     0.0925     0.0000  3405.0000
   9421.0000   218.9178     0.8356    66.1697    49.3368   202.6364     0.0914    -9.2200     0.0961     0.0000  3403.0000
   9421.5000   218.9178     0.8801    65.8705    46.4210   202.6436     0.0913    -8.7646     0.0937     0.0000  3419.0000
   9422.0000   218.9178     0.9691    65.3681    45.5461   202.6507     0.0913    -8.0169     0.0896     0.0000  3395.0000
   9422.5000   218.9178     0.9866    66.8451    53.3348   202.6579     0.0913   -10.2745     0.1014     0.0000  3421.0000
   9423.0000   218.9178     1.1585    72.9710    67.1398   202.6650     0.0912   -21.1128     0.1454     0.0000  3411.0000
   9423.5000   218.9178     1.5763    76.0365    82.0261   202.6722     0.0912   -27.1039     0.1647     0.0000  3430.0000
   9424.0000   218.9178     1.1230    77.1134    84.7852   202.6793     0.0912   -29.2611     0.1711     0.0000  3440.0000
   9424.5000   218.9178     1.2184    79.1917    89.4734   202.6864     0.0911   -33.4765     0.1830     0.0000  3426.0000
   9425.0000   218.9178     1.8444    79.7242    96.3525   202.6936     0.0911   -34.5650     0.1860     0.0000  3470.0000
   9425.5000   218.9178     2.4194    86.4154   100.3047   202.7007     0.0910   -48.3547     0.2200     0.0000  3457.0000
   9426.0000   218.9178     2.6174    90.4469    93.4476   202.7079     0.0910   -56.6171     0.2380     0.0000  3436.0000
   9426.5000   218.9178     3.1607    85.6648    89.6841   202.7150     0.0909   -46.8072     0.2164     0.0000  3487.0000
   9427.0000   218.9178     1.5649    81.4430    87.0373   202.7222     0.0909   -38.0945     0.1953     0.0000  3459.0000
   9427.5000   218.9178     1.6233    78.4934    91.0173   202.7293     0.0909   -32.0536     0.1791     0.0000  3399.0000
   9428.0000   218.9178     2.3581    78.4801    83.7479   202.7365     0.0908   -32.0266     0.1790     0.0000  3494.0000
   9428.5000   218.9178     2.4822    79.6039    88.2314   202.7436     0.0908   -34.3188     0.1853     0.0000  3452.0000
   9429.0000   218.9178     2.4691    80.3537    88.5122   202.7508     0.0907   -35.8551     0.1894     0.0000  3452.0000
   9429.5000   218.9178     2.9096    84.5074   101.2837   202.7579     0.0907   -44.4181     0.2108     0.0000  3408.0000
   9430.0000   218.9178     2.9251    85.5990   104.7237   202.7651     0.0907   -46.6715     0.2161     0.0000  3410.0000
   9430.5000   218.9178     2.2000    84.5021    98.2086   202.7722     0.0906   -44.4071     0.2108     0.0000  3406.0000
   9431.0000   218.9178     2.6190    81.4902    85.3494   202.7793     0.0906   -38.1918     0.1955     0.0000  3422.0000
   9431.5000   218.9178     1.0254    82.4942    76.9960   202.7865     0.0905   -40.2613     0.2007     0.0000  3482.0000
   9432.0000   218.9178     1.4843    84.3254    88.4988   202.7936     0.0905   -44.0422     0.2099     0.0000  3497.0000
   9432.5000   218.9178     1.7922    79.5964    91.7736   202.8008     0.0905   -34.3035     0.1853     0.0000  3435.0000
   9433.0000   218.9178     0.8230    77.2404    82.8824   202.8079     0.0904   -29.5170     0.1719     0.0000  3448.0000
   9433.5000   218.9178     0.8160    71.7571    64.8921   202.8151     0.0904   -18.8217     0.1372     0.0000  3447.0000
   9434.0000   218.9178     0.8291    68.8369    55.8555   202.8222     0.0903   -13.5742     0.1166     0.0000  3395.0000
   9434.5000   218.9178     0.8529    72.0029    65.6213   202.8294     0.0903   -19.2811     0.1389     0.0000  3453.0000
   9435.0000   218.9178     1.0906    78.3819    73.9824   202.8365     0.0903   -31.8270     0.1785     0.0000  3390.0000
   9435.5000   218.9178     1.7820    86.9197    87.7870   202.8436     0.0902   -49.3934     0.2223     0.0000  3405.0000
   9436.0000   218.9178     2.2719    88.7585    95.1298   202.8508     0.0902   -53.1695     0.2307     0.0000  3426.0000
