~VERSION INFORMATION
VERS.           1.2   :CWLS Log ASCII Standard - VERSION 1.2
WRAP.           NO    :One Line per depth step
PROD.  Schlumberger   :LAS Producer
PROG.  DLIS to ASCII 10C0-306                          :LAS Program name and version
CREA.        2009/06/06 23:09                          :LAS Creation date {YYYY/MM/DD hh:mm}
SOURCE.     d986ea9e-f59c-4559-942d-7b7265e62d76       :DLIS File Name
#--------------------------------------------------
~WELL INFORMATION
#MNEM.UNIT      DATA             DESCRIPTION
#---- ------ --------------   -----------------------------
STRT .F      1945.5000       :START DEPTH     
STOP .F      10600.5000      :STOP DEPTH     
STEP .F       0.5000         :STEP       
NULL .          -999.25      :NULL VALUE
COMP .                 COMPANY:  DENBURY ONSHORE, LLC               
WELL .                    WELL:  CFU 31F #1                         
FLD  .                   FIELD:  CRANFIELD FIELD UNIT               
LOC  .                LOCATION:  X: 248,375.1'                      
CNTY .                  COUNTY:  FRANKLIN                           
STAT .                   STATE:  MISSISSIPPI                        
CTRY .                 COUNTRY:                                     
SRVC .         SERVICE COMPANY:  Schlumberger                       
API  .              API NUMBER:  23-037-21488-0000                  
DATE .                LOG DATE:  6-Jun-2009
UWI  .          UNIQUE WELL ID:                                     
#-----------------------------------------------------------------------------
~PARAMETER INFORMATION
#MNEM.UNIT    VALUE                      DESCRIPTION
#---- -----   --------------------       ------------------------
CN   .        DENBURY ONSHORE  LLC       :Company Name
WN   .        CFU 31F #1                 :Well Name
FN   .        CRANFIELD FIELD UNIT       :Field Name
FL   .        X  248 375.1'              :Field Location
FL1  .        Y  387 674.2'              :Field Location Line 1
COUN .        FRANKLIN                   :County or Rig Name
STAT .        MISSISSIPPI                :State or Province
NATI .                                   :Nation
DATE .        6-Jun-2009                 :Date as Month-Day-Year
APIN .        23-037-21488-0000          :API Serial Number
SECT .        31                         :Section
TOWN .        7N                         :Township
RANG .        1E                         :Range
DMF  .        KELLY BUSHING              :Drilling Measured From
LMF  .        KELLY BUSHING              :Log Measured From
PDAT .        GROUND LEVEL               :Permanent Datum
ENGI .        CHRISTIAN ZACCARO          :Engineer's Name
WITN .        FRED WALSH                 :Witness's Name
LATI .                                   :Latitude
LONG .                                   :Longitude
LUL  .        NATCHEZ  MS                :Logging Unit Location
LUN  .              2157                 :Logging Unit Number
RUN  .        ONE                        :Run Number
SON  .        APWH-00103                 :Service Order Number
BHT  .DEGF     220.00000                 :Bottom Hole Temperature (used in calculations)
BS   .IN         8.75000                 :Bit Size
DFD  .LB/G       9.90000                 :Drilling Fluid Density
DFV  .S         42.00000                 :Drilling Fluid Viscosity
DFL  .C3         8.30000                 :Drilling Fluid Loss
RMFS .OHMM       1.21700                 :Resistivity of Mud Filtrate Sample
EKB  .F        333.70001                 :Elevation of Kelly Bushing
EGL  .F        315.70001                 :Elevation of Ground Level
BLI  .F       10628.00000                :Bottom Log Interval
BSAL .PPM     2600.00000                 :Borehole Salinity
FLEV .F          0.00000                 :Fluid Level
MCST .DEGF      74.90000                 :Mud Cake Sample Temperature
MFST .DEGF      74.80000                 :Mud Filtrate Sample Temperature
MRT  .DEGF     221.00000                 :Maximum Recorded Temperature
MST  .DEGF      76.20000                 :Mud Sample Temperature
RMCS .OHMM       1.89800                 :Resistivity of Mud Cake Sample
RMS  .OHMM       1.45600                 :Resistivity of Mud Sample
RW   .OHMM       1.00000                 :Resistivity of Connate Water
TDD  .F       10700.00000                :Total Depth - Driller
TDL  .F       10636.00000                :Total Depth - Logger
TLI  .F       2028.00000                 :Top Log Interval
HIDE .        CALIPER LOG                :Header Identifier
MATR .        LIME                       :Rock Matrix for Neutron Porosity Corrections
FNUM .           1.00000                 :Form Factor Numerator
FEXP .           2.00000                 :Form Factor Exponent
DFT  .        FRESH WATER-BASED MUD      :Drilling Fluid Type
DFPH .           9.60000                 :Drilling Fluid PH
MCSS .        MUDPRESS                   :Mud Cake Sample Source
MFSS .        MUDPRESS                   :Mud Filtrate Sample Source
MSS  .        MUDPIT                     :Mud Sample Source
OS1  .        BHC SONIC                  :Other Services Line 1
OS2  .        CST                        :Other Services Line 2
OS3  .                                   :Other Services Line 3
OS4  .                                   :Other Services Line 4
OS5  .                                   :Other Services Line 5
R1   .        FIRST RUN IN WELL          :Remark Line 1
R2   .        ALL SCHLUMBERGER DEPTH PROCEDURES FOLLOWED :Remark Line 2
R3   .        TWO 1.5  STANDOFFS RAN ON INDUCTION TOOL :Remark Line 3
R4   .        BOWSPRING RAN ON NEUTRON TOOL FOR ECCENTRALIZATION :Remark Line 4
R5   .        MATRIX  LIMESTONE  2.71 G/CC :Remark Line 5
R6   .        CHLORIDES  2600PPM         :Remark Line 6
R7   .                                   :Remark Line 7
R8   .        BOREHOLE ENVIRONMENT MAY AFFECT LOG QUALITY :Remark Line 8
TCS  .        18 00                      :Time Circulation Stopped
TLAB .        1 30                       :Time Logger At Bottom
EPD  .F         315.700012               :Elevation of Permanent Datum above Mean Sea Level
APD  .F          18.000000               :Elevation of Depth Reference (LMF) above Permanent Datum
#-----------------------------------------------------------------------------
~CURVE INFORMATION
#MNEM.UNIT   API CODE                                  DESCRIPTION
#---- -----  --------                                  -----------------------
DEPT .F                                                :DEPTH (BOREHOLE) {F12.4}
CTEM .DEGF                                             :Cartridge Temperature {F11.4}
DCAL .IN                                               :Differential Caliper {F11.4}
DT   .US/F                                             :Delta-T {F11.4}
GR_EDTC.GAPI                                           :Gamma Ray {F11.4}
GTEM .DEGF                                             :Generalized Borehole Temperature {F11.4}
ITT  .S                                                :Integrated Transit Time {F11.4}
RWA  .OHMM                                             :Apparent Water Resistivity {F11.4}
SPHI .CFCF                                             :Sonic Porosity {F11.4}
STIT .F                                                :Stuck Tool Indicator, Total {F11.4}
TENS .LBF                                              :Cable Tension {F11.4}
#-----------------------------------------------------------------------------
# 
#      DEPT        CTEM       DCAL        DT      GR_EDTC      GTEM       ITT        RWA        SPHI       STIT       TENS
#
~A  
# ...
   8248.5000   211.0119     2.2129    97.0576    84.7387   185.8801     0.1858   -69.8492     0.2644     0.0000  3224.0000
   8249.0000   211.0119     2.4043    97.3020    88.2645   185.8873     0.1858   -70.3288     0.2653     0.0000  3206.0000
   8249.5000   211.0119     2.1784    97.9290    97.6731   185.8944     0.1857   -71.5551     0.2676     0.0000  3204.0000
   8250.0000   211.0119     2.3481    98.4471    97.0810   185.9016     0.1857   -72.5645     0.2695     0.0000  3182.0000
   8250.5000   211.0119     3.0078    98.2647    94.4459   185.9087     0.1856   -72.2095     0.2688     0.0000  3170.0000
   8251.0000   211.0119     2.9406    97.4969    89.1205   185.9158     0.1856   -70.7105     0.2660     0.0000  3166.0000
   8251.5000   211.0119     3.0435    97.3028    96.3900   185.9230     0.1855   -70.3303     0.2653     0.0000  3160.0000
   8252.0000   211.0119     3.2710    97.0914    94.8145   185.9301     0.1855   -69.9157     0.2645     0.0000  3224.0000
   8252.5000   211.0119     3.0502    96.9603   104.2070   185.9373     0.1854   -69.6583     0.2640     0.0000  3206.0000
   8253.0000   211.0119     2.6732    96.8538    94.3413   185.9444     0.1854   -69.4490     0.2636     0.0000  3179.0000
   8253.5000   211.0119     2.7529    96.4941   101.6858   185.9516     0.1853   -68.7411     0.2623     0.0000  3241.0000
   8254.0000   211.0119     2.8217    96.1955    89.1761   185.9587     0.1853   -68.1521     0.2612     0.0000  3220.0000
   8254.5000   211.0119     2.9687    96.6965    96.9228   185.9659     0.1852   -69.1396     0.2630     0.0000  3227.0000
   8255.0000   211.0119     3.1949    97.2080    88.9272   185.9730     0.1852   -70.1444     0.2649     0.0000  3202.0000
   8255.5000   211.0119     2.9247    97.3485    96.8505   185.9802     0.1851   -70.4199     0.2655     0.0000  3173.0000
   8256.0000   211.0119     2.9821    97.1702    97.3935   185.9873     0.1851   -70.0703     0.2648     0.0000  3196.0000
   8256.5000   211.0119     3.2959    97.1969   108.5551   185.9945     0.1850   -70.1226     0.2649     0.0000  3184.0000
   8257.0000   211.0119     2.9324    95.7778   106.4781   186.0016     0.1850   -67.3266     0.2596     0.0000  3206.0000
   8257.5000   211.0119     2.7469    95.9863    95.8274   186.0087     0.1849   -67.7389     0.2604     0.0000  3204.0000
   8258.0000   211.0119     2.3601    96.5572    91.1036   186.0159     0.1849   -68.8653     0.2625     0.0000  3169.0000
   8258.5000   211.0119     3.5194    95.9749    88.3126   186.0230     0.1848   -67.7163     0.2603     0.0000  3192.0000
   8259.0000   211.0119     3.1284    97.0395    97.9847   186.0302     0.1848   -69.8137     0.2643     0.0000  3186.0000
   8259.5000   211.0119     3.7231    97.6921    89.6767   186.0373     0.1847   -71.0923     0.2667     0.0000  3172.0000
   8260.0000   211.0119     2.3821    97.2404    91.0421   186.0445     0.1847   -70.2079     0.2651     0.0000  3186.0000
   8260.5000   211.0119     2.7535    96.8855    89.4824   186.0516     0.1846   -69.5112     0.2637     0.0000  3195.0000
   8261.0000   211.0119     2.5339    96.5899    97.1040   186.0587     0.1846   -68.9297     0.2626     0.0000  3166.0000
   8261.5000   211.0119     2.6535    95.6995    93.3702   186.0659     0.1845   -67.1714     0.2593     0.0000  3187.0000
   8262.0000   211.0119     2.3781    96.2945    93.8498   186.0730     0.1845   -68.3475     0.2615     0.0000  3180.0000
   8262.5000   211.0119     2.7603    96.1139    91.5554   186.0802     0.1845   -67.9910     0.2608     0.0000  3194.0000
   8263.0000   211.0119     2.4863    96.1425   100.9585   186.0873     0.1844   -68.0474     0.2610     0.0000  3160.0000
   8263.5000   211.0119     2.6301    95.8113   101.7179   186.0945     0.1844   -67.3929     0.2597     0.0000  3153.0000
   8264.0000   211.0119     2.4532    96.9830   100.0255   186.1016     0.1843   -69.7028     0.2641     0.0000  3191.0000
   8264.5000   211.0119     2.6286    97.3467   101.4735   186.1088     0.1843   -70.4163     0.2655     0.0000  3176.0000
   8265.0000   211.0119     2.8560    97.9865    97.5986   186.1159     0.1842   -71.6674     0.2678     0.0000  3202.0000
   8265.5000   211.0119     2.9357    99.0313    90.3292   186.1231     0.1842   -73.6984     0.2716     0.0000  3199.0000
   8266.0000   211.0119     3.0793    98.6919    80.5724   186.1302     0.1841   -73.0402     0.2704     0.0000  3176.0000
   8266.5000   211.0119     3.0746    98.4856    82.6105   186.1374     0.1841   -72.6394     0.2696     0.0000  3161.0000
   8267.0000   211.0119     3.1084    97.4521    87.7012   186.1445     0.1840   -70.6229     0.2658     0.0000  3199.0000
   8267.5000   211.0119     2.8946    95.9318    92.8047   186.1517     0.1840   -67.6311     0.2602     0.0000  3150.0000
   8268.0000   211.0119     2.7653    94.9129    88.8234   186.1588     0.1839   -65.6102     0.2562     0.0000  3186.0000
   8268.5000   211.0119     2.3176    93.5454    92.5600   186.1659     0.1839   -62.8787     0.2509     0.0000  3192.0000
   8269.0000   211.0119     2.9483    94.6804    91.5215   186.1731     0.1838   -65.1472     0.2553     0.0000  3208.0000
   8269.5000   211.0119     3.0788    94.9454    96.4489   186.1802     0.1838   -65.6748     0.2564     0.0000  3199.0000
   8270.0000   211.0119     2.8175    95.8898   102.6799   186.1874     0.1837   -67.5480     0.2600     0.0000  3199.0000
   8270.5000   211.0119     2.6610    96.7670   103.4438   186.1945     0.1837   -69.2782     0.2633     0.0000  3173.0000
   8271.0000   211.0119     2.6714    96.7746   107.7744   186.2017     0.1836   -69.2932     0.2633     0.0000  3185.0000
   8271.5000   211.0119     2.7305    96.7411    97.9087   186.2088     0.1836   -69.2274     0.2632     0.0000  3189.0000
   8272.0000   211.0119     2.9250    96.6991   103.2814   186.2160     0.1835   -69.1446     0.2631     0.0000  3175.0000
   8272.5000   211.0119     2.3154    96.0276    95.4829   186.2231     0.1835   -67.8206     0.2605     0.0000  3210.0000
   8273.0000   211.0119     2.3372    95.8333   108.4641   186.2303     0.1834   -67.4364     0.2598     0.0000  3196.0000
   8273.5000   211.0119     2.4873    96.0947   100.0438   186.2374     0.1834   -67.9532     0.2608     0.0000  3176.0000
   8274.0000   211.0119     2.5872    96.3752   100.5273   186.2445     0.1833   -68.5067     0.2618     0.0000  3201.0000
   8274.5000   211.0119     2.5875    96.7290    96.3733   186.2517     0.1833   -69.2035     0.2632     0.0000  3206.0000
   8275.0000   211.0119     3.3606    96.4830    99.0452   186.2588     0.1832   -68.7192     0.2622     0.0000  3217.0000
   8275.5000   211.0119     2.7979    96.3993   107.3332   186.2660     0.1832   -68.5541     0.2619     0.0000  3216.0000
   8276.0000   211.0119     3.1346    96.6071    97.9156   186.2731     0.1831   -68.9637     0.2627     0.0000  3208.0000
   8276.5000   211.0119     3.3714    96.0366    95.5246   186.2803     0.1831   -67.8383     0.2606     0.0000  3248.0000
   8277.0000   211.0119     3.0632    96.4345    89.3303   186.2874     0.1831   -68.6236     0.2621     0.0000  3233.0000
   8277.5000   211.0119     3.4757    96.9086    93.0362   186.2946     0.1830   -69.5567     0.2638     0.0000  3233.0000
   8278.0000   211.0119     3.1382    96.8135    96.7273   186.3017     0.1830   -69.3697     0.2635     0.0000  3216.0000
   8278.5000   211.0119     3.2564    97.8216    97.7491   186.3089     0.1829   -71.3454     0.2672     0.0000  3221.0000
   8279.0000   211.0119     3.3680    97.1793    94.5008   186.3160     0.1829   -70.0881     0.2648     0.0000  3200.0000
   8279.5000   211.0119     3.1388    96.8637    94.8895   186.3231     0.1828   -69.4685     0.2637     0.0000  3186.0000
   8280.0000   211.0119     3.0717    96.2616    91.1837   186.3303     0.1828   -68.2826     0.2614     0.0000  3192.0000
   8280.5000   211.0119     3.0476    96.5796    93.4771   186.3374     0.1827   -68.9095     0.2626     0.0000  3175.0000
   8281.0000   211.0119     3.2578    96.6420    85.6884   186.3446     0.1827   -69.0324     0.2628     0.0000  3200.0000
