~VERSION INFORMATION
VERS.           1.2   :CWLS Log ASCII Standard - VERSION 1.2
WRAP.           NO    :One Line per depth step
PROD.  Schlumberger   :LAS Producer
PROG.  DLIS to ASCII 10C0-306                          :LAS Program name and version
CREA.        2009/06/06 23:09                          :LAS Creation date {YYYY/MM/DD hh:mm}
SOURCE.     d986ea9e-f59c-4559-942d-7b7265e62d76       :DLIS File Name
#--------------------------------------------------
~WELL INFORMATION
#MNEM.UNIT      DATA             DESCRIPTION
#---- ------ --------------   -----------------------------
STRT .F      1945.5000       :START DEPTH     
STOP .F      10600.5000      :STOP DEPTH     
STEP .F       0.5000         :STEP       
NULL .          -999.25      :NULL VALUE
COMP .                 COMPANY:  DENBURY ONSHORE, LLC               
WELL .                    WELL:  CFU 31F #1                         
FLD  .                   FIELD:  CRANFIELD FIELD UNIT               
LOC  .                LOCATION:  X: 248,375.1'                      
CNTY .                  COUNTY:  FRANKLIN                           
STAT .                   STATE:  MISSISSIPPI                        
CTRY .                 COUNTRY:                                     
SRVC .         SERVICE COMPANY:  Schlumberger                       
API  .              API NUMBER:  23-037-21488-0000                  
DATE .                LOG DATE:  6-Jun-2009
UWI  .          UNIQUE WELL ID:                                     
#-----------------------------------------------------------------------------
~PARAMETER INFORMATION
#MNEM.UNIT    VALUE                      DESCRIPTION
#---- -----   --------------------       ------------------------
CN   .        DENBURY ONSHORE  LLC       :Company Name
WN   .        CFU 31F #1                 :Well Name
FN   .        CRANFIELD FIELD UNIT       :Field Name
FL   .        X  248 375.1'              :Field Location
FL1  .        Y  387 674.2'              :Field Location Line 1
COUN .        FRANKLIN                   :County or Rig Name
STAT .        MISSISSIPPI                :State or Province
NATI .                                   :Nation
DATE .        6-Jun-2009                 :Date as Month-Day-Year
APIN .        23-037-21488-0000          :API Serial Number
SECT .        31                         :Section
TOWN .        7N                         :Township
RANG .        1E                         :Range
DMF  .        KELLY BUSHING              :Drilling Measured From
LMF  .        KELLY BUSHING              :Log Measured From
PDAT .        GROUND LEVEL               :Permanent Datum
ENGI .        CHRISTIAN ZACCARO          :Engineer's Name
WITN .        FRED WALSH                 :Witness's Name
LATI .                                   :Latitude
LONG .                                   :Longitude
LUL  .        NATCHEZ  MS                :Logging Unit Location
LUN  .              2157                 :Logging Unit Number
RUN  .        ONE                        :Run Number
SON  .        APWH-00103                 :Service Order Number
BHT  .DEGF     220.00000                 :Bottom Hole Temperature (used in calculations)
BS   .IN         8.75000                 :Bit Size
DFD  .LB/G       9.90000                 :Drilling Fluid Density
DFV  .S         42.00000                 :Drilling Fluid Viscosity
DFL  .C3         8.30000                 :Drilling Fluid Loss
RMFS .OHMM       1.21700                 :Resistivity of Mud Filtrate Sample
EKB  .F        333.70001                 :Elevation of Kelly Bushing
EGL  .F        315.70001                 :Elevation of Ground Level
BLI  .F       10628.00000                :Bottom Log Interval
BSAL .PPM     2600.00000                 :Borehole Salinity
FLEV .F          0.00000                 :Fluid Level
MCST .DEGF      74.90000                 :Mud Cake Sample Temperature
MFST .DEGF      74.80000                 :Mud Filtrate Sample Temperature
MRT  .DEGF     221.00000                 :Maximum Recorded Temperature
MST  .DEGF      76.20000                 :Mud Sample Temperature
RMCS .OHMM       1.89800                 :Resistivity of Mud Cake Sample
RMS  .OHMM       1.45600                 :Resistivity of Mud Sample
RW   .OHMM       1.00000                 :Resistivity of Connate Water
TDD  .F       10700.00000                :Total Depth - Driller
TDL  .F       10636.00000                :Total Depth - Logger
TLI  .F       2028.00000                 :Top Log Interval
HIDE .        CALIPER LOG                :Header Identifier
MATR .        LIME                       :Rock Matrix for Neutron Porosity Corrections
FNUM .           1.00000                 :Form Factor Numerator
FEXP .           2.00000                 :Form Factor Exponent
DFT  .        FRESH WATER-BASED MUD      :Drilling Fluid Type
DFPH .           9.60000                 :Drilling Fluid PH
MCSS .        MUDPRESS                   :Mud Cake Sample Source
MFSS .        MUDPRESS                   :Mud Filtrate Sample Source
MSS  .        MUDPIT                     :Mud Sample Source
OS1  .        BHC SONIC                  :Other Services Line 1
OS2  .        CST                        :Other Services Line 2
OS3  .                                   :Other Services Line 3
OS4  .                                   :Other Services Line 4
OS5  .                                   :Other Services Line 5
R1   .        FIRST RUN IN WELL          :Remark Line 1
R2   .        ALL SCHLUMBERGER DEPTH PROCEDURES FOLLOWED :Remark Line 2
R3   .        TWO 1.5  STANDOFFS RAN ON INDUCTION TOOL :Remark Line 3
R4   .        BOWSPRING RAN ON NEUTRON TOOL FOR ECCENTRALIZATION :Remark Line 4
R5   .        MATRIX  LIMESTONE  2.71 G/CC :Remark Line 5
R6   .        CHLORIDES  2600PPM         :Remark Line 6
R7   .                                   :Remark Line 7
R8   .        BOREHOLE ENVIRONMENT MAY AFFECT LOG QUALITY :Remark Line 8
TCS  .        18 00                      :Time Circulation Stopped
TLAB .        1 30                       :Time Logger At Bottom
EPD  .F         315.700012               :Elevation of Permanent Datum above Mean Sea Level
APD  .F          18.000000               :Elevation of Depth Reference (LMF) above Permanent Datum
#-----------------------------------------------------------------------------
~CURVE INFORMATION
#MNEM.UNIT   API CODE                                  DESCRIPTION
#---- -----  --------                                  -----------------------
DEPT .F                                                :DEPTH (BOREHOLE) {F12.4}
CTEM .DEGF                                             :Cartridge Temperature {F11.4}
DCAL .IN                                               :Differential Caliper {F11.4}
DT   .US/F                                             :Delta-T {F11.4}
GR_EDTC.GAPI                                           :Gamma Ray {F11.4}
GTEM .DEGF                                             :Generalized Borehole Temperature {F11.4}
ITT  .S                                                :Integrated Transit Time {F11.4}
RWA  .OHMM                                             :Apparent Water Resistivity {F11.4}
SPHI .CFCF                                             :Sonic Porosity {F11.4}
STIT .F                                                :Stuck Tool Indicator, Total {F11.4}
TENS .LBF                                              :Cable Tension {F11.4}
#-----------------------------------------------------------------------------
# 
#      DEPT        CTEM       DCAL        DT      GR_EDTC      GTEM       ITT        RWA        SPHI       STIT       TENS
#
~A  
# ...
   6532.5000   193.2237     0.3717    94.4541    46.1764   161.3566     0.3410   -64.6961     0.2544     0.0000  2561.0000
   6533.0000   193.2237     0.3858    87.4231    48.6750   161.3638     0.3410   -50.4289     0.2246     0.0000  2550.0000
   6533.5000   193.2237     0.4492    82.8703    46.4332   161.3709     0.3409   -41.0375     0.2027     0.0000  2573.0000
   6534.0000   193.2237     0.4840    80.3323    50.6247   161.3780     0.3409   -35.8113     0.1893     0.0000  2565.0000
   6534.5000   193.2237     0.3380    79.0810    50.8137   161.3852     0.3408   -33.2506     0.1824     0.0000  2556.0000
   6535.0000   193.2237     0.2883    86.3388    62.0222   161.3923     0.3408   -48.1969     0.2196     0.0000  2553.0000
   6535.5000   193.2237     0.2281    88.7949    63.7171   161.3995     0.3408   -53.2439     0.2308     0.0000  2524.0000
   6536.0000   193.2237     0.2163    89.2710    65.0430   161.4066     0.3407   -54.2181     0.2329     0.0000  2525.0000
   6536.5000   193.2237     0.1953    89.5260    57.8185   161.4138     0.3407   -54.7393     0.2341     0.0000  2569.0000
   6537.0000   193.2237     0.2224    88.6040    60.3361   161.4209     0.3406   -52.8530     0.2300     0.0000  2551.0000
   6537.5000   193.2237     0.2153    88.1413    63.9085   161.4281     0.3406   -51.9043     0.2279     0.0000  2605.0000
   6538.0000   193.2237     0.2006    87.5250    66.4339   161.4352     0.3405   -50.6383     0.2251     0.0000  2563.0000
   6538.5000   193.2237     0.2124    87.3468    71.9543   161.4424     0.3405   -50.2721     0.2243     0.0000  2539.0000
   6539.0000   193.2237     0.2306    87.8965    72.5358   161.4495     0.3405   -51.4016     0.2268     0.0000  2550.0000
   6539.5000   193.2237     0.2365    87.4923    80.2915   161.4566     0.3404   -50.5713     0.2250     0.0000  2527.0000
   6540.0000   193.2237     0.2643    87.6958    67.9624   161.4638     0.3404   -50.9893     0.2259     0.0000  2552.0000
   6540.5000   193.2237     0.2503    87.5146    66.8890   161.4709     0.3403   -50.6171     0.2251     0.0000  2545.0000
   6541.0000   193.2237     0.2434    87.2674    60.2249   161.4781     0.3403   -50.1087     0.2239     0.0000  2515.0000
   6541.5000   193.2237     0.2065    87.7660    70.7728   161.4852     0.3402   -51.1337     0.2262     0.0000  2535.0000
   6542.0000   193.2237     0.2067    87.7223    71.3270   161.4924     0.3402   -51.0438     0.2260     0.0000  2538.0000
   6542.5000   193.2237     0.2306    87.6656    73.5122   161.4995     0.3401   -50.9273     0.2258     0.0000  2532.0000
   6543.0000   193.2237     0.2247    87.6750    74.3878   161.5067     0.3401   -50.9467     0.2258     0.0000  2547.0000
   6543.5000   193.2237     0.2190    87.6126    77.4427   161.5138     0.3401   -50.8185     0.2255     0.0000  2526.0000
   6544.0000   193.2237     0.1851    87.8985    79.9034   161.5210     0.3400   -51.4058     0.2268     0.0000  2542.0000
   6544.5000   193.2237     0.1908    88.2804    73.6181   161.5281     0.3400   -52.1896     0.2285     0.0000  2546.0000
   6545.0000   193.2237     0.1851    88.2483    68.7637   161.5352     0.3399   -52.1238     0.2284     0.0000  2519.0000
   6545.5000   193.2237     0.2090    88.0562    67.7252   161.5424     0.3399   -51.7296     0.2275     0.0000  2541.0000
   6546.0000   193.2237     0.2090    87.6723    68.6575   161.5495     0.3398   -50.9412     0.2258     0.0000  2543.0000
   6546.5000   193.2237     0.2219    87.4508    72.0148   161.5567     0.3398   -50.4858     0.2248     0.0000  2522.0000
   6547.0000   193.2237     0.2081    87.4585    72.8167   161.5638     0.3398   -50.5018     0.2248     0.0000  2548.0000
   6547.5000   193.2237     0.2306    87.7073    78.2048   161.5710     0.3397   -51.0130     0.2259     0.0000  2541.0000
   6548.0000   193.2237     0.2150    87.9322    71.6678   161.5781     0.3397   -51.4749     0.2270     0.0000  2540.0000
   6548.5000   193.2237     0.2488    88.1596    74.4282   161.5853     0.3396   -51.9417     0.2280     0.0000  2546.0000
   6549.0000   193.2237     0.2365    88.4122    67.3281   161.5924     0.3396   -52.4597     0.2291     0.0000  2540.0000
   6549.5000   193.2237     0.2109    88.4776    72.8266   161.5995     0.3395   -52.5939     0.2294     0.0000  2546.0000
   6550.0000   193.2237     0.2488    88.6771    66.5076   161.6067     0.3395   -53.0027     0.2303     0.0000  2552.0000
   6550.5000   193.2237     0.3214    88.5057    69.9378   161.6138     0.3394   -52.6515     0.2295     0.0000  2551.0000
   6551.0000   193.2237     0.2920    88.2369    70.2222   161.6210     0.3394   -52.1004     0.2283     0.0000  2553.0000
   6551.5000   193.2237     0.3049    88.2130    75.0903   161.6281     0.3394   -52.0512     0.2282     0.0000  2536.0000
   6552.0000   193.2237     0.2799    88.3745    74.2617   161.6353     0.3393   -52.3825     0.2290     0.0000  2545.0000
   6552.5000   193.2237     0.2609    88.7310    74.4675   161.6424     0.3393   -53.1131     0.2305     0.0000  2555.0000
   6553.0000   193.2237     0.2499    89.3475    73.2143   161.6496     0.3392   -54.3746     0.2333     0.0000  2545.0000
   6553.5000   193.2237     0.2429    89.7974    74.0429   161.6567     0.3392   -55.2933     0.2352     0.0000  2564.0000
   6554.0000   193.2237     0.2376    90.3148    72.5259   161.6639     0.3391   -56.3482     0.2375     0.0000  2546.0000
   6554.5000   193.2237     0.2558    90.3900    76.8602   161.6710     0.3391   -56.5012     0.2378     0.0000  2542.0000
   6555.0000   193.2237     0.2488    90.2992    78.9042   161.6781     0.3390   -56.3163     0.2374     0.0000  2551.0000
   6555.5000   193.2237     0.2429    90.2248    76.2324   161.6853     0.3390   -56.1647     0.2371     0.0000  2551.0000
   6556.0000   193.2237     0.2706    89.7004    76.2324   161.6924     0.3390   -55.0954     0.2348     0.0000  2529.0000
   6556.5000   193.2237     0.2885    89.3517    72.0015   161.6996     0.3389   -54.3833     0.2333     0.0000  2558.0000
   6557.0000   193.2237     0.3043    89.1057    83.5656   161.7067     0.3389   -53.8801     0.2322     0.0000  2536.0000
   6557.5000   193.2237     0.3631    89.1589    80.5096   161.7139     0.3388   -53.9889     0.2324     0.0000  2562.0000
   6558.0000   193.2237     0.3641    89.0096    78.5424   161.7210     0.3388   -53.6834     0.2318     0.0000  2556.0000
   6558.5000   193.2237     0.3433    89.0246    75.4392   161.7282     0.3387   -53.7142     0.2319     0.0000  2547.0000
   6559.0000   193.2237     0.3372    89.3224    85.7174   161.7353     0.3387   -54.3232     0.2332     0.0000  2561.0000
   6559.5000   193.2237     0.3244    89.1033    94.8571   161.7425     0.3386   -53.8752     0.2322     0.0000  2553.0000
   6560.0000   193.2237     0.3809    88.3322    94.7681   161.7496     0.3386   -52.2958     0.2288     0.0000  2558.0000
   6560.5000   193.2237     0.3303    87.6835    86.7140   161.7567     0.3386   -50.9642     0.2258     0.0000  2573.0000
   6561.0000   193.2237     0.3499    87.0190    81.2390   161.7639     0.3385   -49.5978     0.2228     0.0000  2542.0000
   6561.5000   193.2237     0.3242    86.9361    78.6294   161.7710     0.3385   -49.4271     0.2224     0.0000  2542.0000
   6562.0000   193.2237     0.3191    87.6952    76.3458   161.7782     0.3384   -50.9882     0.2259     0.0000  2556.0000
   6562.5000   193.2237     0.3061    88.3827    76.0319   161.7853     0.3384   -52.3993     0.2290     0.0000  2541.0000
   6563.0000   193.2237     0.2505    88.4652    74.4583   161.7925     0.3383   -52.5684     0.2294     0.0000  2557.0000
   6563.5000   193.2237     0.2694    88.8099    71.8754   161.7996     0.3383   -53.2747     0.2309     0.0000  2545.0000
   6564.0000   193.2237     0.2296    89.0669    68.0055   161.8068     0.3382   -53.8008     0.2320     0.0000  2536.0000
   6564.5000   193.2237     0.2107    89.7311    62.9261   161.8139     0.3382   -55.1581     0.2349     0.0000  2545.0000
   6565.0000   193.2237     0.2088    90.0197    58.7588   161.8211     0.3382   -55.7469     0.2362     0.0000  2541.0000
