~VERSION INFORMATION
VERS.           1.2   :CWLS Log ASCII Standard - VERSION 1.2
WRAP.           NO    :One Line per depth step
PROD.  Schlumberger   :LAS Producer
PROG.  DLIS to ASCII 10C0-306                          :LAS Program name and version
CREA.        2009/06/06 23:09                          :LAS Creation date {YYYY/MM/DD hh:mm}
SOURCE.     d986ea9e-f59c-4559-942d-7b7265e62d76       :DLIS File Name
#--------------------------------------------------
~WELL INFORMATION
#MNEM.UNIT      DATA             DESCRIPTION
#---- ------ --------------   -----------------------------
STRT .F      1945.5000       :START DEPTH     
STOP .F      10600.5000      :STOP DEPTH     
STEP .F       0.5000         :STEP       
NULL .          -999.25      :NULL VALUE
COMP .                 COMPANY:  DENBURY ONSHORE, LLC               
WELL .                    WELL:  CFU 31F #1                         
FLD  .                   FIELD:  CRANFIELD FIELD UNIT               
LOC  .                LOCATION:  X: 248,375.1'                      
CNTY .                  COUNTY:  FRANKLIN                           
STAT .                   STATE:  MISSISSIPPI                        
CTRY .                 COUNTRY:                                     
SRVC .         SERVICE COMPANY:  Schlumberger                       
API  .              API NUMBER:  23-037-21488-0000                  
DATE .                LOG DATE:  6-Jun-2009
UWI  .          UNIQUE WELL ID:                                     
#-----------------------------------------------------------------------------
~PARAMETER INFORMATION
#MNEM.UNIT    VALUE                      DESCRIPTION
#---- -----   --------------------       ------------------------
CN   .        DENBURY ONSHORE  LLC       :Company Name
WN   .        CFU 31F #1                 :Well Name
FN   .        CRANFIELD FIELD UNIT       :Field Name
FL   .        X  248 375.1'              :Field Location
FL1  .        Y  387 674.2'              :Field Location Line 1
COUN .        FRANKLIN                   :County or Rig Name
STAT .        MISSISSIPPI                :State or Province
NATI .                                   :Nation
DATE .        6-Jun-2009                 :Date as Month-Day-Year
APIN .        23-037-21488-0000          :API Serial Number
SECT .        31                         :Section
TOWN .        7N                         :Township
RANG .        1E                         :Range
DMF  .        KELLY BUSHING              :Drilling Measured From
LMF  .        KELLY BUSHING              :Log Measured From
PDAT .        GROUND LEVEL               :Permanent Datum
ENGI .        CHRISTIAN ZACCARO          :Engineer's Name
WITN .        FRED WALSH                 :Witness's Name
LATI .                                   :Latitude
LONG .                                   :Longitude
LUL  .        NATCHEZ  MS                :Logging Unit Location
LUN  .              2157                 :Logging Unit Number
RUN  .        ONE                        :Run Number
SON  .        APWH-00103                 :Service Order Number
BHT  .DEGF     220.00000                 :Bottom Hole Temperature (used in calculations)
BS   .IN         8.75000                 :Bit Size
DFD  .LB/G       9.90000                 :Drilling Fluid Density
DFV  .S         42.00000                 :Drilling Fluid Viscosity
DFL  .C3         8.30000                 :Drilling Fluid Loss
RMFS .OHMM       1.21700                 :Resistivity of Mud Filtrate Sample
EKB  .F        333.70001                 :Elevation of Kelly Bushing
EGL  .F        315.70001                 :Elevation of Ground Level
BLI  .F       10628.00000                :Bottom Log Interval
BSAL .PPM     2600.00000                 :Borehole Salinity
FLEV .F          0.00000                 :Fluid Level
MCST .DEGF      74.90000                 :Mud Cake Sample Temperature
MFST .DEGF      74.80000                 :Mud Filtrate Sample Temperature
MRT  .DEGF     221.00000                 :Maximum Recorded Temperature
MST  .DEGF      76.20000                 :Mud Sample Temperature
RMCS .OHMM       1.89800                 :Resistivity of Mud Cake Sample
RMS  .OHMM       1.45600                 :Resistivity of Mud Sample
RW   .OHMM       1.00000                 :Resistivity of Connate Water
TDD  .F       10700.00000                :Total Depth - Driller
TDL  .F       10636.00000                :Total Depth - Logger
TLI  .F       2028.00000                 :Top Log Interval
HIDE .        CALIPER LOG                :Header Identifier
MATR .        LIME                       :Rock Matrix for Neutron Porosity Corrections
FNUM .           1.00000                 :Form Factor Numerator
FEXP .           2.00000                 :Form Factor Exponent
DFT  .        FRESH WATER-BASED MUD      :Drilling Fluid Type
DFPH .           9.60000                 :Drilling Fluid PH
MCSS .        MUDPRESS                   :Mud Cake Sample Source
MFSS .        MUDPRESS                   :Mud Filtrate Sample Source
MSS  .        MUDPIT                     :Mud Sample Source
OS1  .        BHC SONIC                  :Other Services Line 1
OS2  .        CST                        :Other Services Line 2
OS3  .                                   :Other Services Line 3
OS4  .                                   :Other Services Line 4
OS5  .                                   :Other Services Line 5
R1   .        FIRST RUN IN WELL          :Remark Line 1
R2   .        ALL SCHLUMBERGER DEPTH PROCEDURES FOLLOWED :Remark Line 2
R3   .        TWO 1.5  STANDOFFS RAN ON INDUCTION TOOL :Remark Line 3
R4   .        BOWSPRING RAN ON NEUTRON TOOL FOR ECCENTRALIZATION :Remark Line 4
R5   .        MATRIX  LIMESTONE  2.71 G/CC :Remark Line 5
R6   .        CHLORIDES  2600PPM         :Remark Line 6
R7   .                                   :Remark Line 7
R8   .        BOREHOLE ENVIRONMENT MAY AFFECT LOG QUALITY :Remark Line 8
TCS  .        18 00                      :Time Circulation Stopped
TLAB .        1 30                       :Time Logger At Bottom
EPD  .F         315.700012               :Elevation of Permanent Datum above Mean Sea Level
APD  .F          18.000000               :Elevation of Depth Reference (LMF) above Permanent Datum
#-----------------------------------------------------------------------------
~CURVE INFORMATION
#MNEM.UNIT   API CODE                                  DESCRIPTION
#---- -----  --------                                  -----------------------
DEPT .F                                                :DEPTH (BOREHOLE) {F12.4}
CTEM .DEGF                                             :Cartridge Temperature {F11.4}
DCAL .IN                                               :Differential Caliper {F11.4}
DT   .US/F                                             :Delta-T {F11.4}
GR_EDTC.GAPI                                           :Gamma Ray {F11.4}
GTEM .DEGF                                             :Generalized Borehole Temperature {F11.4}
ITT  .S                                                :Integrated Transit Time {F11.4}
RWA  .OHMM                                             :Apparent Water Resistivity {F11.4}
SPHI .CFCF                                             :Sonic Porosity {F11.4}
STIT .F                                                :Stuck Tool Indicator, Total {F11.4}
TENS .LBF                                              :Cable Tension {F11.4}
#-----------------------------------------------------------------------------
# 
#      DEPT        CTEM       DCAL        DT      GR_EDTC      GTEM       ITT        RWA        SPHI       STIT       TENS
#
~A  
# ...
   4816.5000   175.4354     1.7062   109.0925    92.0540   136.8331     0.5077   -92.4508     0.3042     0.0000  2031.0000
   4817.0000   175.4354     1.9058   111.8176    97.0415   136.8402     0.5077   -97.2648     0.3120     0.0000  2023.0000
   4817.5000   175.4354     1.1963   113.2064   103.8077   136.8474     0.5076   -99.6739     0.3158     0.0000  2080.0000
   4818.0000   175.4354     1.5270   109.9174   102.7926   136.8545     0.5076   -93.9202     0.3066     0.0000  2071.0000
   4818.5000   175.4354     1.3422   108.8090   103.2639   136.8617     0.5075   -91.9435     0.3033     0.0000  2054.0000
   4819.0000   175.4354     1.1751   108.2887   104.2289   136.8688     0.5075   -91.0088     0.3018     0.0000  2033.0000
   4819.5000   175.4354     1.5510   107.3757   106.3059   136.8759     0.5074   -89.3589     0.2990     0.0000  2023.0000
   4820.0000   175.4354     1.3297   106.6803    94.1746   136.8831     0.5073   -88.0936     0.2969     0.0000  2016.0000
   4820.5000   175.4354     1.3509   105.5683    92.1894   136.8902     0.5073   -86.0548     0.2935     0.0000  2089.0000
   4821.0000   175.4354     1.1720   103.2233    85.9584   136.8974     0.5072   -81.6942     0.2859     0.0000  2050.0000
   4821.5000   175.4354     1.3089   101.4511    92.2208   136.9045     0.5072   -78.3447     0.2800     0.0000  2027.0000
   4822.0000   175.4354     1.1038   101.8463    93.2593   136.9117     0.5071   -79.0955     0.2813     0.0000  2050.0000
   4822.5000   175.4354     1.1274   105.0456    98.3270   136.9188     0.5071   -85.0901     0.2918     0.0000  2028.0000
   4823.0000   175.4354     1.0879   108.1944   103.7720   136.9260     0.5070   -90.8390     0.3015     0.0000  2043.0000
   4823.5000   175.4354     0.8692   108.9413    98.0602   136.9331     0.5070   -92.1804     0.3037     0.0000  2068.0000
   4824.0000   175.4354     0.5426   107.0455    97.2372   136.9403     0.5069   -88.7590     0.2980     0.0000  2050.0000
   4824.5000   175.4354     0.3465   105.2666    85.2471   136.9474     0.5069   -85.4985     0.2925     0.0000  2061.0000
   4825.0000   175.4354     0.3700   104.3498    85.6025   136.9545     0.5068   -83.7993     0.2896     0.0000  2053.0000
   4825.5000   175.4354     0.3760   104.2675    85.1572   136.9617     0.5068   -83.6461     0.2893     0.0000  2058.0000
   4826.0000   175.4354     0.3898   105.6719    88.2727   136.9688     0.5067   -86.2456     0.2938     0.0000  2069.0000
   4826.5000   175.4354     0.3958   106.4892    86.8445   136.9760     0.5067   -87.7445     0.2963     0.0000  2059.0000
   4827.0000   175.4354     0.3510   106.9045    87.7685   136.9831     0.5066   -88.5023     0.2976     0.0000  2071.0000
   4827.5000   175.4354     0.3132   107.9222    87.7685   136.9903     0.5066   -90.3481     0.3007     0.0000  2064.0000
   4828.0000   175.4354     0.3535   108.4971    89.1967   136.9974     0.5065   -91.3836     0.3024     0.0000  2043.0000
   4828.5000   175.4354     0.2793   108.5967    91.2237   137.0046     0.5064   -91.5625     0.3027     0.0000  2038.0000
   4829.0000   175.4354     0.3475   110.0029    93.8199   137.0117     0.5064   -94.0720     0.3068     0.0000  2038.0000
   4829.5000   175.4354     0.4857   111.5812   101.8664   137.0189     0.5063   -96.8519     0.3113     0.0000  2038.0000
   4830.0000   175.4354     0.8912   113.0454   100.3087   137.0260     0.5063   -99.3961     0.3154     0.0000  2040.0000
   4830.5000   175.4354     1.5777   117.0075    99.7063   137.0331     0.5062  -106.1141     0.3259     0.0000  2035.0000
   4831.0000   175.4354     0.4443   120.1194    79.9238   137.0403     0.5062  -111.2209     0.3336     0.0000  2034.0000
   4831.5000   175.4354     0.6988   122.1350    68.7338   137.0474     0.5061  -114.4503     0.3384     0.0000  2038.0000
   4832.0000   175.4354     2.0650   122.3096    66.2207   137.0546     0.5060  -114.7270     0.3388     0.0000  2026.0000
   4832.5000   175.7648     2.0114   117.0698    82.2745   137.0617     0.5060  -106.2179     0.3260     0.0000  2026.0000
   4833.0000   176.0002     1.4016   112.3627    98.2665   137.0689     0.5059   -98.2140     0.3135     0.0000  2021.0000
   4833.5000   176.2825     0.9538   107.4295    98.3022   137.0760     0.5059   -89.4564     0.2992     0.0000  2035.0000
   4834.0000   176.0943     0.4861   105.8620    98.8215   137.0832     0.5058   -86.5951     0.2944     0.0000  2054.0000
   4834.5000   176.5648     0.3781   106.3270    93.4171   137.0903     0.5058   -87.4479     0.2958     0.0000  2032.0000
   4835.0000   176.8472     0.3101   104.4117    89.8090   137.0975     0.5057   -83.9144     0.2898     0.0000  2045.0000
   4835.5000   177.4119     0.2692   103.3923    76.5421   137.1046     0.5057   -82.0112     0.2865     0.0000  2071.0000
   4836.0000   177.4119     0.2622   104.2233    77.1444   137.1118     0.5056   -83.5639     0.2892     0.0000  2098.0000
   4836.5000   177.4119     0.2622   104.9657    77.0954   137.1189     0.5056   -84.9422     0.2916     0.0000  2102.0000
   4837.0000   177.4119     0.2622   105.6425    76.3180   137.1260     0.5055   -86.1914     0.2937     0.0000  2047.0000
   4837.5000   177.4119     0.2810   105.9484    70.9171   137.1332     0.5054   -86.7538     0.2947     0.0000  2059.0000
   4838.0000   177.4119     0.2821   106.5210    67.7883   137.1403     0.5054   -87.8027     0.2964     0.0000  2064.0000
   4838.5000   177.4119     0.3010   106.2888    67.7637   137.1475     0.5053   -87.3779     0.2957     0.0000  2026.0000
   4839.0000   177.4119     0.2759   106.0997    70.9439   137.1546     0.5053   -87.0314     0.2951     0.0000  2032.0000
   4839.5000   177.4119     0.2622   106.3707    72.5017   137.1618     0.5052   -87.5278     0.2960     0.0000  2028.0000
   4840.0000   177.4119     0.2759   106.1632    73.7265   137.1689     0.5052   -87.1479     0.2953     0.0000  2031.0000
   4840.5000   177.4119     0.2620   106.3211    64.5238   137.1761     0.5051   -87.4370     0.2958     0.0000  2048.0000
   4841.0000   177.4119     0.2611   107.0082    65.5972   137.1832     0.5051   -88.6910     0.2979     0.0000  2042.0000
   4841.5000   177.4119     0.2620   107.0827    64.9915   137.1904     0.5050   -88.8267     0.2981     0.0000  2034.0000
   4842.0000   177.4119     0.2672   107.0058    66.5492   137.1975     0.5050   -88.6868     0.2979     0.0000  2042.0000
   4842.5000   177.4119     0.2940   106.8899    64.3275   137.2047     0.5049   -88.4757     0.2976     0.0000  2027.0000
   4843.0000   177.4119     0.2940   106.9110    64.3021   137.2118     0.5049   -88.5142     0.2976     0.0000  2037.0000
   4843.5000   177.4119     0.2829   106.1967    69.2122   137.2189     0.5048   -87.2093     0.2954     0.0000  2053.0000
   4844.0000   177.4119     0.2829   105.6846    73.4760   137.2261     0.5048   -86.2689     0.2938     0.0000  2034.0000
   4844.5000   177.4119     0.3010   105.5452    71.8929   137.2332     0.5047   -86.0122     0.2934     0.0000  2039.0000
   4845.0000   177.4119     0.2622   105.6581    73.6133   137.2404     0.5046   -86.2202     0.2937     0.0000  2031.0000
   4845.5000   177.4119     0.2500   106.3926    72.0867   137.2475     0.5046   -87.5680     0.2960     0.0000  2032.0000
   4846.0000   177.4119     0.2690   105.9777    76.9951   137.2547     0.5045   -86.8075     0.2947     0.0000  2044.0000
   4846.5000   177.4119     0.2700   106.4936    75.4899   137.2618     0.5045   -87.7525     0.2963     0.0000  2029.0000
   4847.0000   177.4119     0.3274   109.7778    85.4115   137.2690     0.5044   -93.6723     0.3062     0.0000  2016.0000
   4847.5000   177.4119     0.9716   110.4200    89.8646   137.2761     0.5044   -94.8103     0.3080     0.0000  2034.0000
   4848.0000   177.4119     1.6038   109.2959    93.5284   137.2832     0.5043   -92.8141     0.3048     0.0000  2031.0000
   4848.5000   177.4119     0.4186   106.4994    80.4718   137.2904     0.5043   -87.7632     0.2964     0.0000  2047.0000
   4849.0000   177.4119     0.3200   104.8766    77.3102   137.2975     0.5042   -84.7772     0.2913     0.0000  2036.0000
