~VERSION INFORMATION
VERS.           1.2   :CWLS Log ASCII Standard - VERSION 1.2
WRAP.           NO    :One Line per depth step
PROD.  Schlumberger   :LAS Producer
PROG.  DLIS to ASCII 10C0-306                          :LAS Program name and version
CREA.        2009/06/06 23:09                          :LAS Creation date {YYYY/MM/DD hh:mm}
SOURCE.     d986ea9e-f59c-4559-942d-7b7265e62d76       :DLIS File Name
#--------------------------------------------------
~WELL INFORMATION
#MNEM.UNIT      DATA             DESCRIPTION
#---- ------ --------------   -----------------------------
STRT .F      1945.5000       :START DEPTH     
STOP .F      10600.5000      :STOP DEPTH     
STEP .F       0.5000         :STEP       
NULL .          -999.25      :NULL VALUE
COMP .                 COMPANY:  DENBURY ONSHORE, LLC               
WELL .                    WELL:  CFU 31F #1                         
FLD  .                   FIELD:  CRANFIELD FIELD UNIT               
LOC  .                LOCATION:  X: 248,375.1'                      
CNTY .                  COUNTY:  FRANKLIN                           
STAT .                   STATE:  MISSISSIPPI                        
CTRY .                 COUNTRY:                                     
SRVC .         SERVICE COMPANY:  Schlumberger                       
API  .              API NUMBER:  23-037-21488-0000                  
DATE .                LOG DATE:  6-Jun-2009
UWI  .          UNIQUE WELL ID:                                     
#-----------------------------------------------------------------------------
~PARAMETER INFORMATION
#MNEM.UNIT    VALUE                      DESCRIPTION
#---- -----   --------------------       ------------------------
CN   .        DENBURY ONSHORE  LLC       :Company Name
WN   .        CFU 31F #1                 :Well Name
FN   .        CRANFIELD FIELD UNIT       :Field Name
FL   .        X  248 375.1'              :Field Location
FL1  .        Y  387 674.2'              :Field Location Line 1
COUN .        FRANKLIN                   :County or Rig Name
STAT .        MISSISSIPPI                :State or Province
NATI .                                   :Nation
DATE .        6-Jun-2009                 :Date as Month-Day-Year
APIN .        23-037-21488-0000          :API Serial Number
SECT .        31                         :Section
TOWN .        7N                         :Township
RANG .        1E                         :Range
DMF  .        KELLY BUSHING              :Drilling Measured From
LMF  .        KELLY BUSHING              :Log Measured From
PDAT .        GROUND LEVEL               :Permanent Datum
ENGI .        CHRISTIAN ZACCARO          :Engineer's Name
WITN .        FRED WALSH                 :Witness's Name
LATI .                                   :Latitude
LONG .                                   :Longitude
LUL  .        NATCHEZ  MS                :Logging Unit Location
LUN  .              2157                 :Logging Unit Number
RUN  .        ONE                        :Run Number
SON  .        APWH-00103                 :Service Order Number
BHT  .DEGF     220.00000                 :Bottom Hole Temperature (used in calculations)
BS   .IN         8.75000                 :Bit Size
DFD  .LB/G       9.90000                 :Drilling Fluid Density
DFV  .S         42.00000                 :Drilling Fluid Viscosity
DFL  .C3         8.30000                 :Drilling Fluid Loss
RMFS .OHMM       1.21700                 :Resistivity of Mud Filtrate Sample
EKB  .F        333.70001                 :Elevation of Kelly Bushing
EGL  .F        315.70001                 :Elevation of Ground Level
BLI  .F       10628.00000                :Bottom Log Interval
BSAL .PPM     2600.00000                 :Borehole Salinity
FLEV .F          0.00000                 :Fluid Level
MCST .DEGF      74.90000                 :Mud Cake Sample Temperature
MFST .DEGF      74.80000                 :Mud Filtrate Sample Temperature
MRT  .DEGF     221.00000                 :Maximum Recorded Temperature
MST  .DEGF      76.20000                 :Mud Sample Temperature
RMCS .OHMM       1.89800                 :Resistivity of Mud Cake Sample
RMS  .OHMM       1.45600                 :Resistivity of Mud Sample
RW   .OHMM       1.00000                 :Resistivity of Connate Water
TDD  .F       10700.00000                :Total Depth - Driller
TDL  .F       10636.00000                :Total Depth - Logger
TLI  .F       2028.00000                 :Top Log Interval
HIDE .        CALIPER LOG                :Header Identifier
MATR .        LIME                       :Rock Matrix for Neutron Porosity Corrections
FNUM .           1.00000                 :Form Factor Numerator
FEXP .           2.00000                 :Form Factor Exponent
DFT  .        FRESH WATER-BASED MUD      :Drilling Fluid Type
DFPH .           9.60000                 :Drilling Fluid PH
MCSS .        MUDPRESS                   :Mud Cake Sample Source
MFSS .        MUDPRESS                   :Mud Filtrate Sample Source
MSS  .        MUDPIT                     :Mud Sample Source
OS1  .        BHC SONIC                  :Other Services Line 1
OS2  .        CST                        :Other Services Line 2
OS3  .                                   :Other Services Line 3
OS4  .                                   :Other Services Line 4
OS5  .                                   :Other Services Line 5
R1   .        FIRST RUN IN WELL          :Remark Line 1
R2   .        ALL SCHLUMBERGER DEPTH PROCEDURES FOLLOWED :Remark Line 2
R3   .        TWO 1.5  STANDOFFS RAN ON INDUCTION TOOL :Remark Line 3
R4   .        BOWSPRING RAN ON NEUTRON TOOL FOR ECCENTRALIZATION :Remark Line 4
R5   .        MATRIX  LIMESTONE  2.71 G/CC :Remark Line 5
R6   .        CHLORIDES  2600PPM         :Remark Line 6
R7   .                                   :Remark Line 7
R8   .        BOREHOLE ENVIRONMENT MAY AFFECT LOG QUALITY :Remark Line 8
TCS  .        18 00                      :Time Circulation Stopped
TLAB .        1 30                       :Time Logger At Bottom
EPD  .F         315.700012               :Elevation of Permanent Datum above Mean Sea Level
APD  .F          18.000000               :Elevation of Depth Reference (LMF) above Permanent Datum
#-----------------------------------------------------------------------------
~CURVE INFORMATION
#MNEM.UNIT   API CODE                                  DESCRIPTION
#---- -----  --------                                  -----------------------
DEPT .F                                                :DEPTH (BOREHOLE) {F12.4}
CTEM .DEGF                                             :Cartridge Temperature {F11.4}
DCAL .IN                                               :Differential Caliper {F11.4}
DT   .US/F                                             :Delta-T {F11.4}
GR_EDTC.GAPI                                           :Gamma Ray {F11.4}
GTEM .DEGF                                             :Generalized Borehole Temperature {F11.4}
ITT  .S                                                :Integrated Transit Time {F11.4}
RWA  .OHMM                                             :Apparent Water Resistivity {F11.4}
SPHI .CFCF                                             :Sonic Porosity {F11.4}
STIT .F                                                :Stuck Tool Indicator, Total {F11.4}
TENS .LBF                                              :Cable Tension {F11.4}
#-----------------------------------------------------------------------------
# 
#      DEPT        CTEM       DCAL        DT      GR_EDTC      GTEM       ITT        RWA        SPHI       STIT       TENS
#
~A  
# ...
   8842.5000   214.9649     0.8415    69.7077    59.6125   194.3690     0.1349   -15.0939     0.1229     0.0000  3247.0000
   8843.0000   214.9649     0.9283    71.1688    62.4675   194.3762     0.1349   -17.7320     0.1332     0.0000  3291.0000
   8843.5000   214.9649     0.9393    72.3356    63.8664   194.3833     0.1348   -19.9068     0.1411     0.0000  3300.0000
   8844.0000   214.9649     0.9681    72.5911    77.7678   194.3905     0.1348   -20.3900     0.1428     0.0000  3332.0000
   8844.5000   214.9649     0.9008    71.9621    71.0176   194.3976     0.1348   -19.2046     0.1386     0.0000  3335.0000
   8845.0000   214.9649     0.8726    71.5392    70.9967   194.4048     0.1347   -18.4163     0.1358     0.0000  3373.0000
   8845.5000   214.9649     0.8659    70.2068    55.9197   194.4119     0.1347   -15.9834     0.1265     0.0000  3310.0000
   8846.0000   214.9649     0.8659    69.8145    52.2193   194.4191     0.1347   -15.2831     0.1237     0.0000  3228.0000
   8846.5000   214.9649     0.8726    69.1388    50.3221   194.4262     0.1346   -14.0963     0.1188     0.0000  3143.0000
   8847.0000   214.9649     0.8726    70.4891    50.8206   194.4333     0.1346   -16.4920     0.1285     0.0000  3112.0000
   8847.5000   214.9649     0.8804    71.7766    56.5629   194.4405     0.1346   -18.8581     0.1374     0.0000  3169.0000
   8848.0000   214.9649     0.8880    72.1993    63.4267   194.4476     0.1345   -19.6498     0.1402     0.0000  3262.0000
   8848.5000   214.9649     0.8941    71.9785    70.6962   194.4548     0.1345   -19.2354     0.1387     0.0000  3377.0000
   8849.0000   214.9649     0.9728    71.2283    68.6295   194.4619     0.1345   -17.8415     0.1336     0.0000  3574.0000
   8849.5000   214.9649     0.8441    71.4171    65.9470   194.4691     0.1344   -18.1901     0.1349     0.0000  3631.0000
   8850.0000   214.9649     0.7784    71.2757    61.5812   194.4762     0.1344   -17.9288     0.1339     0.0000  3543.0000
   8850.5000   214.9649     0.7716    71.4996    62.6443   194.4834     0.1343   -18.3428     0.1355     0.0000  3480.0000
   8851.0000   214.9649     0.7774    72.3763    55.9491   194.4905     0.1343   -19.9836     0.1414     0.0000  3348.0000
   8851.5000   214.9649     0.7816    72.9358    56.1105   194.4977     0.1343   -21.0458     0.1451     0.0000  3380.0000
   8852.0000   214.9649     0.7746    73.9330    56.2925   194.5048     0.1342   -22.9648     0.1516     0.0000  3306.0000
   8852.5000   214.9649     0.7816    73.4955    60.8834   194.5119     0.1342   -22.1190     0.1488     0.0000  3254.0000
   8853.0000   214.9649     0.7659    72.6528    68.7226   194.5191     0.1342   -20.5071     0.1433     0.0000  3256.0000
   8853.5000   214.9649     0.7274    71.7579    71.8173   194.5262     0.1341   -18.8230     0.1372     0.0000  3258.0000
   8854.0000   214.9649     0.6999    71.2652    71.8173   194.5334     0.1341   -17.9094     0.1339     0.0000  3236.0000
   8854.5000   214.9649     0.7335    70.5865    69.1605   194.5405     0.1341   -16.6685     0.1292     0.0000  3272.0000
   8855.0000   214.9649     0.7265    70.1780    63.8068   194.5477     0.1340   -15.9317     0.1263     0.0000  3253.0000
   8855.5000   214.9649     0.7452    69.9912    66.2932   194.5548     0.1340   -15.5976     0.1249     0.0000  3304.0000
   8856.0000   214.9649     0.7589    69.4933    61.7065   194.5620     0.1340   -14.7158     0.1214     0.0000  3381.0000
   8856.5000   214.9649     0.7727    69.7414    60.6680   194.5691     0.1339   -15.1536     0.1231     0.0000  3303.0000
   8857.0000   214.9649     0.7932    70.6913    66.9499   194.5763     0.1339   -16.8587     0.1299     0.0000  3280.0000
   8857.5000   214.9649     0.7864    71.3912    64.3277   194.5834     0.1338   -18.1421     0.1347     0.0000  3293.0000
   8858.0000   214.9649     0.7932    72.3388    68.4467   194.5905     0.1338   -19.9127     0.1412     0.0000  3241.0000
   8858.5000   214.9649     0.8063    72.6321    62.8225   194.5977     0.1338   -20.4678     0.1431     0.0000  3249.0000
   8859.0000   214.9649     0.8070    72.6801    64.6876   194.6048     0.1337   -20.5589     0.1434     0.0000  3236.0000
   8859.5000   214.9649     0.8554    72.9647    66.2803   194.6120     0.1337   -21.1009     0.1453     0.0000  3277.0000
   8860.0000   214.9649     0.8792    73.2301    67.4515   194.6191     0.1337   -21.6088     0.1471     0.0000  3349.0000
   8860.5000   214.9649     0.7348    73.7143    72.3365   194.6263     0.1336   -22.5413     0.1502     0.0000  3368.0000
   8861.0000   214.9649     0.9345    74.0848    78.5675   194.6334     0.1336   -23.2596     0.1526     0.0000  3442.0000
   8861.5000   214.9649     0.9405    74.0956    83.9112   194.6406     0.1336   -23.2807     0.1526     0.0000  3448.0000
   8862.0000   214.9649     0.9732    73.6393    83.8491   194.6477     0.1335   -22.3963     0.1497     0.0000  3386.0000
   8862.5000   214.9649     0.9969    72.5741    76.0955   194.6548     0.1335   -20.3579     0.1427     0.0000  3294.0000
   8863.0000   214.9649     1.0027    72.9037    71.6291   194.6620     0.1334   -20.9845     0.1449     0.0000  3244.0000
   8863.5000   214.9649     1.0481    73.5803    74.3763   194.6691     0.1334   -22.2824     0.1493     0.0000  3253.0000
   8864.0000   214.9649     1.4663    75.5723    70.1873   194.6763     0.1334   -26.1813     0.1619     0.0000  3253.0000
   8864.5000   214.9649     1.2784    76.3745    70.7065   194.6834     0.1333   -27.7787     0.1667     0.0000  3272.0000
   8865.0000   214.9649     1.0027    76.2159    66.6988   194.6906     0.1333   -27.4619     0.1658     0.0000  3316.0000
   8865.5000   214.9649     1.0538    75.6988    75.0067   194.6977     0.1333   -26.4323     0.1626     0.0000  3343.0000
   8866.0000   214.9649     1.0846    74.4656    71.7814   194.7049     0.1332   -24.0022     0.1550     0.0000  3326.0000
   8866.5000   214.9649     1.1419    74.2094    74.6948   194.7120     0.1332   -23.5022     0.1534     0.0000  3358.0000
   8867.0000   214.9649     1.2192    75.3826    83.4664   194.7192     0.1331   -25.8057     0.1607     0.0000  3316.0000
   8867.5000   214.9649     1.4248    75.4798    92.9227   194.7263     0.1331   -25.9981     0.1613     0.0000  3285.0000
   8868.0000   214.9649     1.0756    75.5576    93.4089   194.7335     0.1331   -26.1522     0.1618     0.0000  3272.0000
   8868.5000   214.9649     1.0838    75.9345    85.3363   194.7406     0.1330   -26.9009     0.1641     0.0000  3264.0000
   8869.0000   214.9649     1.1186    76.3675    78.6484   194.7477     0.1330   -27.7647     0.1667     0.0000  3293.0000
   8869.5000   214.9649     1.5663    76.6723    81.4512   194.7549     0.1330   -28.3749     0.1685     0.0000  3315.0000
   8870.0000   214.9649     1.1062    75.9749    76.5983   194.7620     0.1329   -26.9814     0.1643     0.0000  3300.0000
   8870.5000   214.9649     1.0560    76.3850    76.9945   194.7692     0.1329   -27.7996     0.1668     0.0000  3320.0000
   8871.0000   214.9649     1.4209    76.6561    74.1917   194.7763     0.1328   -28.3424     0.1684     0.0000  3335.0000
   8871.5000   214.9649     1.3865    76.9977    77.7387   194.7835     0.1328   -29.0284     0.1704     0.0000  3271.0000
   8872.0000   214.9649     1.1550    76.2247    76.7608   194.7906     0.1328   -27.4793     0.1658     0.0000  3294.0000
   8872.5000   214.9649     0.9957    76.7137    66.8737   194.7978     0.1327   -28.4580     0.1688     0.0000  3288.0000
   8873.0000   214.9649     0.9751    77.1917    65.5907   194.8049     0.1327   -29.4188     0.1716     0.0000  3259.0000
   8873.5000   214.9649     1.1189    76.9576    64.0330   194.8121     0.1326   -28.9476     0.1702     0.0000  3273.0000
   8874.0000   214.9649     1.4415    78.5460    75.4778   194.8192     0.1326   -32.1607     0.1794     0.0000  3270.0000
   8874.5000   215.5296     1.2214    78.3784    82.5770   194.8264     0.1326   -31.8200     0.1784     0.0000  3291.0000
   8875.0000   215.8120     1.0182    76.6566    82.0577   194.8335     0.1325   -28.3434     0.1684     0.0000  3273.0000
