~VERSION INFORMATION
VERS.           1.2   :CWLS Log ASCII Standard - VERSION 1.2
WRAP.           NO    :One Line per depth step
PROD.  Schlumberger   :LAS Producer
PROG.  DLIS to ASCII 10C0-306                          :LAS Program name and version
CREA.        2009/06/06 23:09                          :LAS Creation date {YYYY/MM/DD hh:mm}
SOURCE.     d986ea9e-f59c-4559-942d-7b7265e62d76       :DLIS File Name
#--------------------------------------------------
~WELL INFORMATION
#MNEM.UNIT      DATA             DESCRIPTION
#---- ------ --------------   -----------------------------
STRT .F      1945.5000       :START DEPTH     
STOP .F      10600.5000      :STOP DEPTH     
STEP .F       0.5000         :STEP       
NULL .          -999.25      :NULL VALUE
COMP .                 COMPANY:  DENBURY ONSHORE, LLC               
WELL .                    WELL:  CFU 31F #1                         
FLD  .                   FIELD:  CRANFIELD FIELD UNIT               
LOC  .                LOCATION:  X: 248,375.1'                      
CNTY .                  COUNTY:  FRANKLIN                           
STAT .                   STATE:  MISSISSIPPI                        
CTRY .                 COUNTRY:                                     
SRVC .         SERVICE COMPANY:  Schlumberger                       
API  .              API NUMBER:  23-037-21488-0000                  
DATE .                LOG DATE:  6-Jun-2009
UWI  .          UNIQUE WELL ID:                                     
#-----------------------------------------------------------------------------
~PARAMETER INFORMATION
#MNEM.UNIT    VALUE                      DESCRIPTION
#---- -----   --------------------       ------------------------
CN   .        DENBURY ONSHORE  LLC       :Company Name
WN   .        CFU 31F #1                 :Well Name
FN   .        CRANFIELD FIELD UNIT       :Field Name
FL   .        X  248 375.1'              :Field Location
FL1  .        Y  387 674.2'              :Field Location Line 1
COUN .        FRANKLIN                   :County or Rig Name
STAT .        MISSISSIPPI                :State or Province
NATI .                                   :Nation
DATE .        6-Jun-2009                 :Date as Month-Day-Year
APIN .        23-037-21488-0000          :API Serial Number
SECT .        31                         :Section
TOWN .        7N                         :Township
RANG .        1E                         :Range
DMF  .        KELLY BUSHING              :Drilling Measured From
LMF  .        KELLY BUSHING              :Log Measured From
PDAT .        GROUND LEVEL               :Permanent Datum
ENGI .        CHRISTIAN ZACCARO          :Engineer's Name
WITN .        FRED WALSH                 :Witness's Name
LATI .                                   :Latitude
LONG .                                   :Longitude
LUL  .        NATCHEZ  MS                :Logging Unit Location
LUN  .              2157                 :Logging Unit Number
RUN  .        ONE                        :Run Number
SON  .        APWH-00103                 :Service Order Number
BHT  .DEGF     220.00000                 :Bottom Hole Temperature (used in calculations)
BS   .IN         8.75000                 :Bit Size
DFD  .LB/G       9.90000                 :Drilling Fluid Density
DFV  .S         42.00000                 :Drilling Fluid Viscosity
DFL  .C3         8.30000                 :Drilling Fluid Loss
RMFS .OHMM       1.21700                 :Resistivity of Mud Filtrate Sample
EKB  .F        333.70001                 :Elevation of Kelly Bushing
EGL  .F        315.70001                 :Elevation of Ground Level
BLI  .F       10628.00000                :Bottom Log Interval
BSAL .PPM     2600.00000                 :Borehole Salinity
FLEV .F          0.00000                 :Fluid Level
MCST .DEGF      74.90000                 :Mud Cake Sample Temperature
MFST .DEGF      74.80000                 :Mud Filtrate Sample Temperature
MRT  .DEGF     221.00000                 :Maximum Recorded Temperature
MST  .DEGF      76.20000                 :Mud Sample Temperature
RMCS .OHMM       1.89800                 :Resistivity of Mud Cake Sample
RMS  .OHMM       1.45600                 :Resistivity of Mud Sample
RW   .OHMM       1.00000                 :Resistivity of Connate Water
TDD  .F       10700.00000                :Total Depth - Driller
TDL  .F       10636.00000                :Total Depth - Logger
TLI  .F       2028.00000                 :Top Log Interval
HIDE .        CALIPER LOG                :Header Identifier
MATR .        LIME                       :Rock Matrix for Neutron Porosity Corrections
FNUM .           1.00000                 :Form Factor Numerator
FEXP .           2.00000                 :Form Factor Exponent
DFT  .        FRESH WATER-BASED MUD      :Drilling Fluid Type
DFPH .           9.60000                 :Drilling Fluid PH
MCSS .        MUDPRESS                   :Mud Cake Sample Source
MFSS .        MUDPRESS                   :Mud Filtrate Sample Source
MSS  .        MUDPIT                     :Mud Sample Source
OS1  .        BHC SONIC                  :Other Services Line 1
OS2  .        CST                        :Other Services Line 2
OS3  .                                   :Other Services Line 3
OS4  .                                   :Other Services Line 4
OS5  .                                   :Other Services Line 5
R1   .        FIRST RUN IN WELL          :Remark Line 1
R2   .        ALL SCHLUMBERGER DEPTH PROCEDURES FOLLOWED :Remark Line 2
R3   .        TWO 1.5  STANDOFFS RAN ON INDUCTION TOOL :Remark Line 3
R4   .        BOWSPRING RAN ON NEUTRON TOOL FOR ECCENTRALIZATION :Remark Line 4
R5   .        MATRIX  LIMESTONE  2.71 G/CC :Remark Line 5
R6   .        CHLORIDES  2600PPM         :Remark Line 6
R7   .                                   :Remark Line 7
R8   .        BOREHOLE ENVIRONMENT MAY AFFECT LOG QUALITY :Remark Line 8
TCS  .        18 00                      :Time Circulation Stopped
TLAB .        1 30                       :Time Logger At Bottom
EPD  .F         315.700012               :Elevation of Permanent Datum above Mean Sea Level
APD  .F          18.000000               :Elevation of Depth Reference (LMF) above Permanent Datum
#-----------------------------------------------------------------------------
~CURVE INFORMATION
#MNEM.UNIT   API CODE                                  DESCRIPTION
#---- -----  --------                                  -----------------------
DEPT .F                                                :DEPTH (BOREHOLE) {F12.4}
CTEM .DEGF                                             :Cartridge Temperature {F11.4}
DCAL .IN                                               :Differential Caliper {F11.4}
DT   .US/F                                             :Delta-T {F11.4}
GR_EDTC.GAPI                                           :Gamma Ray {F11.4}
GTEM .DEGF                                             :Generalized Borehole Temperature {F11.4}
ITT  .S                                                :Integrated Transit Time {F11.4}
RWA  .OHMM                                             :Apparent Water Resistivity {F11.4}
SPHI .CFCF                                             :Sonic Porosity {F11.4}
STIT .F                                                :Stuck Tool Indicator, Total {F11.4}
TENS .LBF                                              :Cable Tension {F11.4}
#-----------------------------------------------------------------------------
# 
#      DEPT        CTEM       DCAL        DT      GR_EDTC      GTEM       ITT        RWA        SPHI       STIT       TENS
#
~A  
# ...
   3661.5000   163.5766     0.4137   114.4956    65.1608   120.3269     0.6376  -101.8833     0.3193     0.0000  1655.0000
   3662.0000   163.5766     0.4092   113.9055    71.4379   120.3340     0.6375  -100.8753     0.3177     0.0000  1660.0000
   3662.5000   163.5766     0.3507   113.3204    71.9578   120.3411     0.6375   -99.8704     0.3161     0.0000  1645.0000
   3663.0000   163.5766     0.4668   113.0879    68.8462   120.3483     0.6374   -99.4695     0.3155     0.0000  1673.0000
   3663.5000   163.5766     0.3688   116.6713    66.9473   120.3554     0.6374  -105.5535     0.3250     0.0000  1676.0000
   3664.0000   163.5766     0.9478   113.2744    68.5070   120.3626     0.6373   -99.7911     0.3160     0.0000  1652.0000
   3664.5000   163.5766     0.4889   119.6206    68.2765   120.3697     0.6373  -110.4123     0.3324     0.0000  1660.0000
   3665.0000   163.5766     1.7528   120.7222    68.3374   120.3769     0.6372  -112.1933     0.3351     0.0000  1657.0000
   3665.5000   163.5766     1.3188   115.8463    72.4966   120.3840     0.6371  -104.1705     0.3229     0.0000  1660.0000
   3666.0000   163.5766     0.5094   117.0590    65.8664   120.3912     0.6371  -106.1998     0.3260     0.0000  1691.0000
   3666.5000   163.5766     0.3575   111.5423    56.9893   120.3983     0.6370   -96.7838     0.3112     0.0000  1682.0000
   3667.0000   163.5766     0.3119   108.8782    42.9521   120.4055     0.6370   -92.0674     0.3035     0.0000  1643.0000
   3667.5000   163.5766     0.3179   108.8017    34.4741   120.4126     0.6369   -91.9303     0.3033     0.0000  1632.0000
   3668.0000   163.5766     0.3498   107.4322    42.8314   120.4197     0.6369   -89.4614     0.2992     0.0000  1642.0000
   3668.5000   163.5766     0.3972   110.6496    47.9901   120.4269     0.6368   -95.2156     0.3087     0.0000  1743.0000
   3669.0000   163.5766     0.3455   113.0344    57.6682   120.4340     0.6367   -99.3771     0.3154     0.0000  1762.0000
   3669.5000   163.5766     0.3396   121.6154    55.1277   120.4412     0.6367  -113.6236     0.3372     0.0000  1762.0000
   3670.0000   164.1413     0.5482   125.1126    58.8072   120.4483     0.6366  -119.1096     0.3453     0.0000  1691.0000
   3670.5000   164.8943     1.0815   123.5023    62.9119   120.4555     0.6366  -116.6060     0.3416     0.0000  1652.0000
   3671.0000   164.8943     0.4151   116.0321    58.6510   120.4626     0.6365  -104.4829     0.3234     0.0000  1657.0000
   3671.5000   164.4237     0.4082   103.7123    58.0842   120.4698     0.6364   -82.6103     0.2875     0.0000  1691.0000
   3672.0000   165.5531     0.4151    99.0765    57.0470   120.4769     0.6364   -73.7859     0.2717     0.0000  1684.0000
   3672.5000   164.8943     0.3635   100.9412    59.9720   120.4841     0.6363   -77.3724     0.2783     0.0000  1663.0000
   3673.0000   164.9884     0.4349   106.7163    62.0453   120.4912     0.6363   -88.1592     0.2970     0.0000  1616.0000
   3673.5000   165.5531     0.4580   114.5087    68.2685   120.4983     0.6362  -101.9057     0.3193     0.0000  1628.0000
   3674.0000   165.5531     0.4898   114.5273    73.7046   120.5055     0.6362  -101.9372     0.3194     0.0000  1725.0000
   3674.5000   165.5531     0.3576   115.0864    71.6782   120.5126     0.6361  -102.8872     0.3209     0.0000  1772.0000
   3675.0000   165.5531     0.4005   113.5673    66.9288   120.5198     0.6361  -100.2950     0.3168     0.0000  1657.0000
   3675.5000   165.5531     0.3310   113.3383    64.8492   120.5269     0.6360   -99.9012     0.3162     0.0000  1678.0000
   3676.0000   165.5531     0.3428   112.9583    65.3691   120.5341     0.6360   -99.2457     0.3152     0.0000  1677.0000
   3676.5000   165.5531     0.2912   112.2900    64.0360   120.5412     0.6359   -98.0877     0.3133     0.0000  1693.0000
   3677.0000   165.5531     0.2794   112.2375    61.9565   120.5484     0.6358   -97.9964     0.3132     0.0000  1657.0000
   3677.5000   165.5531     0.3035   113.4902    56.2026   120.5555     0.6358  -100.1626     0.3166     0.0000  1669.0000
   3678.0000   165.5531     0.2966   115.2231    51.3944   120.5627     0.6357  -103.1187     0.3212     0.0000  1694.0000
   3678.5000   165.5531     0.3035   114.8937    45.2516   120.5698     0.6357  -102.5604     0.3204     0.0000  1670.0000
   3679.0000   165.5531     0.2967   115.2066    44.6995   120.5770     0.6356  -103.0908     0.3212     0.0000  1667.0000
   3679.5000   165.5531     0.3028   114.0127    42.1402   120.5841     0.6356  -101.0588     0.3180     0.0000  1663.0000
   3680.0000   165.5531     0.2897   111.8937    39.4359   120.5912     0.6355   -97.3976     0.3122     0.0000  1667.0000
   3680.5000   165.5531     0.2967   112.1657    36.8764   120.5984     0.6354   -97.8715     0.3130     0.0000  1670.0000
   3681.0000   165.5531     0.3103   112.4036    31.6774   120.6055     0.6354   -98.2851     0.3136     0.0000  1675.0000
   3681.5000   165.5531     0.3035   113.6437    33.7659   120.6127     0.6353  -100.4263     0.3170     0.0000  1668.0000
   3682.0000   165.5531     0.3492   114.8272    36.2060   120.6198     0.6353  -102.4475     0.3202     0.0000  1677.0000
   3682.5000   165.5531     0.3021   115.8534    41.9249   120.6270     0.6352  -104.1823     0.3229     0.0000  1670.0000
   3683.0000   165.5531     0.3090   115.6240    41.3351   120.6341     0.6352  -103.7960     0.3223     0.0000  1662.0000
   3683.5000   165.5531     0.3090   112.9165    44.0699   120.6413     0.6351   -99.1736     0.3150     0.0000  1674.0000
   3684.0000   165.5531     0.3090   113.0854    51.8684   120.6484     0.6350   -99.4651     0.3155     0.0000  1674.0000
   3684.5000   165.5531     0.3208   113.6136    62.3362   120.6556     0.6350  -100.3746     0.3169     0.0000  1663.0000
   3685.0000   165.5531     0.3344   113.8946    61.8287   120.6627     0.6349  -100.8564     0.3177     0.0000  1668.0000
   3685.5000   165.5531     0.3217   114.1633    62.2108   120.6698     0.6349  -101.3162     0.3184     0.0000  1653.0000
   3686.0000   165.5531     0.3413   114.2998    59.0914   120.6770     0.6348  -101.5494     0.3188     0.0000  1669.0000
   3686.5000   165.5531     0.3424   114.2874    65.8890   120.6841     0.6348  -101.5282     0.3188     0.0000  1668.0000
   3687.0000   165.5531     0.3483   114.1385    67.5268   120.6913     0.6347  -101.2739     0.3184     0.0000  1671.0000
   3687.5000   165.5531     0.3483   114.2078    64.4687   120.6984     0.6346  -101.3923     0.3185     0.0000  1674.0000
   3688.0000   165.5531     0.2976   114.3767    60.7827   120.7056     0.6346  -101.6806     0.3190     0.0000  1665.0000
   3688.5000   165.5531     0.2952   114.5387    52.5240   120.7127     0.6345  -101.9567     0.3194     0.0000  1673.0000
   3689.0000   165.5531     0.3064   114.8967    52.9693   120.7199     0.6345  -102.5655     0.3204     0.0000  1680.0000
   3689.5000   165.5531     0.4285   114.7704    54.5251   120.7270     0.6344  -102.3509     0.3200     0.0000  1658.0000
   3690.0000   165.5531     0.4332   114.8376    57.1246   120.7342     0.6344  -102.4650     0.3202     0.0000  1660.0000
   3690.5000   165.5531     0.4481   114.5697    57.6578   120.7413     0.6343  -102.0095     0.3195     0.0000  1663.0000
   3691.0000   165.5531     0.3942   114.7494    58.2726   120.7484     0.6342  -102.3151     0.3200     0.0000  1667.0000
   3691.5000   165.5531     0.3936   115.0880    60.9242   120.7556     0.6342  -102.8898     0.3209     0.0000  1679.0000
   3692.0000   165.5531     0.3936   115.0329    59.8391   120.7627     0.6341  -102.7966     0.3207     0.0000  1664.0000
   3692.5000   165.5531     0.3942   115.0227    61.2642   120.7699     0.6341  -102.7793     0.3207     0.0000  1660.0000
   3693.0000   165.5531     0.4072   114.4643    65.3713   120.7770     0.6340  -101.8300     0.3192     0.0000  1681.0000
   3693.5000   165.5531     0.4511   113.9544    67.9127   120.7842     0.6340  -100.9590     0.3179     0.0000  1679.0000
   3694.0000   165.5531     0.4397   113.4299    64.3636   120.7913     0.6339  -100.0588     0.3164     0.0000  1675.0000
