~VERSION INFORMATION
VERS.           1.2   :CWLS Log ASCII Standard - VERSION 1.2
WRAP.           NO    :One Line per depth step
PROD.  Schlumberger   :LAS Producer
PROG.  DLIS to ASCII 10C0-306                          :LAS Program name and version
CREA.        2009/06/06 23:09                          :LAS Creation date {YYYY/MM/DD hh:mm}
SOURCE.     d986ea9e-f59c-4559-942d-7b7265e62d76       :DLIS File Name
#--------------------------------------------------
~WELL INFORMATION
#MNEM.UNIT      DATA             DESCRIPTION
#---- ------ --------------   -----------------------------
STRT .F      1945.5000       :START DEPTH     
STOP .F      10600.5000      :STOP DEPTH     
STEP .F       0.5000         :STEP       
NULL .          -999.25      :NULL VALUE
COMP .                 COMPANY:  DENBURY ONSHORE, LLC               
WELL .                    WELL:  CFU 31F #1                         
FLD  .                   FIELD:  CRANFIELD FIELD UNIT               
LOC  .                LOCATION:  X: 248,375.1'                      
CNTY .                  COUNTY:  FRANKLIN                           
STAT .                   STATE:  MISSISSIPPI                        
CTRY .                 COUNTRY:                                     
SRVC .         SERVICE COMPANY:  Schlumberger                       
API  .              API NUMBER:  23-037-21488-0000                  
DATE .                LOG DATE:  6-Jun-2009
UWI  .          UNIQUE WELL ID:                                     
#-----------------------------------------------------------------------------
~PARAMETER INFORMATION
#MNEM.UNIT    VALUE                      DESCRIPTION
#---- -----   --------------------       ------------------------
CN   .        DENBURY ONSHORE  LLC       :Company Name
WN   .        CFU 31F #1                 :Well Name
FN   .        CRANFIELD FIELD UNIT       :Field Name
FL   .        X  248 375.1'              :Field Location
FL1  .        Y  387 674.2'              :Field Location Line 1
COUN .        FRANKLIN                   :County or Rig Name
STAT .        MISSISSIPPI                :State or Province
NATI .                                   :Nation
DATE .        6-Jun-2009                 :Date as Month-Day-Year
APIN .        23-037-21488-0000          :API Serial Number
SECT .        31                         :Section
TOWN .        7N                         :Township
RANG .        1E                         :Range
DMF  .        KELLY BUSHING              :Drilling Measured From
LMF  .        KELLY BUSHING              :Log Measured From
PDAT .        GROUND LEVEL               :Permanent Datum
ENGI .        CHRISTIAN ZACCARO          :Engineer's Name
WITN .        FRED WALSH                 :Witness's Name
LATI .                                   :Latitude
LONG .                                   :Longitude
LUL  .        NATCHEZ  MS                :Logging Unit Location
LUN  .              2157                 :Logging Unit Number
RUN  .        ONE                        :Run Number
SON  .        APWH-00103                 :Service Order Number
BHT  .DEGF     220.00000                 :Bottom Hole Temperature (used in calculations)
BS   .IN         8.75000                 :Bit Size
DFD  .LB/G       9.90000                 :Drilling Fluid Density
DFV  .S         42.00000                 :Drilling Fluid Viscosity
DFL  .C3         8.30000                 :Drilling Fluid Loss
RMFS .OHMM       1.21700                 :Resistivity of Mud Filtrate Sample
EKB  .F        333.70001                 :Elevation of Kelly Bushing
EGL  .F        315.70001                 :Elevation of Ground Level
BLI  .F       10628.00000                :Bottom Log Interval
BSAL .PPM     2600.00000                 :Borehole Salinity
FLEV .F          0.00000                 :Fluid Level
MCST .DEGF      74.90000                 :Mud Cake Sample Temperature
MFST .DEGF      74.80000                 :Mud Filtrate Sample Temperature
MRT  .DEGF     221.00000                 :Maximum Recorded Temperature
MST  .DEGF      76.20000                 :Mud Sample Temperature
RMCS .OHMM       1.89800                 :Resistivity of Mud Cake Sample
RMS  .OHMM       1.45600                 :Resistivity of Mud Sample
RW   .OHMM       1.00000                 :Resistivity of Connate Water
TDD  .F       10700.00000                :Total Depth - Driller
TDL  .F       10636.00000                :Total Depth - Logger
TLI  .F       2028.00000                 :Top Log Interval
HIDE .        CALIPER LOG                :Header Identifier
MATR .        LIME                       :Rock Matrix for Neutron Porosity Corrections
FNUM .           1.00000                 :Form Factor Numerator
FEXP .           2.00000                 :Form Factor Exponent
DFT  .        FRESH WATER-BASED MUD      :Drilling Fluid Type
DFPH .           9.60000                 :Drilling Fluid PH
MCSS .        MUDPRESS                   :Mud Cake Sample Source
MFSS .        MUDPRESS                   :Mud Filtrate Sample Source
MSS  .        MUDPIT                     :Mud Sample Source
OS1  .        BHC SONIC                  :Other Services Line 1
OS2  .        CST                        :Other Services Line 2
OS3  .                                   :Other Services Line 3
OS4  .                                   :Other Services Line 4
OS5  .                                   :Other Services Line 5
R1   .        FIRST RUN IN WELL          :Remark Line 1
R2   .        ALL SCHLUMBERGER DEPTH PROCEDURES FOLLOWED :Remark Line 2
R3   .        TWO 1.5  STANDOFFS RAN ON INDUCTION TOOL :Remark Line 3
R4   .        BOWSPRING RAN ON NEUTRON TOOL FOR ECCENTRALIZATION :Remark Line 4
R5   .        MATRIX  LIMESTONE  2.71 G/CC :Remark Line 5
R6   .        CHLORIDES  2600PPM         :Remark Line 6
R7   .                                   :Remark Line 7
R8   .        BOREHOLE ENVIRONMENT MAY AFFECT LOG QUALITY :Remark Line 8
TCS  .        18 00                      :Time Circulation Stopped
TLAB .        1 30                       :Time Logger At Bottom
EPD  .F         315.700012               :Elevation of Permanent Datum above Mean Sea Level
APD  .F          18.000000               :Elevation of Depth Reference (LMF) above Permanent Datum
#-----------------------------------------------------------------------------
~CURVE INFORMATION
#MNEM.UNIT   API CODE                                  DESCRIPTION
#---- -----  --------                                  -----------------------
DEPT .F                                                :DEPTH (BOREHOLE) {F12.4}
CTEM .DEGF                                             :Cartridge Temperature {F11.4}
DCAL .IN                                               :Differential Caliper {F11.4}
DT   .US/F                                             :Delta-T {F11.4}
GR_EDTC.GAPI                                           :Gamma Ray {F11.4}
GTEM .DEGF                                             :Generalized Borehole Temperature {F11.4}
ITT  .S                                                :Integrated Transit Time {F11.4}
RWA  .OHMM                                             :Apparent Water Resistivity {F11.4}
SPHI .CFCF                                             :Sonic Porosity {F11.4}
STIT .F                                                :Stuck Tool Indicator, Total {F11.4}
TENS .LBF                                              :Cable Tension {F11.4}
#-----------------------------------------------------------------------------
# 
#      DEPT        CTEM       DCAL        DT      GR_EDTC      GTEM       ITT        RWA        SPHI       STIT       TENS
#
~A  
   1945.5000   147.7648    -6.1741   168.7144    50.4236    95.8033     0.8516  -174.2162     0.4175     0.0000  1103.0000
   1946.0000   147.7648    -6.1741   168.7144    51.4245    95.8105     0.8516  -174.2162     0.4175     0.0000  1114.0000
   1946.5000   147.7648    -6.1799   168.7144    48.8315    95.8176     0.8516  -174.2162     0.4175     0.0000  1112.0000
   1947.0000   147.7648    -6.1825   168.7144    52.4290    95.8248     0.8516  -174.2162     0.4175     0.0000  1100.0000
   1947.5000   147.7648    -6.1825   168.7144    59.2266    95.8319     0.8516  -174.2162     0.4175     0.0000  1112.0000
   1948.0000   147.7648    -6.2250   168.7144    60.7372    95.8391     0.8516  -174.2162     0.4175     0.0000  1117.0000
   1948.5000   147.7648    -6.2790   168.7144    55.5383    95.8462     0.8516  -174.2162     0.4175     0.0000  1098.0000
   1949.0000   147.7648    -6.2790   168.7144    54.4985    95.8533     0.8516  -174.2162     0.4175     0.0000  1118.0000
   1949.5000   147.7648    -6.2790    91.5982    51.4320    95.8605     0.8515   -58.9544     0.2429     0.0000  1114.0000
   1950.0000   147.7648    -6.2790    90.8656    54.5514    95.8676     0.8514   -57.4684     0.2398     0.0000  1104.0000
   1950.5000   147.7648    -6.2809    90.5451    53.9796    95.8748     0.8514   -56.8169     0.2385     0.0000  1113.0000
   1951.0000   147.7648    -6.2790   109.6573    54.0172    95.8819     0.8513   -93.4581     0.3058     0.0000  1112.0000
   1951.5000   147.7648    -6.2645   136.8887    60.7759    95.8891     0.8513  -136.2934     0.3693     0.0000  1111.0000
   1952.0000   147.7648    -6.2073   137.8922    61.8131    95.8962     0.8512  -137.6702     0.3712     0.0000  1101.0000
   1952.5000   147.7648    -5.7381    86.2806    67.4801    95.9034     0.8512   -48.0769     0.2193     0.0000  1099.0000
   1953.0000   147.7648    -4.7730    58.7942    65.4005    95.9105     0.8511    -0.8816     0.0297     0.0000  1117.0000
   1953.5000   147.7648    -4.1550    58.3643    64.4152    95.9177     0.8511    -0.6406     0.0253     0.0000  1112.0000
   1954.0000   147.7648    -3.0114   108.5404    66.4896    95.9248     0.8511   -91.4614     0.3025     0.0000  1111.0000
   1954.5000   147.7648    -1.8611   185.7135    62.3304    95.9319     0.8510  -190.4222     0.4365     0.0000  1115.0000
   1955.0000   147.7648    -1.2540   184.8099    58.1297    95.9391     0.8509  -189.6192     0.4356     0.0000  1115.0000
   1955.5000   147.7648    -0.0613   184.7166    52.4679    95.9462     0.8508  -189.5359     0.4355     0.0000  1115.0000
   1956.0000   147.7648     0.3082    54.9494    52.4212    95.9534     0.8507    -0.0031    -0.0120     0.0000  1114.0000
   1956.5000   147.7648     0.3900    54.6112    51.9428    95.9605     0.8507    -0.0031    -0.0159     0.0000  1110.0000
   1957.0000   147.7648     0.4391    54.4598    51.3815    95.9677     0.8507    -0.0031    -0.0177     0.0000  1119.0000
   1957.5000   147.7648     0.4391    54.4156    50.9082    95.9748     0.8506    -0.0031    -0.0182     0.0000  1108.0000
   1958.0000   147.7648     0.4272    54.6246    52.9878    95.9820     0.8506    -0.0031    -0.0157     0.0000  1105.0000
   1958.5000   147.7648     0.4340    54.6786    57.6552    95.9891     0.8506    -0.0031    -0.0151     0.0000  1120.0000
   1959.0000   147.7648     0.4288    54.2140    58.6470    95.9963     0.8506    -0.0031    -0.0206     0.0000  1117.0000
   1959.5000   147.7648     0.4272    53.6467    53.9680    96.0034     0.8505    -0.0031    -0.0274     0.0000  1119.0000
   1960.0000   147.7648     0.4029    52.8312    52.4614    96.0106     0.8505    -0.0031    -0.0375     0.0000  1109.0000
   1960.5000   147.7648     0.4068    52.4428    48.8312    96.0177     0.8505    -0.0031    -0.0424     0.0000  1115.0000
   1961.0000   147.7648     0.4206    52.3747    60.2067    96.0248     0.8505    -0.0031    -0.0433     0.0000  1117.0000
   1961.5000   147.7648     0.4316    52.4865    62.8062    96.0320     0.8504    -0.0031    -0.0418     0.0000  1125.0000
   1962.0000   147.7648     0.4458    52.0452    70.6436    96.0391     0.8504    -0.0031    -0.0475     0.0000  1119.0000
   1962.5000   147.7648     0.4266    52.0025    68.0506    96.0463     0.8504    -0.0031    -0.0480     0.0000  1129.0000
   1963.0000   147.7648     0.4160    51.8821    67.5151    96.0534     0.8503    -0.0031    -0.0496     0.0000  1124.0000
   1963.5000   147.7648     0.4135    51.5719    59.1967    96.0606     0.8503    -0.0031    -0.0537     0.0000  1125.0000
   1964.0000   147.7648     0.4216    51.0880    60.6932    96.0677     0.8503    -0.0031    -0.0601     0.0000  1118.0000
   1964.5000   147.7648     0.4048    51.8057    59.6690    96.0749     0.8503    -0.0031    -0.0506     0.0000  1123.0000
   1965.0000   147.7648     0.4592    52.2103    66.4277    96.0820     0.8502    -0.0031    -0.0454     0.0000  1126.0000
   1965.5000   147.7648     0.4929    52.2378    58.1507    96.0892     0.8502    -0.0031    -0.0450     0.0000  1130.0000
   1966.0000   147.7648     0.4974    52.2125    52.9908    96.0963     0.8502    -0.0031    -0.0453     0.0000  1120.0000
   1966.5000   147.7648     0.4933    52.1959    53.9736    96.1034     0.8502    -0.0031    -0.0456     0.0000  1127.0000
   1967.0000   147.7648     0.4840    51.9212    51.9379    96.1106     0.8501    -0.0031    -0.0491     0.0000  1135.0000
   1967.5000   147.7648     0.4779    51.8371    53.5014    96.1177     0.8501    -0.0031    -0.0502     0.0000  1129.0000
   1968.0000   147.7648     0.5045    59.7797    46.2410    96.1249     0.8501    -1.5604     0.0395     0.0000  1121.0000
   1968.5000   147.7648     0.5467    59.9453    52.4642    96.1320     0.8501    -1.6907     0.0411     0.0000  1135.0000
   1969.0000   147.7648     0.5759    60.2458    57.6202    96.1392     0.8500    -1.9386     0.0440     0.0000  1127.0000
   1969.5000   147.7648     0.5899    61.1693    61.8183    96.1463     0.8500    -2.7876     0.0528     0.0000  1136.0000
   1970.0000   147.7648     0.5777    61.5698    61.8183    96.1535     0.8500    -3.1943     0.0565     0.0000  1126.0000
   1970.5000   147.7648     0.3913    62.0591    61.2984    96.1606     0.8499    -3.7208     0.0610     0.0000  1130.0000
   1971.0000   147.7648     0.3878    62.1351    60.2119    96.1678     0.8499    -3.8055     0.0617     0.0000  1135.0000
   1971.5000   147.7648     0.3833    62.1959    60.2612    96.1749     0.8499    -3.8736     0.0623     0.0000  1128.0000
   1972.0000   147.7648     0.3870    53.0130    56.6219    96.1820     0.8498    -0.0031    -0.0352     0.0000  1130.0000
   1972.5000   147.7648     0.3904    53.2285    54.5475    96.1892     0.8498    -0.0031    -0.0325     0.0000  1134.0000
   1973.0000   147.7648     0.4024    53.6633    56.5726    96.1963     0.8498    -0.0031    -0.0272     0.0000  1121.0000
   1973.5000   147.7648     0.4022    53.8437    63.8512    96.2035     0.8498    -0.0031    -0.0250     0.0000  1137.0000
   1974.0000   147.7648     0.4028    53.8674    65.4524    96.2106     0.8497    -0.0031    -0.0247     0.0000  1133.0000
   1974.5000   147.7648     0.3866    53.9937    61.3036    96.2178     0.8497    -0.0031    -0.0232     0.0000  1125.0000
   1975.0000   147.7648     0.4149    54.1626    55.5354    96.2249     0.8497    -0.0031    -0.0212     0.0000  1135.0000
   1975.5000   147.7648     0.4407    54.2860    56.0553    96.2321     0.8497    -0.0031    -0.0197     0.0000  1136.0000
   1976.0000   147.7648     0.5748    54.2248    57.6591    96.2392     0.8496    -0.0031    -0.0205     0.0000  1130.0000
   1976.5000   147.7648     0.6328    54.2873    60.2521    96.2464     0.8496    -0.0031    -0.0197     0.0000  1122.0000
   1977.0000   147.7648     0.6335    54.3429    63.3170    96.2535     0.8496    -0.0031    -0.0191     0.0000  1132.0000
   1977.5000   147.7648     0.6335    54.2716    66.4364    96.2606     0.8495    -0.0031    -0.0199     0.0000  1145.0000
   1978.0000   147.7648     0.6335    54.4824    60.7733    96.2678     0.8495    -0.0031    -0.0174     0.0000  1117.0000
