~VERSION INFORMATION
VERS.           1.2   :CWLS Log ASCII Standard - VERSION 1.2
WRAP.           NO    :One Line per depth step
PROD.  Schlumberger   :LAS Producer
PROG.  DLIS to ASCII 10C0-306                          :LAS Program name and version
CREA.        2009/06/06 23:09                          :LAS Creation date {YYYY/MM/DD hh:mm}
SOURCE.     d986ea9e-f59c-4559-942d-7b7265e62d76       :DLIS File Name
#--------------------------------------------------
~WELL INFORMATION
#MNEM.UNIT      DATA             DESCRIPTION
#---- ------ --------------   -----------------------------
STRT .F      1945.5000       :START DEPTH     
STOP .F      10600.5000      :STOP DEPTH     
STEP .F       0.5000         :STEP       
NULL .          -999.25      :NULL VALUE
COMP .                 COMPANY:  DENBURY ONSHORE, LLC               
WELL .                    WELL:  CFU 31F #1                         
FLD  .                   FIELD:  CRANFIELD FIELD UNIT               
LOC  .                LOCATION:  X: 248,375.1'                      
CNTY .                  COUNTY:  FRANKLIN                           
STAT .                   STATE:  MISSISSIPPI                        
CTRY .                 COUNTRY:                                     
SRVC .         SERVICE COMPANY:  Schlumberger                       
API  .              API NUMBER:  23-037-21488-0000                  
DATE .                LOG DATE:  6-Jun-2009
UWI  .          UNIQUE WELL ID:                                     
#-----------------------------------------------------------------------------
~PARAMETER INFORMATION
#MNEM.UNIT    VALUE                      DESCRIPTION
#---- -----   --------------------       ------------------------
CN   .        DENBURY ONSHORE  LLC       :Company Name
WN   .        CFU 31F #1                 :Well Name
FN   .        CRANFIELD FIELD UNIT       :Field Name
FL   .        X  248 375.1'              :Field Location
FL1  .        Y  387 674.2'              :Field Location Line 1
COUN .        FRANKLIN                   :County or Rig Name
STAT .        MISSISSIPPI                :State or Province
NATI .                                   :Nation
DATE .        6-Jun-2009                 :Date as Month-Day-Year
APIN .        23-037-21488-0000          :API Serial Number
SECT .        31                         :Section
TOWN .        7N                         :Township
RANG .        1E                         :Range
DMF  .        KELLY BUSHING              :Drilling Measured From
LMF  .        KELLY BUSHING              :Log Measured From
PDAT .        GROUND LEVEL               :Permanent Datum
ENGI .        CHRISTIAN ZACCARO          :Engineer's Name
WITN .        FRED WALSH                 :Witness's Name
LATI .                                   :Latitude
LONG .                                   :Longitude
LUL  .        NATCHEZ  MS                :Logging Unit Location
LUN  .              2157                 :Logging Unit Number
RUN  .        ONE                        :Run Number
SON  .        APWH-00103                 :Service Order Number
BHT  .DEGF     220.00000                 :Bottom Hole Temperature (used in calculations)
BS   .IN         8.75000                 :Bit Size
DFD  .LB/G       9.90000                 :Drilling Fluid Density
DFV  .S         42.00000                 :Drilling Fluid Viscosity
DFL  .C3         8.30000                 :Drilling Fluid Loss
RMFS .OHMM       1.21700                 :Resistivity of Mud Filtrate Sample
EKB  .F        333.70001                 :Elevation of Kelly Bushing
EGL  .F        315.70001                 :Elevation of Ground Level
BLI  .F       10628.00000                :Bottom Log Interval
BSAL .PPM     2600.00000                 :Borehole Salinity
FLEV .F          0.00000                 :Fluid Level
MCST .DEGF      74.90000                 :Mud Cake Sample Temperature
MFST .DEGF      74.80000                 :Mud Filtrate Sample Temperature
MRT  .DEGF     221.00000                 :Maximum Recorded Temperature
MST  .DEGF      76.20000                 :Mud Sample Temperature
RMCS .OHMM       1.89800                 :Resistivity of Mud Cake Sample
RMS  .OHMM       1.45600                 :Resistivity of Mud Sample
RW   .OHMM       1.00000                 :Resistivity of Connate Water
TDD  .F       10700.00000                :Total Depth - Driller
TDL  .F       10636.00000                :Total Depth - Logger
TLI  .F       2028.00000                 :Top Log Interval
HIDE .        CALIPER LOG                :Header Identifier
MATR .        LIME                       :Rock Matrix for Neutron Porosity Corrections
FNUM .           1.00000                 :Form Factor Numerator
FEXP .           2.00000                 :Form Factor Exponent
DFT  .        FRESH WATER-BASED MUD      :Drilling Fluid Type
DFPH .           9.60000                 :Drilling Fluid PH
MCSS .        MUDPRESS                   :Mud Cake Sample Source
MFSS .        MUDPRESS                   :Mud Filtrate Sample Source
MSS  .        MUDPIT                     :Mud Sample Source
OS1  .        BHC SONIC                  :Other Services Line 1
OS2  .        CST                        :Other Services Line 2
OS3  .                                   :Other Services Line 3
OS4  .                                   :Other Services Line 4
OS5  .                                   :Other Services Line 5
R1   .        FIRST RUN IN WELL          :Remark Line 1
R2   .        ALL SCHLUMBERGER DEPTH PROCEDURES FOLLOWED :Remark Line 2
R3   .        TWO 1.5  STANDOFFS RAN ON INDUCTION TOOL :Remark Line 3
R4   .        BOWSPRING RAN ON NEUTRON TOOL FOR ECCENTRALIZATION :Remark Line 4
R5   .        MATRIX  LIMESTONE  2.71 G/CC :Remark Line 5
R6   .        CHLORIDES  2600PPM         :Remark Line 6
R7   .                                   :Remark Line 7
R8   .        BOREHOLE ENVIRONMENT MAY AFFECT LOG QUALITY :Remark Line 8
TCS  .        18 00                      :Time Circulation Stopped
TLAB .        1 30                       :Time Logger At Bottom
EPD  .F         315.700012               :Elevation of Permanent Datum above Mean Sea Level
APD  .F          18.000000               :Elevation of Depth Reference (LMF) above Permanent Datum
#-----------------------------------------------------------------------------
~CURVE INFORMATION
#MNEM.UNIT   API CODE                                  DESCRIPTION
#---- -----  --------                                  -----------------------
DEPT .F                                                :DEPTH (BOREHOLE) {F12.4}
CTEM .DEGF                                             :Cartridge Temperature {F11.4}
DCAL .IN                                               :Differential Caliper {F11.4}
DT   .US/F                                             :Delta-T {F11.4}
GR_EDTC.GAPI                                           :Gamma Ray {F11.4}
GTEM .DEGF                                             :Generalized Borehole Temperature {F11.4}
ITT  .S                                                :Integrated Transit Time {F11.4}
RWA  .OHMM                                             :Apparent Water Resistivity {F11.4}
SPHI .CFCF                                             :Sonic Porosity {F11.4}
STIT .F                                                :Stuck Tool Indicator, Total {F11.4}
TENS .LBF                                              :Cable Tension {F11.4}
#-----------------------------------------------------------------------------
# 
#      DEPT        CTEM       DCAL        DT      GR_EDTC      GTEM       ITT        RWA        SPHI       STIT       TENS
#
~A  
# ...
   2506.5000   151.7178     0.6923   134.0544    35.3602   103.8206     0.7780  -132.3326     0.3639     0.0000  1321.0000
   2507.0000   151.7178     0.9279   133.9402    44.6950   103.8278     0.7779  -132.1708     0.3637     0.0000  1332.0000
   2507.5000   151.7178     0.6457   134.5624    42.5497   103.8349     0.7778  -133.0504     0.3649     0.0000  1292.0000
   2508.0000   151.7178     0.5203   135.4515    49.2915   103.8421     0.7778  -134.2984     0.3666     0.0000  1283.0000
   2508.5000   151.7178     0.5686   131.7413    44.1757   103.8492     0.7777  -129.0196     0.3593     0.0000  1288.0000
   2509.0000   151.7178     0.7773   131.1012    56.0789   103.8564     0.7776  -128.0898     0.3580     0.0000  1330.0000
   2509.5000   151.7178     0.7227   130.5595    52.9673   103.8635     0.7776  -127.2985     0.3569     0.0000  1334.0000
   2510.0000   151.7178     0.7517   130.2536    52.6994   103.8707     0.7775  -126.8497     0.3563     0.0000  1238.0000
   2510.5000   151.7178     0.6551   130.2417    48.0320   103.8778     0.7774  -126.8323     0.3563     0.0000  1255.0000
   2511.0000   151.7178     1.4989   130.9025    45.9952   103.8849     0.7774  -127.8001     0.3576     0.0000  1367.0000
   2511.5000   151.7178     0.9068   132.2964    49.8672   103.8921     0.7773  -129.8213     0.3604     0.0000  1394.0000
   2512.0000   151.7178     0.8106   130.6984    51.3765   103.8992     0.7772  -127.5018     0.3572     0.0000  1286.0000
   2512.5000   151.7178     0.6626   132.8039    57.6153   103.9064     0.7772  -130.5506     0.3615     0.0000  1279.0000
   2513.0000   152.0472     1.3494   132.5464    53.4561   103.9135     0.7771  -130.1811     0.3609     0.0000  1301.0000
   2513.5000   151.7178     0.8850   128.1479    53.5026   103.9207     0.7770  -123.7254     0.3519     0.0000  1309.0000
   2514.0000   152.5648     0.9465   135.1807    53.5616   103.9278     0.7770  -133.9193     0.3661     0.0000  1287.0000
   2514.5000   152.7060     1.9705   132.6283    54.6013   103.9350     0.7769  -130.2987     0.3611     0.0000  1282.0000
   2515.0000   153.0354     0.6233   133.9850    56.2077   103.9421     0.7768  -132.2343     0.3638     0.0000  1323.0000
   2515.5000   153.4119     0.4557   138.2314    51.9467   103.9493     0.7768  -138.1326     0.3718     0.0000  1323.0000
   2516.0000   153.6942     0.5749   131.4839    54.5034   103.9564     0.7767  -128.6464     0.3588     0.0000  1317.0000
   2516.5000   153.6942     0.7391   134.7374    58.6626   103.9635     0.7766  -133.2968     0.3652     0.0000  1322.0000
   2517.0000   153.6942     0.8564   132.7453    62.3447   103.9707     0.7766  -130.4666     0.3613     0.0000  1327.0000
   2517.5000   153.6942     0.5832   132.9269    59.7156   103.9778     0.7765  -130.7268     0.3617     0.0000  1327.0000
   2518.0000   153.6942     1.0740   133.9621    51.7922   103.9850     0.7764  -132.2017     0.3637     0.0000  1321.0000
   2518.5000   153.6942     0.7827   130.8001    46.5932   103.9921     0.7764  -127.6505     0.3574     0.0000  1364.0000
   2519.0000   153.6942     0.6348   128.7279    50.2595   103.9993     0.7763  -124.5922     0.3531     0.0000  1414.0000
   2519.5000   153.6942     0.5526   130.6155    46.1942   104.0064     0.7762  -127.3805     0.3570     0.0000  1311.0000
   2520.0000   153.6942     0.6919   132.0815    43.0748   104.0136     0.7762  -129.5114     0.3600     0.0000  1291.0000
   2520.5000   153.6942     0.7744   133.0805    37.9212   104.0207     0.7761  -130.9467     0.3620     0.0000  1302.0000
   2521.0000   153.6942     0.6674   133.9068    39.4770   104.0279     0.7760  -132.1234     0.3636     0.0000  1348.0000
   2521.5000   153.6942     0.7895   134.7871    50.3365   104.0350     0.7760  -133.3668     0.3653     0.0000  1350.0000
   2522.0000   153.6942     0.7010   134.2016    55.1896   104.0421     0.7759  -132.5410     0.3642     0.0000  1327.0000
   2522.5000   153.6942     0.7838   132.8106    61.1116   104.0493     0.7758  -130.5603     0.3615     0.0000  1364.0000
   2523.0000   153.6942     0.5575   133.1308    58.2150   104.0564     0.7758  -131.0186     0.3621     0.0000  1313.0000
   2523.5000   153.6942     0.7630   131.1773    66.3593   104.0636     0.7757  -128.2007     0.3582     0.0000  1302.0000
   2524.0000   153.6942     0.7556   132.1838    67.6977   104.0707     0.7756  -129.6591     0.3602     0.0000  1317.0000
   2524.5000   153.6942     0.8184   134.4685    65.9736   104.0779     0.7756  -132.9180     0.3647     0.0000  1319.0000
   2525.0000   153.6942     0.8566   134.4480    64.3530   104.0850     0.7755  -132.8891     0.3647     0.0000  1298.0000
   2525.5000   153.6942     0.7677   136.4886    68.5653   104.0922     0.7754  -135.7407     0.3686     0.0000  1311.0000
   2526.0000   153.6942     0.8810   136.8265    70.6449   104.0993     0.7754  -136.2075     0.3692     0.0000  1297.0000
   2526.5000   153.6942     0.8437   141.6558    69.3772   104.1065     0.7753  -142.7181     0.3779     0.0000  1293.0000
   2527.0000   153.6942     1.1437   143.7546    69.3772   104.1136     0.7752  -145.4557     0.3815     0.0000  1301.0000
   2527.5000   153.6942     0.9938   141.4550    72.4966   104.1208     0.7752  -142.4534     0.3776     0.0000  1317.0000
   2528.0000   153.6942     0.8685   140.9407    72.1517   104.1279     0.7751  -141.7728     0.3767     0.0000  1298.0000
   2528.5000   153.6942     0.8581   139.0159    78.9104   104.1350     0.7750  -139.1964     0.3732     0.0000  1293.0000
   2529.0000   153.6942     0.8841   136.4723    84.6292   104.1422     0.7750  -135.7182     0.3685     0.0000  1317.0000
   2529.5000   153.6942     0.8037   138.4361    91.3543   104.1493     0.7749  -138.4109     0.3722     0.0000  1330.0000
   2530.0000   153.6942     0.9456   142.4222    83.6652   104.1565     0.7748  -143.7241     0.3793     0.0000  1296.0000
   2530.5000   153.6942     1.1713   144.3627    82.1055   104.1636     0.7747  -146.2387     0.3826     0.0000  1275.0000
   2531.0000   153.6942     1.0420   148.7133    79.6534   104.1708     0.7747  -151.7115     0.3896     0.0000  1317.0000
   2531.5000   153.6942     1.5981   151.0254    87.2621   104.1779     0.7746  -154.5303     0.3933     0.0000  1356.0000
   2532.0000   153.6942     1.9020   152.1747    90.8223   104.1851     0.7745  -155.9089     0.3950     0.0000  1299.0000
   2532.5000   153.6942     1.8469   150.9455    88.2228   104.1922     0.7744  -154.4339     0.3931     0.0000  1298.0000
   2533.0000   153.6942     1.3193   150.7085    87.2634   104.1994     0.7744  -154.1475     0.3928     0.0000  1297.0000
   2533.5000   153.6942     0.9731   148.3035    81.8458   104.2065     0.7743  -151.2056     0.3890     0.0000  1298.0000
   2534.0000   153.6942     1.3241   146.2404    88.6045   104.2136     0.7742  -148.6283     0.3857     0.0000  1317.0000
   2534.5000   153.6942     1.4441   149.3327    87.4895   104.2208     0.7742  -152.4726     0.3906     0.0000  1301.0000
   2535.0000   153.6942     1.4932   146.0684    82.0684   104.2279     0.7741  -148.4112     0.3854     0.0000  1318.0000
   2535.5000   153.6942     0.8963   140.3523    67.4697   104.2351     0.7740  -140.9902     0.3756     0.0000  1359.0000
   2536.0000   153.6942     0.7085   138.6482    53.9861   104.2422     0.7739  -138.6987     0.3726     0.0000  1329.0000
   2536.5000   153.6942     0.5240   134.4519    48.3051   104.2494     0.7739  -132.8945     0.3647     0.0000  1328.0000
   2537.0000   153.6942     0.6393   130.7005    51.9353   104.2565     0.7738  -127.5048     0.3572     0.0000  1344.0000
   2537.5000   153.6942     0.5426   129.8418    56.6027   104.2637     0.7737  -126.2437     0.3554     0.0000  1348.0000
   2538.0000   153.6942     0.7982   127.2474    64.8832   104.2708     0.7737  -122.3698     0.3499     0.0000  1292.0000
   2538.5000   153.6942     0.5920   125.8703    65.5873   104.2780     0.7736  -120.2744     0.3469     0.0000  1299.0000
   2539.0000   153.6942     0.5540   126.4894    60.4013   104.2851     0.7735  -121.2197     0.3483     0.0000  1382.0000
