~VERSION INFORMATION
VERS.           1.2   :CWLS Log ASCII Standard - VERSION 1.2
WRAP.           NO    :One Line per depth step
PROD.  Schlumberger   :LAS Producer
PROG.  DLIS to ASCII 10C0-306                          :LAS Program name and version
CREA.        2009/06/06 23:09                          :LAS Creation date {YYYY/MM/DD hh:mm}
SOURCE.     d986ea9e-f59c-4559-942d-7b7265e62d76       :DLIS File Name
#--------------------------------------------------
~WELL INFORMATION
#MNEM.UNIT      DATA             DESCRIPTION
#---- ------ --------------   -----------------------------
STRT .F      1945.5000       :START DEPTH     
STOP .F      10600.5000      :STOP DEPTH     
STEP .F       0.5000         :STEP       
NULL .          -999.25      :NULL VALUE
COMP .                 COMPANY:  DENBURY ONSHORE, LLC               
WELL .                    WELL:  CFU 31F #1                         
FLD  .                   FIELD:  CRANFIELD FIELD UNIT               
LOC  .                LOCATION:  X: 248,375.1'                      
CNTY .                  COUNTY:  FRANKLIN                           
STAT .                   STATE:  MISSISSIPPI                        
CTRY .                 COUNTRY:                                     
SRVC .         SERVICE COMPANY:  Schlumberger                       
API  .              API NUMBER:  23-037-21488-0000                  
DATE .                LOG DATE:  6-Jun-2009
UWI  .          UNIQUE WELL ID:                                     
#-----------------------------------------------------------------------------
~PARAMETER INFORMATION
#MNEM.UNIT    VALUE                      DESCRIPTION
#---- -----   --------------------       ------------------------
CN   .        DENBURY ONSHORE  LLC       :Company Name
WN   .        CFU 31F #1                 :Well Name
FN   .        CRANFIELD FIELD UNIT       :Field Name
FL   .        X  248 375.1'              :Field Location
FL1  .        Y  387 674.2'              :Field Location Line 1
COUN .        FRANKLIN                   :County or Rig Name
STAT .        MISSISSIPPI                :State or Province
NATI .                                   :Nation
DATE .        6-Jun-2009                 :Date as Month-Day-Year
APIN .        23-037-21488-0000          :API Serial Number
SECT .        31                         :Section
TOWN .        7N                         :Township
RANG .        1E                         :Range
DMF  .        KELLY BUSHING              :Drilling Measured From
LMF  .        KELLY BUSHING              :Log Measured From
PDAT .        GROUND LEVEL               :Permanent Datum
ENGI .        CHRISTIAN ZACCARO          :Engineer's Name
WITN .        FRED WALSH                 :Witness's Name
LATI .                                   :Latitude
LONG .                                   :Longitude
LUL  .        NATCHEZ  MS                :Logging Unit Location
LUN  .              2157                 :Logging Unit Number
RUN  .        ONE                        :Run Number
SON  .        APWH-00103                 :Service Order Number
BHT  .DEGF     220.00000                 :Bottom Hole Temperature (used in calculations)
BS   .IN         8.75000                 :Bit Size
DFD  .LB/G       9.90000                 :Drilling Fluid Density
DFV  .S         42.00000                 :Drilling Fluid Viscosity
DFL  .C3         8.30000                 :Drilling Fluid Loss
RMFS .OHMM       1.21700                 :Resistivity of Mud Filtrate Sample
EKB  .F        333.70001                 :Elevation of Kelly Bushing
EGL  .F        315.70001                 :Elevation of Ground Level
BLI  .F       10628.00000                :Bottom Log Interval
BSAL .PPM     2600.00000                 :Borehole Salinity
FLEV .F          0.00000                 :Fluid Level
MCST .DEGF      74.90000                 :Mud Cake Sample Temperature
MFST .DEGF      74.80000                 :Mud Filtrate Sample Temperature
MRT  .DEGF     221.00000                 :Maximum Recorded Temperature
MST  .DEGF      76.20000                 :Mud Sample Temperature
RMCS .OHMM       1.89800                 :Resistivity of Mud Cake Sample
RMS  .OHMM       1.45600                 :Resistivity of Mud Sample
RW   .OHMM       1.00000                 :Resistivity of Connate Water
TDD  .F       10700.00000                :Total Depth - Driller
TDL  .F       10636.00000                :Total Depth - Logger
TLI  .F       2028.00000                 :Top Log Interval
HIDE .        CALIPER LOG                :Header Identifier
MATR .        LIME                       :Rock Matrix for Neutron Porosity Corrections
FNUM .           1.00000                 :Form Factor Numerator
FEXP .           2.00000                 :Form Factor Exponent
DFT  .        FRESH WATER-BASED MUD      :Drilling Fluid Type
DFPH .           9.60000                 :Drilling Fluid PH
MCSS .        MUDPRESS                   :Mud Cake Sample Source
MFSS .        MUDPRESS                   :Mud Filtrate Sample Source
MSS  .        MUDPIT                     :Mud Sample Source
OS1  .        BHC SONIC                  :Other Services Line 1
OS2  .        CST                        :Other Services Line 2
OS3  .                                   :Other Services Line 3
OS4  .                                   :Other Services Line 4
OS5  .                                   :Other Services Line 5
R1   .        FIRST RUN IN WELL          :Remark Line 1
R2   .        ALL SCHLUMBERGER DEPTH PROCEDURES FOLLOWED :Remark Line 2
R3   .        TWO 1.5  STANDOFFS RAN ON INDUCTION TOOL :Remark Line 3
R4   .        BOWSPRING RAN ON NEUTRON TOOL FOR ECCENTRALIZATION :Remark Line 4
R5   .        MATRIX  LIMESTONE  2.71 G/CC :Remark Line 5
R6   .        CHLORIDES  2600PPM         :Remark Line 6
R7   .                                   :Remark Line 7
R8   .        BOREHOLE ENVIRONMENT MAY AFFECT LOG QUALITY :Remark Line 8
TCS  .        18 00                      :Time Circulation Stopped
TLAB .        1 30                       :Time Logger At Bottom
EPD  .F         315.700012               :Elevation of Permanent Datum above Mean Sea Level
APD  .F          18.000000               :Elevation of Depth Reference (LMF) above Permanent Datum
#-----------------------------------------------------------------------------
~CURVE INFORMATION
#MNEM.UNIT   API CODE                                  DESCRIPTION
#---- -----  --------                                  -----------------------
DEPT .F                                                :DEPTH (BOREHOLE) {F12.4}
CTEM .DEGF                                             :Cartridge Temperature {F11.4}
DCAL .IN                                               :Differential Caliper {F11.4}
DT   .US/F                                             :Delta-T {F11.4}
GR_EDTC.GAPI                                           :Gamma Ray {F11.4}
GTEM .DEGF                                             :Generalized Borehole Temperature {F11.4}
ITT  .S                                                :Integrated Transit Time {F11.4}
RWA  .OHMM                                             :Apparent Water Resistivity {F11.4}
SPHI .CFCF                                             :Sonic Porosity {F11.4}
STIT .F                                                :Stuck Tool Indicator, Total {F11.4}
TENS .LBF                                              :Cable Tension {F11.4}
#-----------------------------------------------------------------------------
# 
#      DEPT        CTEM       DCAL        DT      GR_EDTC      GTEM       ITT        RWA        SPHI       STIT       TENS
#
~A  
# ...
  10558.5000   212.9884     1.4912    86.6720   116.1101   218.8926     0.0031   -48.8832     0.2212     0.0000  3877.0000
  10559.0000   212.9884     1.4255    86.1914   106.4510   218.8997     0.0031   -47.8930     0.2189     0.0000  3795.0000
  10559.5000   212.9884     1.3321    84.5511   100.7067   218.9069     0.0030   -44.5083     0.2110     0.0000  3785.0000
  10560.0000   212.9884     0.6651    81.9538   101.0530   218.9140     0.0030   -39.1471     0.1979     0.0000  3760.0000
  10560.5000   212.9884     0.4527    79.9986   103.4025   218.9211     0.0029   -35.1270     0.1875     0.0000  3730.0000
  10561.0000   212.9884     0.3724    75.0160    99.3947   218.9283     0.0029   -25.0821     0.1584     0.0000  3694.0000
  10561.5000   212.9884     0.4282    72.9842    89.1393   218.9354     0.0029   -21.1382     0.1454     0.0000  3678.0000
  10562.0000   212.9884     0.1387    66.1786    71.2055   218.9426     0.0028    -9.2337     0.0961     0.0000  3669.0000
  10562.5000   212.9884     0.0845    63.4936    64.1296   218.9497     0.0028    -5.4369     0.0738     0.0000  3626.0000
  10563.0000   212.9884     0.0611    61.9833    57.4438   218.9569     0.0028    -3.6372     0.0603     0.0000  3631.0000
  10563.5000   212.9884     0.0486    59.6445    64.1315   218.9640     0.0027    -1.4574     0.0382     0.0000  3615.0000
  10564.0000   212.9884    -0.5716    59.7454    52.0591   218.9712     0.0027    -1.5340     0.0392     0.0000  3672.0000
  10564.5000   212.9884    -0.0813    57.9435    44.0303   218.9783     0.0027    -0.4391     0.0210     0.0000  3636.0000
  10565.0000   212.9884    -0.0454    57.9052    44.0976   218.9854     0.0026    -0.4225     0.0206     0.0000  3651.0000
  10565.5000   212.9884    -0.0399    57.4949    59.6125   218.9926     0.0026    -0.2639     0.0163     0.0000  3656.0000
  10566.0000   212.9884    -0.0396    65.1894    79.6517   218.9997     0.0026    -7.7563     0.0881     0.0000  3640.0000
  10566.5000   212.9884    -0.0406    69.6433    92.1689   219.0069     0.0025   -14.9801     0.1224     0.0000  3645.0000
  10567.0000   212.9884     0.4549    75.1545   102.7201   219.0140     0.0025   -25.3552     0.1593     0.0000  3645.0000
  10567.5000   212.9884     0.3321    81.7160   104.4053   219.0212     0.0025   -38.6568     0.1967     0.0000  3615.0000
  10568.0000   212.9884     0.1587    82.1052   104.7631   219.0283     0.0024   -39.4590     0.1987     0.0000  3623.0000
  10568.5000   212.9884     0.4580    84.0739    99.0287   219.0355     0.0024   -43.5229     0.2087     0.0000  3606.0000
  10569.0000   212.9884     0.4928    82.7754   103.8577   219.0426     0.0024   -40.8418     0.2022     0.0000  3603.0000
  10569.5000   212.9884     0.4933    80.6730   104.2788   219.0498     0.0023   -36.5108     0.1911     0.0000  3606.0000
  10570.0000   212.9884     0.0468    79.5399   107.3805   219.0569     0.0023   -34.1880     0.1850     0.0000  3595.0000
  10570.5000   212.9884     0.0077    78.1429   108.3930   219.0641     0.0022   -31.3419     0.1771     0.0000  3639.0000
  10571.0000   212.9884     0.2073    75.7218   109.1260   219.0712     0.0022   -26.4781     0.1628     0.0000  3632.0000
  10571.5000   212.9884     0.3784    71.8775   109.0026   219.0783     0.0022   -19.0465     0.1381     0.0000  3645.0000
  10572.0000   212.9884     0.2747    67.6832   114.6813   219.0855     0.0021   -11.6304     0.1079     0.0000  3653.0000
  10572.5000   212.9884     0.2843    67.4753   123.1320   219.0926     0.0021   -11.2894     0.1063     0.0000  3604.0000
  10573.0000   212.9884     0.4431    70.9359   130.3622   219.0998     0.0021   -17.3046     0.1316     0.0000  3597.0000
  10573.5000   212.9884    -0.1013    75.4894   130.3622   219.1069     0.0020   -26.0171     0.1614     0.0000  3620.0000
  10574.0000   212.9884     0.2438    75.9024   130.3622   219.1141     0.0020   -26.8370     0.1639     0.0000  3589.0000
  10574.5000   212.9884     0.2446    78.3204   130.3622   219.1212     0.0019   -31.7022     0.1781     0.0000  3603.0000
  10575.0000   212.9884     0.3210    78.7966   130.3622   219.1284     0.0019   -32.6707     0.1808     0.0000  3589.0000
  10575.5000   212.9884     0.7969    81.6966   130.3622   219.1355     0.0019   -38.6170     0.1966     0.0000  3597.0000
  10576.0000   212.9884     0.2940    81.8498   130.3622   219.1427     0.0018   -38.9325     0.1974     0.0000  3624.0000
  10576.5000   212.9884     0.2516    77.2652   130.3622   219.1498     0.0018   -29.5669     0.1720     0.0000  3648.0000
  10577.0000   212.9884    -0.0433    74.4240   130.3622   219.1570     0.0017   -23.9209     0.1547     0.0000  3655.0000
  10577.5000   212.9884     0.2923    74.2480   130.3622   219.1641     0.0017   -23.5773     0.1536     0.0000  3607.0000
  10578.0000   212.9884     0.4194    74.3664   130.3622   219.1712     0.0017   -23.8083     0.1544     0.0000  3616.0000
  10578.5000   212.9884     0.4780    77.3259   130.3622   219.1784     0.0016   -29.6892     0.1724     0.0000  3641.0000
  10579.0000   212.9884     0.3963    80.2310   130.3622   219.1855     0.0016   -35.6035     0.1888     0.0000  3623.0000
  10579.5000   212.9884     0.6276    81.5803   130.3622   219.1927     0.0016   -38.3774     0.1960     0.0000  3600.0000
  10580.0000   212.9884     0.3013    81.4644   130.3622   219.1998     0.0015   -38.1386     0.1954     0.0000  3626.0000
  10580.5000   212.9884     0.2445    80.3801   130.3622   219.2070     0.0015   -35.9094     0.1896     0.0000  3624.0000
  10581.0000   212.9884     0.0970    79.6065   130.3622   219.2141     0.0014   -34.3242     0.1853     0.0000  3645.0000
  10581.5000   212.9884     0.2537    80.2692   130.3622   219.2213     0.0014   -35.6818     0.1890     0.0000  3644.0000
  10582.0000   212.9884     0.3262    81.4245   130.3622   219.2284     0.0013   -38.0565     0.1952     0.0000  3634.0000
  10582.5000   212.9884     0.3380    80.2064   130.3622   219.2355     0.0013   -35.5530     0.1886     0.0000  3636.0000
  10583.0000   212.9884     0.7102    75.8987   130.3622   219.2427     0.0013   -26.8296     0.1639     0.0000  3620.0000
  10583.5000   212.9884     0.3068    73.2763   130.3622   219.2498     0.0012   -21.6974     0.1474     0.0000  3613.0000
  10584.0000   212.9884     0.2036    68.6726   130.3622   219.2570     0.0012   -13.2923     0.1153     0.0000  3651.0000
  10584.5000   212.9884    -0.1484    67.2207   130.3622   219.2641     0.0012   -10.8760     0.1043     0.0000  3618.0000
  10585.0000   212.9884     0.0909    67.9365   130.3622   219.2713     0.0011   -12.0499     0.1098     0.0000  3630.0000
  10585.5000   212.9884     0.1125    67.9175   130.3622   219.2784     0.0011   -12.0183     0.1097     0.0000  3649.0000
  10586.0000   212.9884     0.1283    67.9521   130.3622   219.2856     0.0011   -12.0759     0.1099     0.0000  3621.0000
  10586.5000   212.9884     0.1796    68.0593   130.3622   219.2927     0.0010   -12.2548     0.1107     0.0000  3679.0000
  10587.0000   212.9884     0.2544    68.0102   130.3622   219.2999     0.0010   -12.1727     0.1104     0.0000  3598.0000
  10587.5000   212.9884     0.2497    67.9491   130.3622   219.3070     0.0010   -12.0709     0.1099     0.0000  3591.0000
  10588.0000   212.9884     0.0940    70.8758   130.3622   219.3141     0.0009   -17.1949     0.1312     0.0000  3636.0000
  10588.5000   212.9884    -0.0377    70.8758   130.3622   219.3213     0.0009   -17.1949     0.1312     0.0000  3591.0000
  10589.0000   212.9884     0.1219    70.8758   130.3622   219.3284     0.0009   -17.1949     0.1312     0.0000  3632.0000
  10589.5000   212.9884     0.0698    70.8758   130.3622   219.3356     0.0008   -17.1949     0.1312     0.0000  3634.0000
  10590.0000   212.9884    -0.1803    70.8758   130.3622   219.3427     0.0008   -17.1949     0.1312     0.0000  3632.0000
  10590.5000   212.9884    -0.0505    70.8758   130.3622   219.3499     0.0007   -17.1949     0.1312     0.0000  3652.0000
  10591.0000   212.9884    -0.0590    70.8758   130.3622   219.3570     0.0007   -17.1949     0.1312     0.0000  3613.0000
