~VERSION INFORMATION
VERS.           1.2   :CWLS Log ASCII Standard - VERSION 1.2
WRAP.           NO    :One Line per depth step
PROD.  Schlumberger   :LAS Producer
PROG.  DLIS to ASCII 10C0-306                          :LAS Program name and version
CREA.        2009/06/06 23:09                          :LAS Creation date {YYYY/MM/DD hh:mm}
SOURCE.     d986ea9e-f59c-4559-942d-7b7265e62d76       :DLIS File Name
#--------------------------------------------------
~WELL INFORMATION
#MNEM.UNIT      DATA             DESCRIPTION
#---- ------ --------------   -----------------------------
STRT .F      1945.5000       :START DEPTH     
STOP .F      10600.5000      :STOP DEPTH     
STEP .F       0.5000         :STEP       
NULL .          -999.25      :NULL VALUE
COMP .                 COMPANY:  DENBURY ONSHORE, LLC               
WELL .                    WELL:  CFU 31F #1                         
FLD  .                   FIELD:  CRANFIELD FIELD UNIT               
LOC  .                LOCATION:  X: 248,375.1'                      
CNTY .                  COUNTY:  FRANKLIN                           
STAT .                   STATE:  MISSISSIPPI                        
CTRY .                 COUNTRY:                                     
SRVC .         SERVICE COMPANY:  Schlumberger                       
API  .              API NUMBER:  23-037-21488-0000                  
DATE .                LOG DATE:  6-Jun-2009
UWI  .          UNIQUE WELL ID:                                     
#-----------------------------------------------------------------------------
~PARAMETER INFORMATION
#MNEM.UNIT    VALUE                      DESCRIPTION
#---- -----   --------------------       ------------------------
CN   .        DENBURY ONSHORE  LLC       :Company Name
WN   .        CFU 31F #1                 :Well Name
FN   .        CRANFIELD FIELD UNIT       :Field Name
FL   .        X  248 375.1'              :Field Location
FL1  .        Y  387 674.2'              :Field Location Line 1
COUN .        FRANKLIN                   :County or Rig Name
STAT .        MISSISSIPPI                :State or Province
NATI .                                   :Nation
DATE .        6-Jun-2009                 :Date as Month-Day-Year
APIN .        23-037-21488-0000          :API Serial Number
SECT .        31                         :Section
TOWN .        7N                         :Township
RANG .        1E                         :Range
DMF  .        KELLY BUSHING              :Drilling Measured From
LMF  .        KELLY BUSHING              :Log Measured From
PDAT .        GROUND LEVEL               :Permanent Datum
ENGI .        CHRISTIAN ZACCARO          :Engineer's Name
WITN .        FRED WALSH                 :Witness's Name
LATI .                                   :Latitude
LONG .                                   :Longitude
LUL  .        NATCHEZ  MS                :Logging Unit Location
LUN  .              2157                 :Logging Unit Number
RUN  .        ONE                        :Run Number
SON  .        APWH-00103                 :Service Order Number
BHT  .DEGF     220.00000                 :Bottom Hole Temperature (used in calculations)
BS   .IN         8.75000                 :Bit Size
DFD  .LB/G       9.90000                 :Drilling Fluid Density
DFV  .S         42.00000                 :Drilling Fluid Viscosity
DFL  .C3         8.30000                 :Drilling Fluid Loss
RMFS .OHMM       1.21700                 :Resistivity of Mud Filtrate Sample
EKB  .F        333.70001                 :Elevation of Kelly Bushing
EGL  .F        315.70001                 :Elevation of Ground Level
BLI  .F       10628.00000                :Bottom Log Interval
BSAL .PPM     2600.00000                 :Borehole Salinity
FLEV .F          0.00000                 :Fluid Level
MCST .DEGF      74.90000                 :Mud Cake Sample Temperature
MFST .DEGF      74.80000                 :Mud Filtrate Sample Temperature
MRT  .DEGF     221.00000                 :Maximum Recorded Temperature
MST  .DEGF      76.20000                 :Mud Sample Temperature
RMCS .OHMM       1.89800                 :Resistivity of Mud Cake Sample
RMS  .OHMM       1.45600                 :Resistivity of Mud Sample
RW   .OHMM       1.00000                 :Resistivity of Connate Water
TDD  .F       10700.00000                :Total Depth - Driller
TDL  .F       10636.00000                :Total Depth - Logger
TLI  .F       2028.00000                 :Top Log Interval
HIDE .        CALIPER LOG                :Header Identifier
MATR .        LIME                       :Rock Matrix for Neutron Porosity Corrections
FNUM .           1.00000                 :Form Factor Numerator
FEXP .           2.00000                 :Form Factor Exponent
DFT  .        FRESH WATER-BASED MUD      :Drilling Fluid Type
DFPH .           9.60000                 :Drilling Fluid PH
MCSS .        MUDPRESS                   :Mud Cake Sample Source
MFSS .        MUDPRESS                   :Mud Filtrate Sample Source
MSS  .        MUDPIT                     :Mud Sample Source
OS1  .        BHC SONIC                  :Other Services Line 1
OS2  .        CST                        :Other Services Line 2
OS3  .                                   :Other Services Line 3
OS4  .                                   :Other Services Line 4
OS5  .                                   :Other Services Line 5
R1   .        FIRST RUN IN WELL          :Remark Line 1
R2   .        ALL SCHLUMBERGER DEPTH PROCEDURES FOLLOWED :Remark Line 2
R3   .        TWO 1.5  STANDOFFS RAN ON INDUCTION TOOL :Remark Line 3
R4   .        BOWSPRING RAN ON NEUTRON TOOL FOR ECCENTRALIZATION :Remark Line 4
R5   .        MATRIX  LIMESTONE  2.71 G/CC :Remark Line 5
R6   .        CHLORIDES  2600PPM         :Remark Line 6
R7   .                                   :Remark Line 7
R8   .        BOREHOLE ENVIRONMENT MAY AFFECT LOG QUALITY :Remark Line 8
TCS  .        18 00                      :Time Circulation Stopped
TLAB .        1 30                       :Time Logger At Bottom
EPD  .F         315.700012               :Elevation of Permanent Datum above Mean Sea Level
APD  .F          18.000000               :Elevation of Depth Reference (LMF) above Permanent Datum
#-----------------------------------------------------------------------------
~CURVE INFORMATION
#MNEM.UNIT   API CODE                                  DESCRIPTION
#---- -----  --------                                  -----------------------
DEPT .F                                                :DEPTH (BOREHOLE) {F12.4}
CTEM .DEGF                                             :Cartridge Temperature {F11.4}
DCAL .IN                                               :Differential Caliper {F11.4}
DT   .US/F                                             :Delta-T {F11.4}
GR_EDTC.GAPI                                           :Gamma Ray {F11.4}
GTEM .DEGF                                             :Generalized Borehole Temperature {F11.4}
ITT  .S                                                :Integrated Transit Time {F11.4}
RWA  .OHMM                                             :Apparent Water Resistivity {F11.4}
SPHI .CFCF                                             :Sonic Porosity {F11.4}
STIT .F                                                :Stuck Tool Indicator, Total {F11.4}
TENS .LBF                                              :Cable Tension {F11.4}
#-----------------------------------------------------------------------------
# 
#      DEPT        CTEM       DCAL        DT      GR_EDTC      GTEM       ITT        RWA        SPHI       STIT       TENS
#
~A  
# ...
   3100.5000   157.6472     0.4969   122.2444    45.1583   112.3095     0.7045  -114.6237     0.3387     0.0000  1500.0000
   3101.0000   157.6472     0.4840   122.5902    44.2144   112.3167     0.7044  -115.1710     0.3395     0.0000  1485.0000
   3101.5000   157.6472     0.4456   122.2883    48.3633   112.3238     0.7044  -114.6933     0.3388     0.0000  1471.0000
   3102.0000   157.6472     0.5189   121.6391    51.4749   112.3310     0.7043  -113.6614     0.3373     0.0000  1498.0000
   3102.5000   157.6472     0.4592   122.1603    50.8590   112.3381     0.7043  -114.4904     0.3385     0.0000  1506.0000
   3103.0000   157.6472     0.4277   122.8641    45.6730   112.3453     0.7042  -115.6033     0.3401     0.0000  1498.0000
   3103.5000   157.6472     0.4164   122.8182    42.9556   112.3524     0.7041  -115.5309     0.3400     0.0000  1496.0000
   3104.0000   157.6472     0.4670   123.4665    43.9954   112.3596     0.7041  -116.5500     0.3415     0.0000  1487.0000
   3104.5000   157.6472     0.4472   122.8108    41.4024   112.3667     0.7040  -115.5192     0.3400     0.0000  1506.0000
   3105.0000   157.6472     0.4592   121.0632    43.6401   112.3739     0.7040  -112.7407     0.3359     0.0000  1489.0000
   3105.5000   157.6472     0.4661   120.5532    45.1570   112.3810     0.7039  -111.9212     0.3347     0.0000  1482.0000
   3106.0000   157.6472     0.4531   120.0395    52.9866   112.3882     0.7038  -111.0918     0.3334     0.0000  1502.0000
   3106.5000   157.6472     0.4531   120.2444    52.4291   112.3953     0.7038  -111.4230     0.3339     0.0000  1498.0000
   3107.0000   157.6472     0.4155   120.6956    55.5407   112.4024     0.7037  -112.1504     0.3350     0.0000  1482.0000
   3107.5000   157.6472     0.4223   118.9259    54.0078   112.4096     0.7037  -109.2798     0.3307     0.0000  1492.0000
   3108.0000   157.6472     0.3976   117.2092    54.5264   112.4167     0.7036  -106.4497     0.3264     0.0000  1491.0000
   3108.5000   157.6472     0.3827   118.1515    50.8962   112.4239     0.7035  -108.0087     0.3288     0.0000  1485.0000
   3109.0000   157.6472     0.4402   119.2790    43.5908   112.4310     0.7035  -109.8564     0.3316     0.0000  1500.0000
   3109.5000   157.6472     0.3775   121.0570    41.5501   112.4382     0.7034  -112.7307     0.3359     0.0000  1490.0000
   3110.0000   157.6472     0.3845   122.4637    35.8455   112.4453     0.7034  -114.9710     0.3392     0.0000  1488.0000
   3110.5000   157.6472     0.4094   120.4936    38.6577   112.4525     0.7033  -111.8252     0.3345     0.0000  1487.0000
   3111.0000   157.6472     0.3956   120.1260    42.2542   112.4596     0.7032  -111.2317     0.3336     0.0000  1480.0000
   3111.5000   157.6472     0.4155   119.9836    49.0400   112.4668     0.7032  -111.0012     0.3333     0.0000  1511.0000
   3112.0000   157.9296     0.3879   119.7124    48.7924   112.4739     0.7031  -110.5615     0.3326     0.0000  1497.0000
   3112.5000   157.9766     0.3886   120.5654    45.1622   112.4810     0.7031  -111.9408     0.3347     0.0000  1489.0000
   3113.0000   158.9648     0.4273   121.5256    45.2065   112.4882     0.7030  -113.4803     0.3370     0.0000  1497.0000
   3113.5000   159.3413     0.4334   122.3478    45.7251   112.4953     0.7029  -114.7876     0.3389     0.0000  1485.0000
   3114.0000   158.3060     0.3766   122.2071    49.1632   112.5025     0.7029  -114.5646     0.3386     0.0000  1503.0000
   3114.5000   159.3413     0.4409   122.6095    44.4074   112.5096     0.7028  -115.2016     0.3395     0.0000  1506.0000
   3115.0000   159.6237     0.3707   121.3424    48.0376   112.5168     0.7028  -113.1876     0.3366     0.0000  1490.0000
   3115.5000   159.6237     0.3893   121.0541    42.5536   112.5239     0.7027  -112.7262     0.3359     0.0000  1487.0000
   3116.0000   159.6237     0.3766   121.5407    45.1855   112.5311     0.7026  -113.5044     0.3370     0.0000  1486.0000
   3116.5000   159.6237     0.3834   121.5548    43.5885   112.5382     0.7026  -113.5270     0.3371     0.0000  1498.0000
   3117.0000   159.6237     0.4277   122.0763    45.6680   112.5453     0.7025  -114.3571     0.3383     0.0000  1504.0000
   3117.5000   159.6237     0.4797   121.9839    44.1083   112.5525     0.7024  -114.2103     0.3381     0.0000  1490.0000
   3118.0000   159.6237     0.5046   121.5445    42.6949   112.5596     0.7024  -113.5105     0.3370     0.0000  1497.0000
   3118.5000   159.6237     0.7150   121.6656    36.9566   112.5668     0.7023  -113.7036     0.3373     0.0000  1511.0000
   3119.0000   159.6237     0.5362   121.3219    34.3571   112.5739     0.7023  -113.1549     0.3365     0.0000  1495.0000
   3119.5000   159.6237     0.5678   121.2714    33.7737   112.5811     0.7022  -113.0742     0.3364     0.0000  1497.0000
   3120.0000   159.6237     0.6452   121.0852    41.5527   112.5882     0.7021  -112.7759     0.3359     0.0000  1497.0000
   3120.5000   159.6237     0.6587   120.5746    43.5986   112.5954     0.7021  -111.9556     0.3347     0.0000  1499.0000
   3121.0000   159.6237     0.9998   120.4263    41.9831   112.6025     0.7020  -111.7166     0.3344     0.0000  1506.0000
   3121.5000   159.6237     0.8585   121.4727    44.0575   112.6097     0.7020  -113.3959     0.3369     0.0000  1486.0000
   3122.0000   159.6237     0.4134   121.8886    53.9109   112.6168     0.7019  -114.0587     0.3379     0.0000  1495.0000
   3122.5000   159.6237     0.3618   122.4279    53.9667   112.6240     0.7018  -114.9145     0.3391     0.0000  1509.0000
   3123.0000   159.6237     0.3282   123.3428    54.0108   112.6311     0.7018  -116.3560     0.3412     0.0000  1500.0000
   3123.5000   159.6237     0.2889   122.7467    45.1946   112.6382     0.7017  -115.4182     0.3399     0.0000  1506.0000
   3124.0000   159.6237     0.3162   122.8728    45.1622   112.6454     0.7017  -115.6170     0.3402     0.0000  1480.0000
   3124.5000   159.6237     0.3369   123.4652    33.2623   112.6525     0.7016  -116.5479     0.3415     0.0000  1476.0000
   3125.0000   159.6237     0.3298   124.1690    26.0201   112.6597     0.7015  -117.6472     0.3431     0.0000  1512.0000
   3125.5000   159.6237     0.3162   124.2457    22.9331   112.6668     0.7015  -117.7665     0.3433     0.0000  1508.0000
   3126.0000   159.6237     0.3308   124.0691    30.1539   112.6740     0.7014  -117.4917     0.3429     0.0000  1484.0000
   3126.5000   159.6237     0.3239   123.9332    34.3131   112.6811     0.7013  -117.2798     0.3426     0.0000  1499.0000
   3127.0000   159.6237     0.3893   123.5725    36.8505   112.6883     0.7013  -116.7161     0.3418     0.0000  1490.0000
   3127.5000   159.6237     0.5729   122.6121    36.8505   112.6954     0.7012  -115.2056     0.3395     0.0000  1484.0000
   3128.0000   159.6237     0.6362   122.4411    37.8903   112.7026     0.7012  -114.9352     0.3391     0.0000  1491.0000
   3128.5000   159.6237     0.6104   122.5324    43.6934   112.7097     0.7011  -115.0797     0.3394     0.0000  1490.0000
   3129.0000   159.6237     0.4195   121.8374    57.2108   112.7169     0.7010  -113.9773     0.3377     0.0000  1505.0000
   3129.5000   159.6237     0.4572   121.3903    62.4097   112.7240     0.7010  -113.2643     0.3367     0.0000  1505.0000
   3130.0000   159.6237     0.5046   121.2645    62.3421   112.7311     0.7009  -113.0631     0.3364     0.0000  1485.0000
   3130.5000   159.6237     0.5224   120.7371    52.9412   112.7383     0.7009  -112.2171     0.3351     0.0000  1485.0000
   3131.0000   159.6237     0.5412   121.0680    50.8616   112.7454     0.7008  -112.7484     0.3359     0.0000  1494.0000
   3131.5000   159.6237     0.5147   121.7272    43.8433   112.7526     0.7007  -113.8018     0.3375     0.0000  1514.0000
   3132.0000   159.6237     0.4968   121.1069    38.6573   112.7597     0.7007  -112.8107     0.3360     0.0000  1510.0000
   3132.5000   159.6237     0.4344   120.8099    40.6928   112.7669     0.7006  -112.3342     0.3353     0.0000  1477.0000
   3133.0000   159.6237     0.3641   120.5187    44.1537   112.7740     0.7006  -111.8657     0.3346     0.0000  1489.0000
