~VERSION INFORMATION
VERS.           1.2   :CWLS Log ASCII Standard - VERSION 1.2
WRAP.           NO    :One Line per depth step
PROD.  Schlumberger   :LAS Producer
PROG.  DLIS to ASCII 10C0-306                          :LAS Program name and version
CREA.        2009/06/06 23:09                          :LAS Creation date {YYYY/MM/DD hh:mm}
SOURCE.     d986ea9e-f59c-4559-942d-7b7265e62d76       :DLIS File Name
#--------------------------------------------------
~WELL INFORMATION
#MNEM.UNIT      DATA             DESCRIPTION
#---- ------ --------------   -----------------------------
STRT .F      1945.5000       :START DEPTH     
STOP .F      10600.5000      :STOP DEPTH     
STEP .F       0.5000         :STEP       
NULL .          -999.25      :NULL VALUE
COMP .                 COMPANY:  DENBURY ONSHORE, LLC               
WELL .                    WELL:  CFU 31F #1                         
FLD  .                   FIELD:  CRANFIELD FIELD UNIT               
LOC  .                LOCATION:  X: 248,375.1'                      
CNTY .                  COUNTY:  FRANKLIN                           
STAT .                   STATE:  MISSISSIPPI                        
CTRY .                 COUNTRY:                                     
SRVC .         SERVICE COMPANY:  Schlumberger                       
API  .              API NUMBER:  23-037-21488-0000                  
DATE .                LOG DATE:  6-Jun-2009
UWI  .          UNIQUE WELL ID:                                     
#-----------------------------------------------------------------------------
~PARAMETER INFORMATION
#MNEM.UNIT    VALUE                      DESCRIPTION
#---- -----   --------------------       ------------------------
CN   .        DENBURY ONSHORE  LLC       :Company Name
WN   .        CFU 31F #1                 :Well Name
FN   .        CRANFIELD FIELD UNIT       :Field Name
FL   .        X  248 375.1'              :Field Location
FL1  .        Y  387 674.2'              :Field Location Line 1
COUN .        FRANKLIN                   :County or Rig Name
STAT .        MISSISSIPPI                :State or Province
NATI .                                   :Nation
DATE .        6-Jun-2009                 :Date as Month-Day-Year
APIN .        23-037-21488-0000          :API Serial Number
SECT .        31                         :Section
TOWN .        7N                         :Township
RANG .        1E                         :Range
DMF  .        KELLY BUSHING              :Drilling Measured From
LMF  .        KELLY BUSHING              :Log Measured From
PDAT .        GROUND LEVEL               :Permanent Datum
ENGI .        CHRISTIAN ZACCARO          :Engineer's Name
WITN .        FRED WALSH                 :Witness's Name
LATI .                                   :Latitude
LONG .                                   :Longitude
LUL  .        NATCHEZ  MS                :Logging Unit Location
LUN  .              2157                 :Logging Unit Number
RUN  .        ONE                        :Run Number
SON  .        APWH-00103                 :Service Order Number
BHT  .DEGF     220.00000                 :Bottom Hole Temperature (used in calculations)
BS   .IN         8.75000                 :Bit Size
DFD  .LB/G       9.90000                 :Drilling Fluid Density
DFV  .S         42.00000                 :Drilling Fluid Viscosity
DFL  .C3         8.30000                 :Drilling Fluid Loss
RMFS .OHMM       1.21700                 :Resistivity of Mud Filtrate Sample
EKB  .F        333.70001                 :Elevation of Kelly Bushing
EGL  .F        315.70001                 :Elevation of Ground Level
BLI  .F       10628.00000                :Bottom Log Interval
BSAL .PPM     2600.00000                 :Borehole Salinity
FLEV .F          0.00000                 :Fluid Level
MCST .DEGF      74.90000                 :Mud Cake Sample Temperature
MFST .DEGF      74.80000                 :Mud Filtrate Sample Temperature
MRT  .DEGF     221.00000                 :Maximum Recorded Temperature
MST  .DEGF      76.20000                 :Mud Sample Temperature
RMCS .OHMM       1.89800                 :Resistivity of Mud Cake Sample
RMS  .OHMM       1.45600                 :Resistivity of Mud Sample
RW   .OHMM       1.00000                 :Resistivity of Connate Water
TDD  .F       10700.00000                :Total Depth - Driller
TDL  .F       10636.00000                :Total Depth - Logger
TLI  .F       2028.00000                 :Top Log Interval
HIDE .        CALIPER LOG                :Header Identifier
MATR .        LIME                       :Rock Matrix for Neutron Porosity Corrections
FNUM .           1.00000                 :Form Factor Numerator
FEXP .           2.00000                 :Form Factor Exponent
DFT  .        FRESH WATER-BASED MUD      :Drilling Fluid Type
DFPH .           9.60000                 :Drilling Fluid PH
MCSS .        MUDPRESS                   :Mud Cake Sample Source
MFSS .        MUDPRESS                   :Mud Filtrate Sample Source
MSS  .        MUDPIT                     :Mud Sample Source
OS1  .        BHC SONIC                  :Other Services Line 1
OS2  .        CST                        :Other Services Line 2
OS3  .                                   :Other Services Line 3
OS4  .                                   :Other Services Line 4
OS5  .                                   :Other Services Line 5
R1   .        FIRST RUN IN WELL          :Remark Line 1
R2   .        ALL SCHLUMBERGER DEPTH PROCEDURES FOLLOWED :Remark Line 2
R3   .        TWO 1.5  STANDOFFS RAN ON INDUCTION TOOL :Remark Line 3
R4   .        BOWSPRING RAN ON NEUTRON TOOL FOR ECCENTRALIZATION :Remark Line 4
R5   .        MATRIX  LIMESTONE  2.71 G/CC :Remark Line 5
R6   .        CHLORIDES  2600PPM         :Remark Line 6
R7   .                                   :Remark Line 7
R8   .        BOREHOLE ENVIRONMENT MAY AFFECT LOG QUALITY :Remark Line 8
TCS  .        18 00                      :Time Circulation Stopped
TLAB .        1 30                       :Time Logger At Bottom
EPD  .F         315.700012               :Elevation of Permanent Datum above Mean Sea Level
APD  .F          18.000000               :Elevation of Depth Reference (LMF) above Permanent Datum
#-----------------------------------------------------------------------------
~CURVE INFORMATION
#MNEM.UNIT   API CODE                                  DESCRIPTION
#---- -----  --------                                  -----------------------
DEPT .F                                                :DEPTH (BOREHOLE) {F12.4}
CTEM .DEGF                                             :Cartridge Temperature {F11.4}
DCAL .IN                                               :Differential Caliper {F11.4}
DT   .US/F                                             :Delta-T {F11.4}
GR_EDTC.GAPI                                           :Gamma Ray {F11.4}
GTEM .DEGF                                             :Generalized Borehole Temperature {F11.4}
ITT  .S                                                :Integrated Transit Time {F11.4}
RWA  .OHMM                                             :Apparent Water Resistivity {F11.4}
SPHI .CFCF                                             :Sonic Porosity {F11.4}
STIT .F                                                :Stuck Tool Indicator, Total {F11.4}
TENS .LBF                                              :Cable Tension {F11.4}
#-----------------------------------------------------------------------------
# 
#      DEPT        CTEM       DCAL        DT      GR_EDTC      GTEM       ITT        RWA        SPHI       STIT       TENS
#
~A  
# ...
   9997.5000   220.8943     0.8609    69.5317    75.8869   210.8752     0.0477   -14.7834     0.1216     0.0000  3551.0000
   9998.0000   220.8943     0.9462    70.5421    76.4062   210.8824     0.0477   -16.5880     0.1288     0.0000  3562.0000
   9998.5000   220.8943     1.0790    72.0598    85.2651   210.8895     0.0476   -19.3878     0.1393     0.0000  3503.0000
   9999.0000   220.8943     1.5995    74.2888    94.5937   210.8967     0.0476   -23.6569     0.1539     0.0000  3529.0000
   9999.5000   220.8943     0.9649    74.3151    92.4823   210.9038     0.0475   -23.7082     0.1540     0.0000  3513.0000
  10000.0000   220.8943     1.2923    75.8318    86.8063   210.9110     0.0475   -26.6966     0.1635     0.0000  3497.0000
  10000.5000   220.8943     0.9597    76.9339    80.5458   210.9181     0.0475   -28.9001     0.1701     0.0000  3527.0000
  10001.0000   220.8943     1.8363    81.5135    83.1388   210.9253     0.0474   -38.2398     0.1956     0.0000  3526.0000
  10001.5000   220.8943     1.3122    84.3380    85.7383   210.9324     0.0474   -44.0682     0.2100     0.0000  3561.0000
  10002.0000   220.8943     1.7624    79.5093    91.9988   210.9396     0.0474   -34.1254     0.1848     0.0000  3594.0000
  10002.5000   220.8943     0.9813    78.9462    88.4016   210.9467     0.0473   -32.9755     0.1817     0.0000  3625.0000
  10003.0000   220.8943     1.3241    72.3370    85.7664   210.9539     0.0473   -19.9093     0.1412     0.0000  3625.0000
  10003.5000   220.8943     0.8747    70.4247    74.5919   210.9610     0.0472   -16.3756     0.1280     0.0000  3592.0000
  10004.0000   220.8943     1.5727    72.9928    77.7814   210.9682     0.0472   -21.1546     0.1455     0.0000  3548.0000
  10004.5000   220.8943     1.9542    77.1004    81.9354   210.9753     0.0472   -29.2350     0.1710     0.0000  3631.0000
  10005.0000   220.8943     1.8806    79.8099    95.7461   210.9824     0.0471   -34.7405     0.1865     0.0000  3577.0000
  10005.5000   220.8943     2.0902    79.6897   101.9030   210.9896     0.0471   -34.4944     0.1858     0.0000  3609.0000
  10006.0000   220.8943     2.1837    80.8158   102.9415   210.9967     0.0470   -36.8042     0.1919     0.0000  3535.0000
  10006.5000   220.8943     1.9262    79.3841    98.1735   211.0039     0.0470   -33.8694     0.1841     0.0000  3547.0000
  10007.0000   220.8943     2.3196    78.5850    93.4836   211.0110     0.0470   -32.2400     0.1796     0.0000  3532.0000
  10007.5000   220.8943     2.6272    82.5858    98.6760   211.0182     0.0469   -40.4504     0.2012     0.0000  3569.0000
  10008.0000   220.8943     2.6763    82.5058   104.3521   211.0253     0.0469   -40.2853     0.2008     0.0000  3624.0000
  10008.5000   220.8943     2.9752    84.5525   108.3932   211.0325     0.0468   -44.5111     0.2111     0.0000  3608.0000
  10009.0000   220.8943     2.7686    87.0885   100.5269   211.0396     0.0468   -49.7407     0.2231     0.0000  3598.0000
  10009.5000   220.8943     3.1432    86.9020   102.6949   211.0467     0.0468   -49.3568     0.2222     0.0000  3590.0000
  10010.0000   220.8943     3.4768    87.2708    99.5434   211.0539     0.0467   -50.1158     0.2239     0.0000  3615.0000
  10010.5000   220.8943     2.9615    86.1645   111.0445   211.0610     0.0467   -47.8377     0.2188     0.0000  3522.0000
  10011.0000   220.8943     2.7565    84.8090   105.7610   211.0682     0.0466   -45.0408     0.2123     0.0000  3567.0000
  10011.5000   220.8943     2.5727    83.5712   115.5921   211.0753     0.0466   -42.4847     0.2062     0.0000  3565.0000
  10012.0000   220.8943     2.8462    80.2340   109.8803   211.0825     0.0465   -35.6097     0.1888     0.0000  3571.0000
  10012.5000   220.8943     2.6376    77.1797   121.9203   211.0896     0.0465   -29.3945     0.1715     0.0000  3557.0000
  10013.0000   220.8943     0.9934    75.4758   119.4259   211.0968     0.0465   -25.9902     0.1613     0.0000  3558.0000
  10013.5000   220.8943     1.0852    69.1062   110.1484   211.1039     0.0464   -14.0396     0.1185     0.0000  3580.0000
  10014.0000   220.8943     0.9275    69.4715    96.3124   211.1111     0.0464   -14.6776     0.1212     0.0000  3599.0000
  10014.5000   220.8943     0.9309    71.2163    83.9487   211.1182     0.0464   -17.8194     0.1335     0.0000  3542.0000
  10015.0000   220.8943     1.3005    71.4791    77.6489   211.1254     0.0463   -18.3050     0.1353     0.0000  3615.0000
  10015.5000   220.8943     2.2043    73.0047    77.8871   211.1325     0.0463   -21.1773     0.1456     0.0000  3605.0000
  10016.0000   220.8943     2.6150    77.6063    85.1749   211.1396     0.0463   -30.2553     0.1740     0.0000  3519.0000
  10016.5000   220.8943     2.3479    79.3885   100.7523   211.1468     0.0462   -33.8784     0.1841     0.0000  3563.0000
  10017.0000   220.8943     2.3508    83.8981   103.8270   211.1539     0.0462   -43.1598     0.2078     0.0000  3529.0000
  10017.5000   220.8943     2.2326    85.6066   103.8638   211.1611     0.0461   -46.6871     0.2162     0.0000  3565.0000
  10018.0000   220.8943     2.8618    86.7549   111.6525   211.1682     0.0461   -49.0540     0.2216     0.0000  3573.0000
  10018.5000   220.8943     2.5419    86.1246   111.0086   211.1754     0.0460   -47.7555     0.2186     0.0000  3552.0000
  10019.0000   220.8943     2.8067    86.4891   112.5112   211.1825     0.0460   -48.5065     0.2203     0.0000  3608.0000
  10019.5000   220.8943     2.6808    87.7155   101.0877   211.1897     0.0460   -51.0299     0.2260     0.0000  3574.0000
  10020.0000   220.8943     3.3314    86.1782   107.3563   211.1968     0.0459   -47.8659     0.2189     0.0000  3527.0000
  10020.5000   220.8943     3.2594    85.0198   108.3948   211.2039     0.0459   -45.4761     0.2133     0.0000  3566.0000
  10021.0000   220.8943     2.4487    82.5463   108.3534   211.2111     0.0458   -40.3690     0.2010     0.0000  3603.0000
  10021.5000   220.8943     2.5518    78.8820    98.1113   211.2182     0.0458   -32.8447     0.1813     0.0000  3542.0000
  10022.0000   220.8943     2.5691    79.5581    97.0728   211.2254     0.0457   -34.2253     0.1851     0.0000  3557.0000
  10022.5000   220.8943     2.8145    80.4320    96.0356   211.2325     0.0457   -36.0160     0.1899     0.0000  3517.0000
  10023.0000   220.8943     2.6636    80.9073   103.1982   211.2397     0.0457   -36.9923     0.1924     0.0000  3558.0000
  10023.5000   220.8943     2.8015    81.5079   107.8715   211.2468     0.0456   -38.2283     0.1956     0.0000  3514.0000
  10024.0000   220.8943     2.9728    81.8609   111.0271   211.2540     0.0456   -38.9555     0.1974     0.0000  3496.0000
  10024.5000   220.8943     2.8146    81.1629   111.8800   211.2611     0.0455   -37.5181     0.1938     0.0000  3542.0000
  10025.0000   220.8943     2.5559    81.3292   110.2253   211.2682     0.0455   -37.8602     0.1947     0.0000  3496.0000
  10025.5000   220.8943     2.7042    81.4014   108.7520   211.2754     0.0455   -38.0089     0.1950     0.0000  3540.0000
  10026.0000   220.8943     2.5585    82.3830   106.9341   211.2825     0.0454   -40.0320     0.2002     0.0000  3546.0000
  10026.5000   220.8943     2.4454    82.0881   111.2390   211.2897     0.0454   -39.4238     0.1986     0.0000  3506.0000
  10027.0000   220.8943     1.8651    81.6903   106.4813   211.2968     0.0453   -38.6038     0.1966     0.0000  3524.0000
  10027.5000   220.8943     1.8566    78.1871   105.1468   211.3040     0.0453   -31.4315     0.1774     0.0000  3535.0000
  10028.0000   220.8943     1.3699    77.2169    96.7849   211.3111     0.0453   -29.4694     0.1717     0.0000  3473.0000
  10028.5000   220.8943     1.5900    75.4245   101.4582   211.3183     0.0452   -25.8887     0.1610     0.0000  3522.0000
  10029.0000   220.8943     1.2662    75.0107   109.8658   211.3254     0.0452   -25.0716     0.1584     0.0000  3516.0000
  10029.5000   220.8943     1.3301    75.1180   115.1583   211.3326     0.0451   -25.2832     0.1591     0.0000  3510.0000
  10030.0000   220.8943     1.5537    75.8810   113.6006   211.3397     0.0451   -26.7945     0.1638     0.0000  3544.0000
