~VERSION INFORMATION
VERS.           2.0   :CWLS Log ASCII Standard - VERSION 2.0
WRAP.           NO    :One Line per depth step
PROD.  Schlumberger   :LAS Producer
PROG.  DLIS to ASCII 17C0-154                          :LAS Program name and version
CREA.        2010/09/16 16:20                          :LAS Creation date {YYYY/MM/DD hh:mm}
DLIS_CREA.  2010-Sep-07 20:55                          :DLIS Creation date and time {YYYY-MMM-DD hh:mm}
SOURCE.     CFU_31F_#1_DENBURY_ONSHORE_7-SEP-2010_10660-10934_MAIN_PASS_RST_PSP_071PUP.DLIS  :DLIS File Name
FILE-ID.     FCS_GMS_RST_PSP_071PUP                    :File Identification Number
#--------------------------------------------------
~WELL INFORMATION
#MNEM.UNIT      DATA             DESCRIPTION
#---- ------ --------------   -----------------------------
STRT .F        10666.5       :START DEPTH     
STOP .F         8508.5       :STOP DEPTH     
STEP .F           -0.5       :STEP     
NULL .          -999.25      :NULL VALUE
COMP .        DENBURY ONSHORE, LLC                     :COMPANY
WELL .        CFU 31F #1                               :WELL
FLD  .        CRANFIELD                                :FIELD
LOC  .                                                 :LOCATION
CNTY .        FRANKLIN                                 :COUNTY
STAT .        MISSISSIPPI                              :STATE
CTRY .                                                 :COUNTRY
API  .        23-037-21488-0000                        :API NUMBER
UWI  .        23-037-21488-0000                        :UNIQUE WELL ID
DATE .        07-Sep-2010                              :LOG DATE {DD-MMM-YYYY}
SRVC .        Schlumberger                             :SERVICE COMPANY
LATI .DEG                                              :LATITUDE
LONG .DEG                                              :LONGITUDE
GDAT .                                                 :GeoDetic Datum
SECT .        31                                       :Section
RANG .        1E                                       :Range
TOWN .        7N                                       :Township
#-----------------------------------------------------------------------------
~PARAMETER INFORMATION
#MNEM.UNIT    VALUE                      DESCRIPTION
#---- -----   --------------------       ------------------------
RUN  .          1                        :RUN NUMBER
PDAT .        GROUND LEVEL               :Permanent Datum
EPD  .F         315.700012               :Elevation of Permanent Datum above Mean Sea Level
LMF  .          KELLY BUSHING            :Logging Measured From (Name of Logging Elevation Reference)
APD  .F          18.000000               :Elevation of Depth Reference (LMF) above Permanent Datum
#-----------------------------------------------------------------------------
~CURVE INFORMATION
#MNEM.UNIT   API CODE                                  DESCRIPTION
#---- -----  --------                                  -----------------------
DEPT .F                                                :DEPTH (BOREHOLE) {F10.1}
CCLD .V                                                :CCL Discriminated Amplitude {F13.4}
CIRF_FIL.                                              :Capture to Inelastic Ratio Far Filtered {F13.4}
CIRN_FIL.                                              :Capture to Inelastic Ratio Near Filtered {F13.4}
FBAC .HZ                                               :Far Background Count Rate {F13.4}
GR   .GAPI                                             :Gamma Ray {F13.4}
SIBF .CU                                               :Sigma Borehole Fluid {F13.4}
SIGM .CU                                               :Formation Sigma (Neutron Capture Cross Section) {F13.4}
TPHI .CFCF                                             :Thermal Decay Porosity {F13.4}
#-----------------------------------------------------------------------------
# 
#     DEPT        CCLD       CIRF_FIL     CIRN_FIL       FBAC         GR           SIBF         SIGM         TPHI
#
~A  
# ...
   10001.5       0.0000       0.9007       0.3546    2400.2673      53.2617     139.7541      30.6546       0.2669
   10001.0       0.0000       0.8580       0.3473    2410.9626      53.4448     140.6058      31.2029       0.2825
   10000.5       0.0000       0.8958       0.3614    2424.3315      53.8911     141.9524      29.1852       0.2982
   10000.0       0.0000       0.9507       0.3748    2392.2461      53.7067     143.7923      28.8132       0.2853
    9999.5       0.0000       0.9315       0.3543    2379.5510      53.1769     144.8624      28.6718       0.2721
    9999.0       0.0000       0.8962       0.3343    2374.6045      54.4502     145.5768      29.1072       0.2498
    9998.5       0.0000       0.9120       0.3302    2377.2783      53.4639     147.0334      28.4905       0.2368
    9998.0       0.0000       0.9896       0.3531    2363.1072      49.8095     146.6257      27.2574       0.2152
    9997.5       0.0000       1.0796       0.3742    2343.9895      48.4708     142.7784      25.8131       0.1997
    9997.0       0.0000       1.1303       0.3928    2346.8032      44.8061     142.6429      25.0132       0.1868
    9996.5       0.0000       1.1435       0.3975    2341.7231      41.5079     142.6676      24.3986       0.1836
    9996.0       0.0000       1.1401       0.3881    2330.3594      41.7757     143.0740      23.8440       0.1831
    9995.5       0.0000       1.1797       0.3896    2298.9424      44.0914     143.7315      23.3466       0.1833
    9995.0       0.0000       1.1744       0.3892    2294.1294      46.0610     144.3729      24.1116       0.1846
    9994.5       0.0000       1.1244       0.3792    2304.5574      47.5782     144.6992      25.3990       0.1891
    9994.0       0.0000       1.0167       0.3518    2323.9368      47.7527     145.0501      26.3915       0.1894
    9993.5       0.0000       1.0561       0.3492    2308.0276      45.7341     145.5059      25.4194       0.1907
    9993.0       0.0000       1.2005       0.3887    2271.9314      40.0224     146.0762      22.7968       0.1773
    9992.5       0.0000       1.3815       0.4287    2291.1829      34.4830     146.6683      20.5302       0.1629
    9992.0       0.0000       1.4788       0.4437    2306.5571      33.5946     147.3907      19.6212       0.1447
    9991.5       0.0000       1.4868       0.4326    2281.0161      33.1484     147.4773      20.0685       0.1415
    9991.0       0.0000       1.4437       0.4313    2293.7166      37.6658     147.6707      20.4794       0.1513
    9990.5       0.0000       1.3434       0.4299    2304.4119      43.5620     147.6062      21.3741       0.1678
    9990.0       0.0000       1.2253       0.4101    2325.4011      49.3630     147.3920      23.1979       0.1895
    9989.5       0.0000       1.1044       0.3863    2330.7488      51.4116     147.6420      25.0262       0.2060
    9989.0       0.0000       1.0521       0.3677    2328.0750      53.3798     147.8078      26.2679       0.2265
    9988.5       0.0000       1.0615       0.3871    2328.0750      53.7368     148.0035      26.2169       0.2311
    9988.0       0.0000       1.1073       0.4009    2338.2354      50.8750     148.2619      25.3355       0.2272
    9987.5       0.0000       1.1686       0.4150    2354.9465      44.7201     147.8931      23.9161       0.2057
    9987.0       0.0000       1.2446       0.4247    2320.1873      43.3770     147.5616      22.4773       0.1874
    9986.5       0.0000       1.3227       0.4367    2299.9739      42.3055     147.3554      21.8015       0.1743
    9986.0       0.0000       1.3349       0.4396    2323.5032      39.9003     146.8735      21.9181       0.1680
    9985.5       0.0000       1.3056       0.4294    2315.3223      40.3880     146.4094      22.2189       0.1645
    9985.0       0.0000       1.2635       0.4168    2292.0720      42.6203     146.0866      22.3517       0.1609
    9984.5       0.0000       1.2453       0.4114    2304.5051      42.9817     145.8789      21.9526       0.1634
    9984.0       0.0000       1.2373       0.4103    2312.5266      43.6511     145.5475      21.4819       0.1675
    9983.5       0.0000       1.2269       0.4004    2329.5051      43.1237     144.9531      21.9266       0.1721
    9983.0       0.0000       1.2423       0.4077    2319.8794      38.8117     144.6574      21.7472       0.1796
    9982.5       0.0000       1.3286       0.4434    2361.0559      34.3471     143.8021      20.5060       0.1830
    9982.0       0.0000       1.5121       0.4925    2341.0024      29.3513     143.4392      17.6681       0.1780
    9981.5      -0.0006       1.7549       0.5306    2349.9597      26.2421     142.7718      15.3866       0.1569
    9981.0      -0.0392       1.9236       0.5366    2358.4082      27.8410     142.0479      14.4914       0.1384
    9980.5       0.0000       1.8751       0.5181    2348.9163      32.8430     141.7019      15.4886       0.1299
    9980.0      -0.0254       1.6475       0.4706    2346.2683      39.3614     141.0937      17.9037       0.1412
    9979.5       0.0000       1.3743       0.4211    2378.5588      45.8797     140.6672      21.0056       0.1582
    9979.0       0.0000       1.2034       0.3920    2375.7512      49.5881     140.3504      23.6022       0.1824
    9978.5       0.0000       1.0818       0.3789    2373.0774      51.5125     140.3359      25.4164       0.2015
    9978.0       0.0000       0.9978       0.3629    2373.0835      53.8091     140.2669      26.9586       0.2202
    9977.5       0.0000       0.9361       0.3445    2382.0408      54.4208     140.2228      27.4563       0.2326
    9977.0       0.0000       0.9364       0.3448    2364.8010      53.6122     140.1411      28.2888       0.2395
    9976.5       0.0000       0.9180       0.3399    2407.5818      54.9975     140.6361      28.8267       0.2491
    9976.0       0.0000       0.8794       0.3334    2396.3572      52.7436     140.8663      30.5446       0.2586
    9975.5       0.0000       0.8168       0.3120    2398.4963      52.9347     140.9234      31.8404       0.2717
    9975.0       0.0000       0.7919       0.3114    2393.1487      55.6972     140.8397      32.8525       0.2798
    9974.5       0.0000       0.8018       0.3141    2403.3091      56.3214     141.1313      33.0262       0.2875
    9974.0       0.0000       0.8346       0.3303    2372.8787      57.7749     140.3598      32.6347       0.2843
    9973.5       0.0000       0.8588       0.3320    2357.6379      62.3457     140.5436      32.3387       0.2765
    9973.0       0.0000       0.8758       0.3378    2369.9375      60.3856     140.7022      31.4210       0.2584
    9972.5       0.0000       0.9128       0.3445    2361.2415      54.1626     141.2365      29.7733       0.2383
    9972.0       0.0000       1.0315       0.3753    2361.7825      51.6684     141.2156      26.6550       0.2188
    9971.5       0.0000       1.2024       0.4170    2355.6265      48.5755     142.1606      23.8424       0.1954
    9971.0       0.0000       1.3383       0.4483    2350.2788      46.2528     142.5902      22.2760       0.1829
    9970.5       0.0000       1.3377       0.4515    2361.5034      48.0535     142.8496      22.6872       0.1773
    9970.0       0.0000       1.2403       0.4289    2380.0925      55.4851     142.9051      24.9215       0.1952
    9969.5       0.0000       1.0832       0.3987    2368.0605      60.0326     142.9381      27.9931       0.2290
    9969.0       0.0000       0.9451       0.3737    2354.0288      63.8291     143.1142      31.1285       0.2782
    9968.5       0.0000       0.8356       0.3537    2367.3977      65.5615     143.2932      32.7963       0.3123
    9968.0       0.0000       0.8101       0.3368    2352.6919      64.5266     143.3540      32.8721       0.3199
    9967.5       0.0000       0.8361       0.3311    2355.0984      59.6059     144.3696      31.8348       0.3006
    9967.0       0.0000       0.8711       0.3337    2362.8523      58.9325     144.6868      30.4275       0.2781
