~VERSION INFORMATION
VERS.           2.0   :CWLS Log ASCII Standard - VERSION 2.0
WRAP.           NO    :One Line per depth step
PROD.  Schlumberger   :LAS Producer
PROG.  DLIS to ASCII 17C0-154                          :LAS Program name and version
CREA.        2010/09/16 16:20                          :LAS Creation date {YYYY/MM/DD hh:mm}
DLIS_CREA.  2010-Sep-07 20:55                          :DLIS Creation date and time {YYYY-MMM-DD hh:mm}
SOURCE.     CFU_31F_#1_DENBURY_ONSHORE_7-SEP-2010_10660-10934_MAIN_PASS_RST_PSP_071PUP.DLIS  :DLIS File Name
FILE-ID.     FCS_GMS_RST_PSP_071PUP                    :File Identification Number
#--------------------------------------------------
~WELL INFORMATION
#MNEM.UNIT      DATA             DESCRIPTION
#---- ------ --------------   -----------------------------
STRT .F        10666.5       :START DEPTH     
STOP .F         8508.5       :STOP DEPTH     
STEP .F           -0.5       :STEP     
NULL .          -999.25      :NULL VALUE
COMP .        DENBURY ONSHORE, LLC                     :COMPANY
WELL .        CFU 31F #1                               :WELL
FLD  .        CRANFIELD                                :FIELD
LOC  .                                                 :LOCATION
CNTY .        FRANKLIN                                 :COUNTY
STAT .        MISSISSIPPI                              :STATE
CTRY .                                                 :COUNTRY
API  .        23-037-21488-0000                        :API NUMBER
UWI  .        23-037-21488-0000                        :UNIQUE WELL ID
DATE .        07-Sep-2010                              :LOG DATE {DD-MMM-YYYY}
SRVC .        Schlumberger                             :SERVICE COMPANY
LATI .DEG                                              :LATITUDE
LONG .DEG                                              :LONGITUDE
GDAT .                                                 :GeoDetic Datum
SECT .        31                                       :Section
RANG .        1E                                       :Range
TOWN .        7N                                       :Township
#-----------------------------------------------------------------------------
~PARAMETER INFORMATION
#MNEM.UNIT    VALUE                      DESCRIPTION
#---- -----   --------------------       ------------------------
RUN  .          1                        :RUN NUMBER
PDAT .        GROUND LEVEL               :Permanent Datum
EPD  .F         315.700012               :Elevation of Permanent Datum above Mean Sea Level
LMF  .          KELLY BUSHING            :Logging Measured From (Name of Logging Elevation Reference)
APD  .F          18.000000               :Elevation of Depth Reference (LMF) above Permanent Datum
#-----------------------------------------------------------------------------
~CURVE INFORMATION
#MNEM.UNIT   API CODE                                  DESCRIPTION
#---- -----  --------                                  -----------------------
DEPT .F                                                :DEPTH (BOREHOLE) {F10.1}
CCLD .V                                                :CCL Discriminated Amplitude {F13.4}
CIRF_FIL.                                              :Capture to Inelastic Ratio Far Filtered {F13.4}
CIRN_FIL.                                              :Capture to Inelastic Ratio Near Filtered {F13.4}
FBAC .HZ                                               :Far Background Count Rate {F13.4}
GR   .GAPI                                             :Gamma Ray {F13.4}
SIBF .CU                                               :Sigma Borehole Fluid {F13.4}
SIGM .CU                                               :Formation Sigma (Neutron Capture Cross Section) {F13.4}
TPHI .CFCF                                             :Thermal Decay Porosity {F13.4}
#-----------------------------------------------------------------------------
# 
#     DEPT        CCLD       CIRF_FIL     CIRN_FIL       FBAC         GR           SIBF         SIGM         TPHI
#
~A  
# ...
    8636.5       0.0000       1.3050       0.4632    2327.3286      36.9551     139.7605      22.2222       0.2081
    8636.0       0.0000       1.3218       0.4649    2320.1355      36.4161     140.0001      22.0478       0.2040
    8635.5       0.0000       1.3401       0.4667    2293.3977      34.1838     139.9547      21.4040       0.2003
    8635.0       0.0000       1.3661       0.4704    2311.1785      33.4575     139.9557      21.1242       0.1943
    8634.5       0.0000       1.3653       0.4709    2318.8503      34.6142     140.1810      20.9165       0.1950
    8634.0       0.0000       1.3618       0.4784    2319.5188      34.8784     140.4118      21.0929       0.1982
    8633.5       0.0000       1.3496       0.4783    2336.2300      35.8676     140.2467      21.1208       0.2045
    8633.0       0.0000       1.3278       0.4761    2330.6150      36.2618     139.9021      21.4081       0.2077
    8632.5       0.0000       1.3189       0.4695    2318.5830      36.8137     139.7772      21.3671       0.2121
    8632.0       0.0000       1.3016       0.4686    2331.2834      36.1035     139.7586      21.5332       0.2138
    8631.5       0.0000       1.2899       0.4619    2356.6846      36.6390     139.3142      21.7630       0.2148
    8631.0       0.0000       1.2690       0.4534    2361.6311      35.7425     139.5378      22.3788       0.2128
    8630.5       0.0000       1.2459       0.4436    2379.0107      38.2949     139.5074      22.8567       0.2155
    8630.0       0.0000       1.2141       0.4445    2377.8074      36.9563     139.3906      23.0601       0.2240
    8629.5       0.0000       1.2096       0.4480    2355.7488      36.5063     139.7412      22.9390       0.2422
    8629.0       0.0000       1.2183       0.4469    2353.0750      35.4387     139.6689      22.9621       0.2551
    8628.5      -0.0980       1.2622       0.4457    2359.7593      36.6964     139.6393      23.0431       0.2601
    8628.0       0.0155       1.3059       0.4514    2354.9211      36.4240     139.3813      23.0097       0.2484
    8627.5      -0.0103       1.3552       0.4677    2330.4558      37.1417     139.2013      22.5461       0.2419
    8627.0       0.0000       1.3625       0.4806    2329.7874      38.7481     139.5361      22.3697       0.2355
    8626.5       0.0000       1.3554       0.4895    2333.6646      38.9232     139.6568      22.1026       0.2358
    8626.0       0.0000       1.3512       0.4867    2317.9690      37.4480     139.8581      21.8929       0.2271
    8625.5       0.0000       1.3664       0.4829    2313.0225      34.9460     140.2227      21.2568       0.2142
    8625.0       0.0000       1.4050       0.4824    2317.0330      33.6959     139.8025      20.6529       0.2016
    8624.5       0.0000       1.4228       0.4905    2336.7937      31.3786     139.9960      19.9896       0.1933
    8624.0       0.0000       1.4378       0.4893    2344.6558      30.8432     140.2175      19.8849       0.1882
    8623.5       0.0000       1.4225       0.4828    2338.7734      31.7638     140.4098      20.0362       0.1849
    8623.0       0.0000       1.4047       0.4736    2350.1370      32.0381     140.4164      20.4170       0.1833
    8622.5       0.0000       1.4010       0.4687    2354.9751      33.1096     140.1019      20.4025       0.1862
    8622.0       0.0000       1.3728       0.4637    2390.6704      35.3333     140.4857      20.1884       0.1866
    8621.5       0.0000       1.3746       0.4594    2367.9431      36.2294     139.7422      20.0528       0.1876
    8621.0       0.0000       1.3535       0.4621    2372.7559      35.6155     139.9209      19.7771       0.1875
    8620.5       0.0000       1.3634       0.4610    2382.9702      36.8612     139.8820      19.8711       0.1901
    8620.0       0.0000       1.3540       0.4629    2381.6333      37.8393     139.6235      19.6147       0.1920
    8619.5       0.0000       1.3530       0.4595    2370.9382      35.2555     139.5540      19.7731       0.1928
    8619.0       0.0000       1.3599       0.4623    2361.3379      35.6088     139.5122      19.8267       0.1945
    8618.5       0.0000       1.3583       0.4623    2377.5400      35.3946     139.6987      20.3559       0.1952
    8618.0       0.0000       1.3527       0.4625    2401.4705      35.4882     140.8321      20.5488       0.1960
    8617.5       0.0000       1.3496       0.4616    2390.1069      33.7925     140.7125      20.4641       0.1944
    8617.0       0.0000       1.3449       0.4597    2363.7700      35.8452     140.4454      20.3744       0.1933
    8616.5       0.0000       1.3495       0.4598    2341.4438      37.4071     140.1371      20.4277       0.1953
    8616.0       0.0000       1.3258       0.4563    2367.5134      39.2278     140.4904      21.2404       0.1976
    8615.5       0.0000       1.2995       0.4521    2353.6096      38.4206     141.6383      21.8981       0.2025
    8615.0       0.0000       1.2705       0.4489    2363.1016      37.7988     140.8756      22.1938       0.2048
    8614.5       0.0000       1.2960       0.4539    2373.6372      35.1201     141.4354      21.6415       0.2064
    8614.0       0.0000       1.3455       0.4622    2364.9534      31.2351     140.5167      20.6463       0.1981
    8613.5       0.0000       1.4218       0.4672    2343.9639      29.3644     140.8305      19.9354       0.1872
    8613.0       0.0000       1.4511       0.4742    2335.1147      27.7579     140.5911      19.0664       0.1773
    8612.5       0.0000       1.5004       0.4835    2339.3989      28.0505     140.4715      18.9149       0.1746
    8612.0       0.0000       1.4932       0.4903    2342.0728      27.5163     140.5613      18.7712       0.1748
    8611.5       0.0000       1.4829       0.4900    2341.6716      28.4145     140.1960      19.1449       0.1720
    8611.0       0.0000       1.4444       0.4759    2341.6184      27.9616     139.1487      19.3988       0.1721
    8610.5       0.0000       1.4373       0.4783    2352.8792      29.2645     138.9063      19.8044       0.1660
    8610.0       0.0000       1.4325       0.4631    2359.0747      31.1151     132.4189      20.0004       0.1255
    8609.5       0.0000       1.4310       0.4874    2417.6702      33.1677     128.9023      19.9497       0.0339
    8609.0       0.0000       1.4416       0.5307    2242.6470      32.5454     105.5130      19.4253      -0.1002
    8608.5       0.0000    -999.2500    -999.2500    -999.2500      31.5695    -999.2500    -999.2500    -999.2500
    8608.0       0.0000    -999.2500    -999.2500    -999.2500      29.9096    -999.2500    -999.2500    -999.2500
    8607.5       0.0000    -999.2500    -999.2500    -999.2500      28.9239    -999.2500    -999.2500    -999.2500
    8607.0       0.0000    -999.2500    -999.2500    -999.2500      32.6776    -999.2500    -999.2500    -999.2500
    8606.5       0.0000    -999.2500    -999.2500    -999.2500      36.1018    -999.2500    -999.2500    -999.2500
    8606.0       0.0000    -999.2500    -999.2500    -999.2500      41.2700    -999.2500    -999.2500    -999.2500
    8605.5       0.0000    -999.2500    -999.2500    -999.2500      45.1122    -999.2500    -999.2500    -999.2500
    8605.0       0.0000    -999.2500    -999.2500    -999.2500      47.5763    -999.2500    -999.2500    -999.2500
    8604.5       0.0000    -999.2500    -999.2500    -999.2500      44.0010    -999.2500    -999.2500    -999.2500
    8604.0       0.0000    -999.2500    -999.2500    -999.2500      42.7024    -999.2500    -999.2500    -999.2500
    8603.5       0.0000    -999.2500    -999.2500    -999.2500      39.5880    -999.2500    -999.2500    -999.2500
    8603.0       0.0000    -999.2500    -999.2500    -999.2500      37.7092    -999.2500    -999.2500    -999.2500
    8602.5       0.0000    -999.2500    -999.2500    -999.2500      36.4104    -999.2500    -999.2500    -999.2500
    8602.0       0.0000    -999.2500    -999.2500    -999.2500      37.3961    -999.2500    -999.2500    -999.2500
