~VERSION INFORMATION
VERS.           2.0   :CWLS Log ASCII Standard - VERSION 2.0
WRAP.           NO    :One Line per depth step
PROD.  Schlumberger   :LAS Producer
PROG.  DLIS to ASCII 17C0-154                          :LAS Program name and version
CREA.        2010/09/30 15:14                          :LAS Creation date {YYYY/MM/DD hh:mm}
DLIS_CREA.  2010-Sep-07 20:46                          :DLIS Creation date and time {YYYY-MMM-DD hh:mm}
SOURCE.     CFU_31F_#1_DENBURY_ONSHORE_7-SEP-2010_10660-10934_PRES_TEMP_DL_PSP_069PUP.DLIS  :DLIS File Name
FILE-ID.     FCS_GMS_RST_PSP_069PUP                    :File Identification Number
#--------------------------------------------------
~WELL INFORMATION
#MNEM.UNIT      DATA             DESCRIPTION
#---- ------ --------------   -----------------------------
STRT .F        10666.5       :START DEPTH     
STOP .F          -41.5       :STOP DEPTH     
STEP .F           -0.5       :STEP     
NULL .          -999.25      :NULL VALUE
COMP .        DENBURY ONSHORE, LLC                     :COMPANY
WELL .        CFU 31F #1                               :WELL
FLD  .        CRANFIELD                                :FIELD
LOC  .                                                 :LOCATION
CNTY .        FRANKLIN                                 :COUNTY
STAT .        MISSISSIPPI                              :STATE
CTRY .                                                 :COUNTRY
API  .        23-037-21488-0000                        :API NUMBER
UWI  .        23-037-21488-0000                        :UNIQUE WELL ID
DATE .        07-Sep-2010                              :LOG DATE {DD-MMM-YYYY}
SRVC .        Schlumberger                             :SERVICE COMPANY
LATI .DEG                                              :LATITUDE
LONG .DEG                                              :LONGITUDE
GDAT .                                                 :GeoDetic Datum
SECT .        31                                       :Section
RANG .        1E                                       :Range
TOWN .        7N                                       :Township
#-----------------------------------------------------------------------------
~PARAMETER INFORMATION
#MNEM.UNIT    VALUE                      DESCRIPTION
#---- -----   --------------------       ------------------------
RUN  .          1                        :RUN NUMBER
PDAT .        GROUND LEVEL               :Permanent Datum
EPD  .F         315.700012               :Elevation of Permanent Datum above Mean Sea Level
LMF  .          KELLY BUSHING            :Logging Measured From (Name of Logging Elevation Reference)
APD  .F          18.000000               :Elevation of Depth Reference (LMF) above Permanent Datum
#-----------------------------------------------------------------------------
~CURVE INFORMATION
#MNEM.UNIT   API CODE                                  DESCRIPTION
#---- -----  --------                                  -----------------------
DEPT .F                                                :DEPTH (BOREHOLE) {F10.1}
GR   .GAPI                                             :Gamma Ray {F13.4}
WFDE .G/C3                                             :Well Fluid Density Corrected {F13.4}
WPRE .PSI                                              :Well Pressure {F13.4}
WTEP .DEGF                                             :Well Temperature {F13.4}
#-----------------------------------------------------------------------------
# 
#     DEPT        GR           WFDE         WPRE         WTEP
#
~A  
# ...
    8507.5      56.9226       0.7195    5020.4116     163.8716
    8507.0      50.4464       0.7205    5020.2563     163.8636
    8506.5      58.2179       0.7229    5020.1372     163.8577
    8506.0      58.2179       0.7256    5020.0107     163.8484
    8505.5      53.0369       0.7274    5019.8394     163.8403
    8505.0      62.1426       0.7259    5019.6748     163.8332
    8504.5      63.4378       0.7258    5019.5054     163.8265
    8504.0      55.6664       0.7257    5019.3516     163.8192
    8503.5      71.1509       0.7254    5019.1987     163.8123
    8503.0      75.0366       0.7240    5019.0146     163.8051
    8502.5      65.9699       0.7245    5018.8530     163.8005
    8502.0      69.8020       0.7239    5018.6748     163.7961
    8501.5      69.8020       0.7219    5018.5361     163.7909
    8501.0      49.1756       0.7191    5018.4058     163.7862
    8500.5      41.3798       0.7187    5018.2227     163.7799
    8500.0      37.4940       0.7175    5018.0327     163.7734
    8499.5      36.2523       0.7159    5017.8823     163.7684
    8499.0      46.5461       0.7156    5017.7021     163.7652
    8498.5      59.4888       0.7170    5017.5757     163.7596
    8498.0      67.2846       0.7185    5017.4766     163.7527
    8497.5      64.6941       0.7181    5017.3081     163.7447
    8497.0      65.9894       0.7182    5017.1567     163.7390
    8496.5      59.5375       0.7203    5016.9849     163.7335
    8496.0      51.7660       0.7207    5016.8687     163.7283
    8495.5      50.4221       0.7209    5016.7578     163.7200
    8495.0      56.8983       0.7234    5016.5942     163.7116
    8494.5      55.6030       0.7260    5016.4146     163.7064
    8494.0      53.0564       0.7254    5016.1968     163.6995
    8493.5      55.6469       0.7249    5016.0630     163.6912
    8493.0      50.4854       0.7255    5015.9082     163.6830
    8492.5      51.7806       0.7264    5015.7290     163.6743
    8492.0      44.0091       0.7262    5015.5781     163.6656
    8491.5      45.3044       0.7260    5015.3979     163.6572
    8491.0      40.1039       0.7268    5015.2515     163.6470
    8490.5      42.7236       0.7273    5015.0942     163.6350
    8490.0      37.5427       0.7265    5014.9248     163.6237
    8489.5      45.2654       0.7261    5014.7603     163.6143
    8489.0      40.0844       0.7260    5014.5938     163.6058
    8488.5      50.5248       0.7251    5014.4717     163.5940
    8488.0      54.3569       0.7234    5014.3408     163.5852
    8487.5      54.3569       0.7222    5014.1563     163.5743
    8487.0      54.4056       0.7222    5013.9922     163.5632
    8486.5      64.7676       0.7218    5013.8442     163.5550
    8486.0      62.0695       0.7215    5013.6763     163.5480
    8485.5      62.1231       0.7208    5013.5508     163.5383
    8485.0      68.5993       0.7199    5013.4370     163.5288
    8484.5      66.0088       0.7194    5013.2695     163.5198
    8484.0      65.9504       0.7200    5013.0942     163.5122
    8483.5      68.5896       0.7203    5012.9263     163.5042
    8483.0      69.8264       0.7217    5012.7939     163.4954
    8482.5      68.5311       0.7234    5012.6660     163.4887
    8482.0      71.1216       0.7247    5012.4937     163.4824
    8481.5      68.5896       0.7252    5012.3145     163.4760
    8481.0      67.2943       0.7272    5012.1929     163.4671
    8480.5      64.7136       0.7287    5012.0801     163.4588
    8480.0      64.7136       0.7270    5011.9204     163.4513
    8479.5      56.9421       0.7219    5011.7393     163.4452
    8479.0      60.8278       0.7188    5011.6021     163.4405
    8478.5      63.3550       0.7163    5011.4780     163.4318
    8478.0      63.4528       0.7137    5011.3330     163.4247
    8477.5      60.8623       0.7164    5011.1875     163.4179
    8477.0      68.6338       0.7224    5011.0327     163.4122
    8476.5      56.9766       0.7262    5010.8486     163.4058
    8476.0      53.1054       0.7281    5010.7095     163.4000
    8475.5      47.8462       0.7282    5010.5518     163.3936
    8475.0      54.3224       0.7264    5010.4004     163.3869
    8474.5      53.0272       0.7242    5010.2124     163.3820
    8474.0      60.7986       0.7217    5010.0464     163.3771
    8473.5      66.0283       0.7190    5009.8755     163.3714
    8473.0      76.3513       0.7216    5009.7358     163.3642
    8472.5      68.5798       0.7240    5009.6191     163.3588
    8472.0      64.6941       0.7238    5009.4790     163.3524
    8471.5      65.9358       0.7243    5009.3428     163.3479
    8471.0      64.6405       0.7254    5009.1318     163.3434
    8470.5      54.3467       0.7233    5009.0059     163.3371
    8470.0      69.8020       0.7206    5008.8662     163.3316
    8469.5      76.2783       0.7204    5008.6895     163.3254
    8469.0      72.4461       0.7215    5008.5059     163.3198
    8468.5      63.3794       0.7234    5008.3032     163.3156
    8468.0      68.5117       0.7248    5008.1421     163.3089
    8467.5      62.1231       0.7269    5008.0093     163.3026
    8467.0      68.5993       0.7295    5007.8657     163.2978
    8466.5      64.7136       0.7268    5007.6836     163.2945
    8466.0      67.2651       0.7226    5007.5552     163.2879
    8465.5      72.5635       0.7205    5007.4526     163.2799
    8465.0      63.4968       0.7197    5007.2832     163.2736
    8464.5      51.8055       0.7176    5007.0776     163.2695
    8464.0      56.9865       0.7185    5006.8838     163.2641
    8463.5      59.6159       0.7203    5006.7339     163.2577
    8463.0      56.8983       0.7215    5006.5903     163.2508
    8462.5      54.3078       0.7211    5006.4468     163.2431
    8462.0      55.6371       0.7208    5006.2915     163.2392
    8461.5      53.0466       0.7217    5006.0981     163.2354
    8461.0      55.6371       0.7213    5005.9258     163.2300
    8460.5      47.8949       0.7198    5005.8091     163.2252
    8460.0      49.1901       0.7195    5005.7041     163.2212
    8459.5      54.3711       0.7212    5005.5713     163.2152
    8459.0      56.9178       0.7217    5005.3994     163.2112
    8458.5      51.7760       0.7214    5005.1836     163.2082
    8458.0      63.4625       0.7214    5005.0410     163.2034
    8457.5      67.3092       0.7223    5004.9189     163.2003
    8457.0      63.4235       0.7223    5004.7485     163.1962
    8456.5      60.8768       0.7202    5004.5752     163.1912
    8456.0      64.7233       0.7193    5004.4004     163.1887
    8455.5      58.1984       0.7195    5004.2847     163.1839
    8455.0      55.6469       0.7178    5004.1504     163.1808
    8454.5      55.6469       0.7164    5004.0181     163.1772
    8454.0      60.8278       0.7188    5003.8721     163.1737
    8453.5      58.1935       0.7212    5003.7046     163.1703
    8453.0      58.2913       0.7209    5003.5728     163.1660
    8452.5      63.4723       0.7203    5003.4507     163.1609
    8452.0      60.8477       0.7260    5003.2983     163.1566
    8451.5      54.3715       0.7309    5003.1030     163.1530
    8451.0      57.0058       0.7298    5002.9590     163.1499
    8450.5      56.9080       0.7302    5002.8105     163.1452
    8450.0      55.6128       0.7304    5002.6094     163.1404
    8449.5      53.0564       0.7234    5002.4243     163.1373
    8449.0      58.2374       0.7171    5002.2520     163.1342
    8448.5      49.1706       0.7172    5002.1245     163.1308
    8448.0      51.7514       0.7175    5001.9995     163.1273
    8447.5      59.5229       0.7194    5001.8315     163.1236
    8447.0      56.9324       0.7216    5001.6660     163.1198
    8446.5      53.0126       0.7250    5001.4990     163.1180
    8446.0      53.0126       0.7283    5001.3271     163.1167
    8445.5      40.1185       0.7289    5001.2026     163.1135
    8445.0      33.5936       0.7285    5001.0757     163.1108
    8444.5      38.7746       0.7289    5000.8833     163.1072
