~VERSION INFORMATION
VERS.           2.0   :CWLS Log ASCII Standard - VERSION 2.0
WRAP.           NO    :One Line per depth step
PROD.  Schlumberger   :LAS Producer
PROG.  DLIS to ASCII 17C0-154                          :LAS Program name and version
CREA.        2010/09/16 16:20                          :LAS Creation date {YYYY/MM/DD hh:mm}
DLIS_CREA.  2010-Sep-07 20:55                          :DLIS Creation date and time {YYYY-MMM-DD hh:mm}
SOURCE.     CFU_31F_#1_DENBURY_ONSHORE_7-SEP-2010_10660-10934_MAIN_PASS_RST_PSP_071PUP.DLIS  :DLIS File Name
FILE-ID.     FCS_GMS_RST_PSP_071PUP                    :File Identification Number
#--------------------------------------------------
~WELL INFORMATION
#MNEM.UNIT      DATA             DESCRIPTION
#---- ------ --------------   -----------------------------
STRT .F        10666.5       :START DEPTH     
STOP .F         8508.5       :STOP DEPTH     
STEP .F           -0.5       :STEP     
NULL .          -999.25      :NULL VALUE
COMP .        DENBURY ONSHORE, LLC                     :COMPANY
WELL .        CFU 31F #1                               :WELL
FLD  .        CRANFIELD                                :FIELD
LOC  .                                                 :LOCATION
CNTY .        FRANKLIN                                 :COUNTY
STAT .        MISSISSIPPI                              :STATE
CTRY .                                                 :COUNTRY
API  .        23-037-21488-0000                        :API NUMBER
UWI  .        23-037-21488-0000                        :UNIQUE WELL ID
DATE .        07-Sep-2010                              :LOG DATE {DD-MMM-YYYY}
SRVC .        Schlumberger                             :SERVICE COMPANY
LATI .DEG                                              :LATITUDE
LONG .DEG                                              :LONGITUDE
GDAT .                                                 :GeoDetic Datum
SECT .        31                                       :Section
RANG .        1E                                       :Range
TOWN .        7N                                       :Township
#-----------------------------------------------------------------------------
~PARAMETER INFORMATION
#MNEM.UNIT    VALUE                      DESCRIPTION
#---- -----   --------------------       ------------------------
RUN  .          1                        :RUN NUMBER
PDAT .        GROUND LEVEL               :Permanent Datum
EPD  .F         315.700012               :Elevation of Permanent Datum above Mean Sea Level
LMF  .          KELLY BUSHING            :Logging Measured From (Name of Logging Elevation Reference)
APD  .F          18.000000               :Elevation of Depth Reference (LMF) above Permanent Datum
#-----------------------------------------------------------------------------
~CURVE INFORMATION
#MNEM.UNIT   API CODE                                  DESCRIPTION
#---- -----  --------                                  -----------------------
DEPT .F                                                :DEPTH (BOREHOLE) {F10.1}
CCLD .V                                                :CCL Discriminated Amplitude {F13.4}
CIRF_FIL.                                              :Capture to Inelastic Ratio Far Filtered {F13.4}
CIRN_FIL.                                              :Capture to Inelastic Ratio Near Filtered {F13.4}
FBAC .HZ                                               :Far Background Count Rate {F13.4}
GR   .GAPI                                             :Gamma Ray {F13.4}
SIBF .CU                                               :Sigma Borehole Fluid {F13.4}
SIGM .CU                                               :Formation Sigma (Neutron Capture Cross Section) {F13.4}
TPHI .CFCF                                             :Thermal Decay Porosity {F13.4}
#-----------------------------------------------------------------------------
# 
#     DEPT        CCLD       CIRF_FIL     CIRN_FIL       FBAC         GR           SIBF         SIGM         TPHI
#
~A  
# ...
    9441.5       0.0000       1.4730       0.4853    2333.1357      44.9246     141.7921      19.0394       0.1840
    9441.0       0.0000       1.2827       0.4483    2326.5850      46.6688     141.2274      21.8262       0.2161
    9440.5       0.0000       1.0928       0.4047    2339.2854      47.8070     140.6818      24.5458       0.2534
    9440.0       0.0000       1.0120       0.3855    2337.9485      45.6753     140.3130      25.8503       0.2907
    9439.5       0.0000       1.0127       0.3784    2342.2266      45.7810     139.6984      25.9879       0.3104
    9439.0       0.0000       1.0781       0.3957    2360.9431      43.8180     138.4165      25.2737       0.3126
    9438.5       0.0002       1.1778       0.4237    2366.2649      45.7804     137.7758      24.1775       0.3038
    9438.0       0.0101       1.2397       0.4530    2376.5591      46.9890     137.1145      23.3864       0.2883
    9437.5      -0.0629       1.2548       0.4622    2380.5637      50.9159     136.7237      23.3635       0.2824
    9437.0       0.0000       1.2075       0.4581    2380.7229      52.7278     137.5940      24.5288       0.2759
    9436.5       0.0000       1.1317       0.4376    2381.3914      53.7944     136.9780      26.4154       0.2871
    9436.0       0.0000       1.0496       0.4233    2385.1348      53.1111     135.2334      28.1608       0.2984
    9435.5       0.0000       1.0249       0.4196    2395.8298      50.8536     136.3824      27.1586       0.3060
    9435.0       0.0000       1.1077       0.4357    2391.8191      46.3796     136.1972      24.8090       0.2851
    9434.5       0.0000       1.2633       0.4633    2380.4556      42.5027     134.9449      21.5142       0.2540
    9434.0       0.0000       1.3780       0.4841    2374.9741      43.5663     135.1780      20.5693       0.2257
    9433.5       0.0000       1.3685       0.4805    2375.5090      43.8088     135.7385      21.0634       0.2111
    9433.0       0.0000       1.2541       0.4538    2358.9573      48.0459     131.8855      23.7184       0.2193
    9432.5       0.0000       1.0980       0.4216    2335.9626      50.8242     131.9292      25.8407       0.2428
    9432.0       0.0000       1.0287       0.4121    2334.7593      53.3244     133.3035      27.0312       0.2768
    9431.5       0.0000       1.0089       0.4200    2336.7646      54.1873     132.5288      27.0002       0.2919
    9431.0       0.0000       1.0251       0.4212    2315.9092      56.3292     133.3473      27.5643       0.2940
    9430.5       0.0000       0.9970       0.4151    2334.0908      57.5372     131.8763      29.4559       0.2934
    9430.0       0.0000       0.9494       0.4015    2338.7700      60.7500     135.8146      31.4494       0.3080
    9429.5       0.0000       0.9043       0.3994    2351.8716      60.0608     136.3227      32.8003       0.3299
    9429.0       0.0000       0.8891       0.4008    2368.5830      58.1293     135.8217      32.8040       0.3431
    9428.5       0.0000       0.9145       0.4103    2393.8503      55.8362     136.2801      32.1174       0.3424
    9428.0       0.0000       0.9769       0.4271    2379.9465      54.9325     136.3241      30.7707       0.3347
    9427.5       0.0000       1.0342       0.4574    2391.0488      53.8683     136.4428      30.2957       0.3297
    9427.0       0.0000       1.0539       0.4760    2411.1023      55.0040     136.5114      31.4956       0.3319
    9426.5       0.0000       1.0354       0.4819    2404.6853      57.6196     134.8102      33.4656       0.3372
    9426.0       0.0000       1.0040       0.4727    2382.6265      56.9724     135.6084      34.5884       0.3380
    9425.5       0.0000       0.9988       0.4705    2416.1826      55.7189     115.1959      33.0341       0.3316
    9425.0       0.0000       1.0084       0.4614    2403.8831      54.1950     122.1910      30.5025       0.3159
    9424.5       0.0000       1.0070       0.4306    2369.6318      52.6231     126.8141      28.1094       0.2974
    9424.0       0.0000       0.9753       0.3858    2359.4714      49.5662     136.9076      27.1878       0.2723
    9423.5       0.0000       0.9765       0.3620    2350.7817      48.3161     139.6552      26.0612       0.2489
    9423.0       0.0000       1.0723       0.3846    2319.4983      44.9510     138.5823      23.8829       0.2292
    9422.5       0.0000       1.2363       0.4264    2320.5679      42.6306     139.6335      20.9820       0.2129
    9422.0       0.0000       1.3595       0.4476    2315.3215      41.5952     140.3577      19.0408       0.1945
    9421.5       0.0000       1.4240       0.4452    2331.5046      39.7210     141.2657      18.3923       0.1772
    9421.0       0.0000       1.4433       0.4405    2360.5154      38.4242     141.8801      17.9589       0.1636
    9420.5       0.0000       1.4726       0.4470    2385.9165      37.5124     142.1297      17.4200       0.1564
    9420.0       0.0000       1.5243       0.4588    2369.4724      33.4990     143.6201      16.3992       0.1464
    9419.5       0.0000       1.6107       0.4809    2359.7131      33.0675     144.2974      15.6773       0.1367
    9419.0       0.0000       1.6924       0.5063    2378.0613      33.3353     145.5654      15.0662       0.1299
    9418.5       0.0000       1.7123       0.5191    2385.6555      34.0070     145.8406      15.3799       0.1328
    9418.0       0.0000       1.6543       0.5142    2389.6660      35.3491     146.8740      15.9668       0.1412
    9417.5       0.0000       1.5602       0.4945    2410.6619      37.7661     147.7738      17.0178       0.1524
    9417.0       0.0000       1.4870       0.4811    2410.9294      37.8542     147.7648      17.4006       0.1600
    9416.5       0.0000       1.4916       0.4784    2416.3030      36.8725     147.3518      17.2718       0.1641
    9416.0       0.0000       1.5564       0.4931    2404.7993      37.8410     146.5698      16.4845       0.1606
    9415.5       0.0000       1.6023       0.4943    2380.6013      36.3238     146.3777      16.1962       0.1550
    9415.0       0.0000       1.5904       0.4856    2394.6389      34.4255     145.8150      16.4630       0.1498
    9414.5       0.0000       1.5586       0.4770    2380.3340      34.6040     145.0758      16.7679       0.1494
    9414.0       0.0000       1.5387       0.4699    2382.0720      36.1212     143.8578      16.9994       0.1527
    9413.5       0.0000       1.5137       0.4679    2395.9697      37.6751     145.2053      17.3249       0.1599
    9413.0       0.0000       1.3757       0.4344    2388.2476      42.0481     145.8318      19.3064       0.1676
    9412.5       0.0000       1.2129       0.3995    2394.2637      46.2567     147.0860      21.7073       0.1922
    9412.0       0.0000       1.0579       0.3736    2375.9417      49.0964     147.7440      23.7383       0.2175
    9411.5       0.0000       1.0136       0.3657    2377.6858      48.0255     148.5414      24.5770       0.2425
    9411.0       0.0000       1.0380       0.3763    2358.9429      42.7350     148.9642      23.3305       0.2449
    9410.5       0.0000       1.1523       0.4011    2345.4402      38.1516     149.6327      21.0374       0.2391
    9410.0       0.0000       1.3424       0.4250    2344.9053      34.8529     149.8935      18.0989       0.2218
    9409.5       0.0000       1.4973       0.4503    2305.4668      32.7317     150.0235      17.1672       0.2008
    9409.0       0.0000       1.5199       0.4373    2308.5417      33.1873     150.4770      18.1110       0.1836
    9408.5      -0.0269       1.4385       0.4327    2309.3181      34.2588     150.6769      19.7418       0.1782
    9408.0       0.0000       1.4004       0.4391    2302.6335      34.7369     150.5817      20.0861       0.1852
    9407.5       0.0000       1.4445       0.4766    2331.1038      35.6390     150.7643      19.3653       0.1856
    9407.0       0.0000       1.5210       0.5100    2310.3818      32.5108     150.6710      18.4940       0.1864
