~VERSION INFORMATION
VERS.           2.0   :CWLS Log ASCII Standard - VERSION 2.0
WRAP.           NO    :One Line per depth step
PROD.  Schlumberger   :LAS Producer
PROG.  DLIS to ASCII 17C0-154                          :LAS Program name and version
CREA.        2010/09/30 15:14                          :LAS Creation date {YYYY/MM/DD hh:mm}
DLIS_CREA.  2010-Sep-07 20:46                          :DLIS Creation date and time {YYYY-MMM-DD hh:mm}
SOURCE.     CFU_31F_#1_DENBURY_ONSHORE_7-SEP-2010_10660-10934_PRES_TEMP_DL_PSP_069PUP.DLIS  :DLIS File Name
FILE-ID.     FCS_GMS_RST_PSP_069PUP                    :File Identification Number
#--------------------------------------------------
~WELL INFORMATION
#MNEM.UNIT      DATA             DESCRIPTION
#---- ------ --------------   -----------------------------
STRT .F        10666.5       :START DEPTH     
STOP .F          -41.5       :STOP DEPTH     
STEP .F           -0.5       :STEP     
NULL .          -999.25      :NULL VALUE
COMP .        DENBURY ONSHORE, LLC                     :COMPANY
WELL .        CFU 31F #1                               :WELL
FLD  .        CRANFIELD                                :FIELD
LOC  .                                                 :LOCATION
CNTY .        FRANKLIN                                 :COUNTY
STAT .        MISSISSIPPI                              :STATE
CTRY .                                                 :COUNTRY
API  .        23-037-21488-0000                        :API NUMBER
UWI  .        23-037-21488-0000                        :UNIQUE WELL ID
DATE .        07-Sep-2010                              :LOG DATE {DD-MMM-YYYY}
SRVC .        Schlumberger                             :SERVICE COMPANY
LATI .DEG                                              :LATITUDE
LONG .DEG                                              :LONGITUDE
GDAT .                                                 :GeoDetic Datum
SECT .        31                                       :Section
RANG .        1E                                       :Range
TOWN .        7N                                       :Township
#-----------------------------------------------------------------------------
~PARAMETER INFORMATION
#MNEM.UNIT    VALUE                      DESCRIPTION
#---- -----   --------------------       ------------------------
RUN  .          1                        :RUN NUMBER
PDAT .        GROUND LEVEL               :Permanent Datum
EPD  .F         315.700012               :Elevation of Permanent Datum above Mean Sea Level
LMF  .          KELLY BUSHING            :Logging Measured From (Name of Logging Elevation Reference)
APD  .F          18.000000               :Elevation of Depth Reference (LMF) above Permanent Datum
#-----------------------------------------------------------------------------
~CURVE INFORMATION
#MNEM.UNIT   API CODE                                  DESCRIPTION
#---- -----  --------                                  -----------------------
DEPT .F                                                :DEPTH (BOREHOLE) {F10.1}
GR   .GAPI                                             :Gamma Ray {F13.4}
WFDE .G/C3                                             :Well Fluid Density Corrected {F13.4}
WPRE .PSI                                              :Well Pressure {F13.4}
WTEP .DEGF                                             :Well Temperature {F13.4}
#-----------------------------------------------------------------------------
# 
#     DEPT        GR           WFDE         WPRE         WTEP
#
~A  
# ...
    9269.5      34.9619       0.7224    5257.2803     174.3543
    9269.0      28.4856       0.7219    5257.1196     174.3499
    9268.5      31.0664       0.7209    5256.9819     174.3463
    9268.0      33.6569       0.7201    5256.8491     174.3419
    9267.5      27.1806       0.7183    5256.7158     174.3344
    9267.0      27.1709       0.7173    5256.5410     174.3282
    9266.5      24.5804       0.7160    5256.3604     174.3248
    9266.0      29.7809       0.7148    5256.1968     174.3196
    9265.5      27.1904       0.7141    5256.0229     174.3128
    9265.0      28.4662       0.7151    5255.8721     174.3060
    9264.5      34.9521       0.7161    5255.7178     174.2986
    9264.0      44.0188       0.7175    5255.5400     174.2921
    9263.5      44.0188       0.7191    5255.3735     174.2868
    9263.0      41.4283       0.7200    5255.2021     174.2818
    9262.5      46.5898       0.7203    5255.0762     174.2746
    9262.0      43.9994       0.7215    5254.9551     174.2672
    9261.5      37.5231       0.7223    5254.7896     174.2576
    9261.0      32.3227       0.7218    5254.6841     174.2489
    9260.5      37.5037       0.7198    5254.5425     174.2418
    9260.0      32.3616       0.7178    5254.3838     174.2361
    9259.5      33.6277       0.7149    5254.2686     174.2305
    9259.0      38.8086       0.7121    5254.1460     174.2211
    9258.5      42.7138       0.7125    5253.9790     174.2135
    9258.0      37.5329       0.7145    5253.8057     174.2059
    9257.5      45.3043       0.7172    5253.6235     174.2006
    9257.0      45.3043       0.7198    5253.4541     174.1936
    9256.5      49.1901       0.7215    5253.2783     174.1862
    9256.0      44.0091       0.7213    5253.1318     174.1768
    9255.5      47.8607       0.7218    5253.0195     174.1695
    9255.0      46.5655       0.7214    5252.8569     174.1618
    9254.5      49.1852       0.7210    5252.6641     174.1562
    9254.0      53.0028       0.7214    5252.5020     174.1511
    9253.5      56.8885       0.7212    5252.3828     174.1428
    9253.0      51.7416       0.7201    5252.2495     174.1351
    9252.5      45.2654       0.7190    5252.0605     174.1268
    9252.0      38.7892       0.7180    5251.8237     174.1199
    9251.5      33.6277       0.7174    5251.6343     174.1134
    9251.0      33.6277       0.7154    5251.4487     174.1017
    9250.5      37.5428       0.7135    5251.3354     174.0931
    9250.0      43.9752       0.7131    5251.2197     174.0839
    9249.5      47.8610       0.7128    5251.0474     174.0749
    9249.0      37.5477       0.7126    5250.8960     174.0688
    9248.5      38.8429       0.7145    5250.7310     174.0620
    9248.0      38.7843       0.7165    5250.6216     174.0526
    9247.5      38.8281       0.7173    5250.5137     174.0432
    9247.0      45.3043       0.7182    5250.3506     174.0354
    9246.5      47.8754       0.7185    5250.1870     174.0256
    9246.0      50.4658       0.7182    5249.9858     174.0177
    9245.5      49.1998       0.7188    5249.8584     174.0103
    9245.0      40.1234       0.7189    5249.6812     174.0005
    9244.5      34.9424       0.7195    5249.5278     173.9908
    9244.0      36.2571       0.7207    5249.4048     173.9813
    9243.5      31.0761       0.7209    5249.2285     173.9739
    9243.0      31.0761       0.7201    5249.0469     173.9668
    9242.5      33.6569       0.7206    5248.8906     173.9568
    9242.0      29.7711       0.7218    5248.7466     173.9474
    9241.5      41.4283       0.7219    5248.6260     173.9383
    9241.0      44.0188       0.7224    5248.4956     173.9290
    9240.5      49.1560       0.7232    5248.3140     173.9188
    9240.0      50.4707       0.7236    5248.1387     173.9117
    9239.5      53.0612       0.7226    5247.9775     173.9051
    9239.0      47.8315       0.7222    5247.8589     173.8966
    9238.5      50.4220       0.7230    5247.7290     173.8866
    9238.0      46.5801       0.7216    5247.5562     173.8769
    9237.5      50.4658       0.7194    5247.3818     173.8706
    9237.0      49.1706       0.7172    5247.1973     173.8635
    9236.5      40.1380       0.7152    5247.0308     173.8556
    9236.0      38.8820       0.7129    5246.9106     173.8471
    9235.5      34.9816       0.7127    5246.7603     173.8378
    9235.0      31.0959       0.7124    5246.5640     173.8296
    9234.5      32.3911       0.7113    5246.3872     173.8228
    9234.0      34.9962       0.7101    5246.2061     173.8169
    9233.5      32.3373       0.7109    5246.0176     173.8077
    9233.0      38.8281       0.7117    5245.8994     173.7984
    9232.5      37.5329       0.7139    5245.7710     173.7897
    9232.0      36.2376       0.7165    5245.6021     173.7837
    9231.5      33.6471       0.7199    5245.4297     173.7768
    9231.0      33.6471       0.7219    5245.2749     173.7687
    9230.5      25.8855       0.7208    5245.1704     173.7610
    9230.0      28.4467       0.7153    5245.0752     173.7534
    9229.5      27.1320       0.7123    5244.9185     173.7472
    9229.0      31.0178       0.7109    5244.7778     173.7399
    9228.5      31.0470       0.7086    5244.6221     173.7344
    9228.0      40.1039       0.7110    5244.4565     173.7294
    9227.5      40.1331       0.7164    5244.3325     173.7232
    9227.0      37.5523       0.7212    5244.2090     173.7168
    9226.5      40.1428       0.7240    5244.0635     173.7107
    9226.0      45.3238       0.7263    5243.8804     173.7055
    9225.5      40.1185       0.7271    5243.7290     173.7018
    9225.0      37.5280       0.7276    5243.5601     173.6966
    9224.5      42.7482       0.7259    5243.4424     173.6921
    9224.0      49.1611       0.7239    5243.3140     173.6873
    9223.5      42.6849       0.7223    5243.1299     173.6827
    9223.0      49.1854       0.7206    5242.9390     173.6803
    9222.5      50.4807       0.7195    5242.7627     173.6773
    9222.0      47.8607       0.7190    5242.5625     173.6725
    9221.5      38.8281       0.7188    5242.4067     173.6684
    9221.0      44.0091       0.7191    5242.2607     173.6642
    9220.5      42.7138       0.7181    5242.0571     173.6602
    9220.0      47.8510       0.7173    5241.8828     173.6580
    9219.5      47.8510       0.7162    5241.7056     173.6563
    9219.0      45.2897       0.7144    5241.5674     173.6512
    9218.5      36.2133       0.7125    5241.4355     173.6460
    9218.0      29.7370       0.7118    5241.2817     173.6416
    9217.5      19.4189       0.7121    5241.1318     173.6357
    9217.0      20.7142       0.7139    5241.0166     173.6314
    9216.5      22.0094       0.7159    5240.8950     173.6273
    9216.0      24.5902       0.7183    5240.7178     173.6225
    9215.5      27.1806       0.7209    5240.5972     173.6146
    9215.0      34.9521       0.7213    5240.5054     173.6078
    9214.5      33.6374       0.7205    5240.3921     173.6006
    9214.0      36.2279       0.7207    5240.2388     173.5966
    9213.5      34.9521       0.7202    5240.0674     173.5898
    9213.0      34.9229       0.7205    5239.9292     173.5809
    9212.5      29.7419       0.7231    5239.7739     173.5742
    9212.0      29.7614       0.7252    5239.6055     173.5658
    9211.5      29.7614       0.7261    5239.4473     173.5594
    9211.0      33.6471       0.7271    5239.2705     173.5548
    9210.5      32.3568       0.7263    5239.0767     173.5477
    9210.0      41.4725       0.7245    5238.9229     173.5396
    9209.5      44.0630       0.7218    5238.7988     173.5312
    9209.0      47.9001       0.7198    5238.6353     173.5242
    9208.5      50.4906       0.7178    5238.4722     173.5170
    9208.0      49.2197       0.7168    5238.2983     173.5079
    9207.5      43.9896       0.7159    5238.1401     173.4996
    9207.0      38.7989       0.7164    5238.0029     173.4948
    9206.5      31.0761       0.7163    5237.8306     173.4864
