~VERSION INFORMATION
VERS.           2.0   :CWLS Log ASCII Standard - VERSION 2.0
WRAP.           NO    :One Line per depth step
PROD.  Schlumberger   :LAS Producer
PROG.  DLIS to ASCII 17C0-154                          :LAS Program name and version
CREA.        2010/09/30 15:14                          :LAS Creation date {YYYY/MM/DD hh:mm}
DLIS_CREA.  2010-Sep-07 20:46                          :DLIS Creation date and time {YYYY-MMM-DD hh:mm}
SOURCE.     CFU_31F_#1_DENBURY_ONSHORE_7-SEP-2010_10660-10934_PRES_TEMP_DL_PSP_069PUP.DLIS  :DLIS File Name
FILE-ID.     FCS_GMS_RST_PSP_069PUP                    :File Identification Number
#--------------------------------------------------
~WELL INFORMATION
#MNEM.UNIT      DATA             DESCRIPTION
#---- ------ --------------   -----------------------------
STRT .F        10666.5       :START DEPTH     
STOP .F          -41.5       :STOP DEPTH     
STEP .F           -0.5       :STEP     
NULL .          -999.25      :NULL VALUE
COMP .        DENBURY ONSHORE, LLC                     :COMPANY
WELL .        CFU 31F #1                               :WELL
FLD  .        CRANFIELD                                :FIELD
LOC  .                                                 :LOCATION
CNTY .        FRANKLIN                                 :COUNTY
STAT .        MISSISSIPPI                              :STATE
CTRY .                                                 :COUNTRY
API  .        23-037-21488-0000                        :API NUMBER
UWI  .        23-037-21488-0000                        :UNIQUE WELL ID
DATE .        07-Sep-2010                              :LOG DATE {DD-MMM-YYYY}
SRVC .        Schlumberger                             :SERVICE COMPANY
LATI .DEG                                              :LATITUDE
LONG .DEG                                              :LONGITUDE
GDAT .                                                 :GeoDetic Datum
SECT .        31                                       :Section
RANG .        1E                                       :Range
TOWN .        7N                                       :Township
#-----------------------------------------------------------------------------
~PARAMETER INFORMATION
#MNEM.UNIT    VALUE                      DESCRIPTION
#---- -----   --------------------       ------------------------
RUN  .          1                        :RUN NUMBER
PDAT .        GROUND LEVEL               :Permanent Datum
EPD  .F         315.700012               :Elevation of Permanent Datum above Mean Sea Level
LMF  .          KELLY BUSHING            :Logging Measured From (Name of Logging Elevation Reference)
APD  .F          18.000000               :Elevation of Depth Reference (LMF) above Permanent Datum
#-----------------------------------------------------------------------------
~CURVE INFORMATION
#MNEM.UNIT   API CODE                                  DESCRIPTION
#---- -----  --------                                  -----------------------
DEPT .F                                                :DEPTH (BOREHOLE) {F10.1}
GR   .GAPI                                             :Gamma Ray {F13.4}
WFDE .G/C3                                             :Well Fluid Density Corrected {F13.4}
WPRE .PSI                                              :Well Pressure {F13.4}
WTEP .DEGF                                             :Well Temperature {F13.4}
#-----------------------------------------------------------------------------
# 
#     DEPT        GR           WFDE         WPRE         WTEP
#
~A  
# ...
    4951.5      55.6663       0.7602    3887.8174     126.2415
    4951.0      54.3710       0.7598    3887.6426     126.2388
    4950.5      47.8948       0.7592    3887.4905     126.2366
    4950.0      38.7989       0.7574    3887.3652     126.2327
    4949.5      38.8575       0.7559    3887.2261     126.2289
    4949.0      32.3813       0.7549    3887.0811     126.2250
    4948.5      37.5623       0.7538    3886.8718     126.2209
    4948.0      38.8283       0.7528    3886.7283     126.2182
    4947.5      46.6879       0.7540    3886.5918     126.2142
    4947.0      47.9196       0.7542    3886.4084     126.2097
    4946.5      50.5101       0.7534    3886.1877     126.2060
    4946.0      50.5101       0.7524    3886.0093     126.2020
    4945.5      47.9488       0.7483    3885.8887     126.1982
    4945.0      34.9277       0.7441    3885.7158     126.1934
    4944.5      34.9618       0.7445    3885.5156     126.1911
    4944.0      31.0761       0.7454    3885.3511     126.1886
    4943.5      33.6666       0.7476    3885.2104     126.1836
    4943.0      41.3894       0.7526    3885.1108     126.1797
    4942.5      53.0563       0.7566    3884.9995     126.1758
    4942.0      56.9420       0.7553    3884.8237     126.1719
    4941.5      63.3744       0.7540    3884.6494     126.1705
    4941.0      56.9178       0.7550    3884.5205     126.1655
    4940.5      53.0808       0.7561    3884.4055     126.1613
    4940.0      50.4465       0.7568    3884.2227     126.1581
    4939.5      49.1512       0.7592    3884.0376     126.1541
    4939.0      47.8998       0.7595    3883.8389     126.1487
    4938.5      45.2800       0.7563    3883.6711     126.1438
    4938.0      47.8704       0.7531    3883.5518     126.1391
    4937.5      49.2095       0.7514    3883.3792     126.1341
    4937.0      44.0285       0.7485    3883.1951     126.1301
    4936.5      50.5048       0.7470    3883.0901     126.1265
    4936.0      53.0855       0.7456    3882.9448     126.1204
    4935.5      49.1998       0.7448    3882.7515     126.1158
    4935.0      44.0188       0.7435    3882.5684     126.1123
    4934.5      46.5752       0.7457    3882.4092     126.1097
    4934.0      43.9847       0.7486    3882.2991     126.1050
    4933.5      49.2244       0.7511    3882.1501     126.0987
    4933.0      56.9375       0.7531    3881.9722     126.0948
    4932.5      67.2994       0.7564    3881.7747     126.0917
    4932.0      69.9240       0.7575    3881.5920     126.0874
    4931.5      63.4186       0.7585    3881.4539     126.0826
    4931.0      64.6745       0.7601    3881.3391     126.0788
    4930.5      59.5520       0.7621    3881.1638     126.0752
    4930.0      51.7805       0.7599    3880.9666     126.0723
    4929.5      47.8656       0.7573    3880.7830     126.0691
    4929.0      48.7474       0.7552    3880.6406     126.0644
    4928.5      65.6936       0.7530    3880.4866     126.0590
    4928.0      65.6936       0.7495    3880.2754     126.0558
    4927.5      68.2354       0.7484    3880.1646     126.0525
    4927.0      70.8943       0.7471    3880.0320     126.0477
    4926.5      68.7464       0.7456    3879.8618     126.0432
    4926.0      47.8853       0.7438    3879.7029     126.0381
    4925.5      41.4091       0.7446    3879.5151     126.0334
    4925.0      28.5054       0.7461    3879.3401     126.0302
    4924.5      24.1410       0.7474    3879.2080     126.0260
    4924.0      27.9878       0.7484    3879.0942     126.0215
    4923.5      28.0170       0.7499    3878.9368     126.0173
    4923.0      31.9028       0.7505    3878.7573     126.0142
    4922.5      38.3790       0.7514    3878.6086     126.0093
    4922.0      40.0844       0.7525    3878.4534     126.0050
    4921.5      33.6471       0.7536    3878.2449     126.0000
    4921.0      31.0566       0.7550    3878.0635     125.9963
    4920.5      32.3518       0.7557    3877.9067     125.9901
    4920.0      31.0371       0.7563    3877.7908     125.9846
    4919.5      31.0663       0.7571    3877.5955     125.9789
    4919.0      31.0517       0.7585    3877.4167     125.9765
    4918.5      32.3470       0.7593    3877.2524     125.9723
    4918.0      25.8708       0.7600    3877.1287     125.9675
    4917.5      33.6130       0.7621    3876.9858     125.9626
    4917.0      33.6130       0.7643    3876.8032     125.9576
    4916.5      34.9229       0.7591    3876.6213     125.9551
    4916.0      29.7419       0.7541    3876.4307     125.9483
    4915.5      29.7419       0.7493    3876.2896     125.9436
    4915.0      16.8381       0.7430    3876.1484     125.9389
    4914.5      15.5429       0.7374    3875.9641     125.9344
    4914.0      18.1334       0.7396    3875.7910     125.9291
    4913.5      21.9996       0.7414    3875.6326     125.9225
    4913.0      25.4460       0.7413    3875.5083     125.9182
    4912.5      33.2469       0.7410    3875.3784     125.9144
    4912.0      34.5422       0.7445    3875.2122     125.9102
    4911.5      37.0937       0.7467    3875.0420     125.9064
    4911.0      37.1132       0.7499    3874.9158     125.9016
    4910.5      44.0778       0.7549    3874.7881     125.8969
    4910.0      42.7531       0.7595    3874.6235     125.8935
    4909.5      38.8528       0.7587    3874.4294     125.8896
    4909.0      35.0060       0.7582    3874.2300     125.8869
    4908.5      42.7288       0.7594    3874.0928     125.8814
    4908.0      37.4987       0.7606    3873.9546     125.8772
    4907.5      41.3845       0.7600    3873.7847     125.8748
    4907.0      53.0563       0.7605    3873.6267     125.8707
    4906.5      62.1230       0.7582    3873.4990     125.8682
    4906.0      69.8653       0.7534    3873.3491     125.8636
    4905.5      69.8653       0.7490    3873.1582     125.8602
    4905.0      72.4558       0.7475    3872.9890     125.8561
    4904.5      71.1069       0.7455    3872.8555     125.8524
    4904.0      68.5655       0.7458    3872.7410     125.8514
    4903.5      60.8720       0.7462    3872.5730     125.8462
    4903.0      62.1331       0.7460    3872.3889     125.8432
    4902.5      67.3141       0.7450    3872.1860     125.8404
    4902.0      60.8914       0.7466    3872.0396     125.8352
    4901.5      60.7937       0.7483    3871.8984     125.8294
    4901.0      55.6127       0.7502    3871.6973     125.8242
    4900.5      56.9420       0.7526    3871.5024     125.8218
    4900.0      45.2848       0.7561    3871.2971     125.8183
    4899.5      50.4658       0.7578    3871.1423     125.8126
    4899.0      45.3043       0.7596    3871.0439     125.8084
    4898.5      49.1900       0.7612    3870.8774     125.8036
    4898.0      53.0758       0.7624    3870.7207     125.7994
    4897.5      58.2568       0.7610    3870.5574     125.7962
    4897.0      55.6663       0.7590    3870.4478     125.7920
    4896.5      68.5700       0.7570    3870.3462     125.7876
    4896.0      72.4558       0.7550    3870.1531     125.7840
    4895.5      76.3415       0.7527    3869.9736     125.7798
    4895.0      69.8653       0.7522    3869.8040     125.7762
    4894.5      67.2456       0.7516    3869.6387     125.7716
    4894.0      67.3235       0.7499    3869.4543     125.7672
    4893.5      62.1425       0.7485    3869.2585     125.7629
    4893.0      54.3321       0.7483    3869.0823     125.7593
    4892.5      59.5130       0.7483    3868.9063     125.7550
    4892.0      64.7723       0.7484    3868.7905     125.7502
    4891.5      51.7906       0.7495    3868.6797     125.7451
    4891.0      55.6764       0.7508    3868.5095     125.7421
    4890.5      57.0106       0.7514    3868.3672     125.7389
    4890.0      54.3909       0.7520    3868.2363     125.7366
    4889.5      54.3418       0.7520    3868.0552     125.7315
    4889.0      58.2129       0.7521    3867.8801     125.7269
    4888.5      50.4415       0.7555    3867.6794     125.7240
