~VERSION INFORMATION
VERS.           2.0   :CWLS Log ASCII Standard - VERSION 2.0
WRAP.           NO    :One Line per depth step
PROD.  Schlumberger   :LAS Producer
PROG.  DLIS to ASCII 17C0-154                          :LAS Program name and version
CREA.        2010/09/16 16:20                          :LAS Creation date {YYYY/MM/DD hh:mm}
DLIS_CREA.  2010-Sep-07 20:55                          :DLIS Creation date and time {YYYY-MMM-DD hh:mm}
SOURCE.     CFU_31F_#1_DENBURY_ONSHORE_7-SEP-2010_10660-10934_MAIN_PASS_RST_PSP_071PUP.DLIS  :DLIS File Name
FILE-ID.     FCS_GMS_RST_PSP_071PUP                    :File Identification Number
#--------------------------------------------------
~WELL INFORMATION
#MNEM.UNIT      DATA             DESCRIPTION
#---- ------ --------------   -----------------------------
STRT .F        10666.5       :START DEPTH     
STOP .F         8508.5       :STOP DEPTH     
STEP .F           -0.5       :STEP     
NULL .          -999.25      :NULL VALUE
COMP .        DENBURY ONSHORE, LLC                     :COMPANY
WELL .        CFU 31F #1                               :WELL
FLD  .        CRANFIELD                                :FIELD
LOC  .                                                 :LOCATION
CNTY .        FRANKLIN                                 :COUNTY
STAT .        MISSISSIPPI                              :STATE
CTRY .                                                 :COUNTRY
API  .        23-037-21488-0000                        :API NUMBER
UWI  .        23-037-21488-0000                        :UNIQUE WELL ID
DATE .        07-Sep-2010                              :LOG DATE {DD-MMM-YYYY}
SRVC .        Schlumberger                             :SERVICE COMPANY
LATI .DEG                                              :LATITUDE
LONG .DEG                                              :LONGITUDE
GDAT .                                                 :GeoDetic Datum
SECT .        31                                       :Section
RANG .        1E                                       :Range
TOWN .        7N                                       :Township
#-----------------------------------------------------------------------------
~PARAMETER INFORMATION
#MNEM.UNIT    VALUE                      DESCRIPTION
#---- -----   --------------------       ------------------------
RUN  .          1                        :RUN NUMBER
PDAT .        GROUND LEVEL               :Permanent Datum
EPD  .F         315.700012               :Elevation of Permanent Datum above Mean Sea Level
LMF  .          KELLY BUSHING            :Logging Measured From (Name of Logging Elevation Reference)
APD  .F          18.000000               :Elevation of Depth Reference (LMF) above Permanent Datum
#-----------------------------------------------------------------------------
~CURVE INFORMATION
#MNEM.UNIT   API CODE                                  DESCRIPTION
#---- -----  --------                                  -----------------------
DEPT .F                                                :DEPTH (BOREHOLE) {F10.1}
CCLD .V                                                :CCL Discriminated Amplitude {F13.4}
CIRF_FIL.                                              :Capture to Inelastic Ratio Far Filtered {F13.4}
CIRN_FIL.                                              :Capture to Inelastic Ratio Near Filtered {F13.4}
FBAC .HZ                                               :Far Background Count Rate {F13.4}
GR   .GAPI                                             :Gamma Ray {F13.4}
SIBF .CU                                               :Sigma Borehole Fluid {F13.4}
SIGM .CU                                               :Formation Sigma (Neutron Capture Cross Section) {F13.4}
TPHI .CFCF                                             :Thermal Decay Porosity {F13.4}
#-----------------------------------------------------------------------------
# 
#     DEPT        CCLD       CIRF_FIL     CIRN_FIL       FBAC         GR           SIBF         SIGM         TPHI
#
~A  
# ...
    9581.5       0.0000       0.8023       0.3481    2431.8745      55.3394     135.9641      34.8847       0.3484
    9581.0       0.0000       0.7929       0.3515    2426.1775      57.3078     136.1184      35.1964       0.3621
    9580.5       0.0000       0.7982       0.3586    2418.1560      56.8557     135.9347      34.4218       0.3645
    9580.0       0.0000       0.8075       0.3600    2408.7976      56.6021     135.2828      34.5986       0.3586
    9579.5       0.0000       0.8211       0.3623    2403.5837      55.1936     134.6645      33.5258       0.3483
    9579.0       0.0000       0.8541       0.3649    2397.3005      54.9624     134.1006      33.1510       0.3351
    9578.5       0.0000       0.8830       0.3700    2395.2952      53.7183     133.2837      32.3532       0.3215
    9578.0       0.0000       0.8983       0.3723    2398.3757      53.1882     132.7590      32.5768       0.3044
    9577.5       0.0000       0.9107       0.3706    2373.8027      53.1627     132.4343      32.1816       0.2972
    9577.0       0.0000       0.9026       0.3669    2351.7439      54.9402     132.4966      31.7515       0.2917
    9576.5       0.0000       0.9085       0.3676    2348.5352      53.4696     132.6558      30.3108       0.2892
    9576.0       0.0000       0.9302       0.3729    2335.8347      53.9997     131.9611      29.3297       0.2780
    9575.5       0.0000       0.9709       0.3814    2321.1289      52.5187     131.4263      28.2711       0.2642
    9575.0       0.0000       0.9911       0.3830    2321.6636      50.0089     130.9466      28.1768       0.2489
    9574.5       0.0000       1.0116       0.3808    2330.3535      49.2259     130.3649      27.4519       0.2434
    9574.0       0.0000       1.0357       0.3891    2310.3000      51.7248     130.6245      26.6777       0.2385
    9573.5       0.0000       1.0711       0.3900    2283.5620      51.7949     130.3183      26.3630       0.2396
    9573.0       0.0000       1.0576       0.3892    2288.9097      53.9158     130.0330      26.7179       0.2373
    9572.5       0.0000       1.0329       0.3788    2305.7234      57.0277     129.3016      27.4726       0.2437
    9572.0       0.0000       1.0023       0.3788    2309.0654      57.0277     129.2912      28.6398       0.2469
    9571.5       0.0000       0.9885       0.3766    2312.4077      56.4860     129.4433      29.4898       0.2537
    9571.0       0.0000       0.9616       0.3753    2343.4238      53.4748     129.5551      29.9366       0.2540
    9570.5       0.0000       0.9477       0.3749    2388.0515      52.2273     129.5627      28.9740       0.2508
    9570.0       0.0000       0.9939       0.3917    2400.7520      48.8723     129.3701      27.0622       0.2426
    9569.5       0.0000       1.0925       0.4120    2423.2119      50.0124     129.9864      24.7582       0.2357
    9569.0       0.0000       1.1636       0.4244    2433.2388      50.6514     129.9928      24.3221       0.2351
    9568.5       0.0000       1.0995       0.4096    2455.2976      57.6761     130.2749      27.5963       0.2437
    9568.0       0.0000       0.9562       0.3858    2486.7212      59.0622     131.0731      31.6185       0.2868
    9567.5       0.0000       0.8155       0.3630    2478.6997      63.4059     131.2279      35.0819       0.3403
    9567.0       0.0000       0.7607       0.3558    2486.8801      63.0426     131.3761      36.2602       0.3829
    9566.5       0.0000       0.7617       0.3487    2498.6450      62.3269     131.5307      36.5005       0.3865
    9566.0       0.0000       0.7715       0.3502    2485.9443      59.3142     131.1868      35.9340       0.3693
    9565.5       0.0000       0.7975       0.3499    2430.7305      59.6014     131.3065      34.6224       0.3554
    9565.0       0.0000       0.8049       0.3527    2393.8567      59.0040     131.2025      33.8359       0.3314
    9564.5       0.0000       0.8494       0.3533    2394.3657      57.0406     130.6889      32.9406       0.3152
    9564.0       0.0000       0.8612       0.3549    2358.0022      56.9451     130.8168      32.8934       0.3001
    9563.5       0.0000       0.8628       0.3580    2340.6223      54.8083     130.8782      32.3767       0.3043
    9563.0       0.0000       0.8474       0.3598    2333.1104      51.5062     130.6857      32.2112       0.3028
    9562.5       0.0000       0.8729       0.3634    2316.1252      50.1613     130.6012      30.6114       0.2909
    9562.0       0.0000       0.9454       0.3745    2309.4407      49.7200     130.3194      28.9508       0.2679
    9561.5       0.0000       0.9972       0.3848    2308.6135      46.5918     129.9433      27.4178       0.2497
    9561.0       0.0000       0.9995       0.3810    2313.9612      45.5203     129.6492      27.8827       0.2532
    9560.5      -0.0982       0.9497       0.3634    2321.9827      47.3997     129.2160      30.0202       0.2749
    9560.0       0.0179       0.8966       0.3495    2324.2554      47.8402     129.0695      32.0808       0.3092
    9559.5       0.0125       0.8668       0.3444    2331.5566      49.4475     128.5845      33.8303       0.3355
    9559.0      -0.0421       0.8639       0.3538    2331.7161      54.0106     128.4500      33.9544       0.3509
    9558.5       0.0000       0.8772       0.3639    2363.2668      52.9311     127.9115      34.1115       0.3520
    9558.0       0.0000       0.8754       0.3739    2367.2776      55.5984     128.1434      33.4337       0.3478
    9557.5       0.0000       0.8748       0.3791    2391.5010      54.9839     128.1542      33.2436       0.3459
    9557.0       0.0000       0.8477       0.3788    2396.8484      52.5034     128.1079      33.0113       0.3496
    9556.5       0.0000       0.8296       0.3687    2419.4167      51.1955     127.4950      33.0303       0.3471
    9556.0       0.0000       0.8349       0.3512    2383.4792      53.3259     127.0277      32.4851       0.3395
    9555.5       0.0000       0.8703       0.3488    2382.4097      51.8692     126.9993      33.1906       0.3247
    9555.0       0.0000       0.8896       0.3635    2387.7573      53.2986     127.2262      33.7865       0.3255
    9554.5       0.0000       0.8718       0.3775    2398.9873      55.4299     127.3885      34.8989       0.3307
    9554.0       0.0000       0.8424       0.3782    2407.3276      55.4752     127.6087      34.6008       0.3457
    9553.5       0.0000       0.8287       0.3733    2389.2793      57.1923     127.4559      34.6096       0.3546
    9553.0       0.0000       0.8200       0.3747    2369.4934      57.4937     127.3843      34.6638       0.3588
    9552.5       0.0000       0.8197       0.3736    2384.1992      58.6478     127.2086      34.6166       0.3497
    9552.0       0.0000       0.8484       0.3759    2341.4185      56.9921     127.0716      33.5849       0.3347
    9551.5       0.0000       0.8982       0.3847    2368.6912      56.5981     126.8163      31.4865       0.3088
    9551.0       0.0000       0.9714       0.3965    2361.4973      57.8415     126.4846      29.8550       0.2856
    9550.5       0.0000       1.0163       0.4032    2370.1873      56.6018     126.7018      29.1572       0.2614
    9550.0       0.0000       1.0306       0.3967    2376.4705      54.0088     126.5955      29.7757       0.2589
    9549.5       0.0000       0.9858       0.3926    2378.7815      56.5065     126.6371      30.5457       0.2696
    9549.0       0.0000       0.9467       0.3958    2430.8823      55.7524     126.4226      30.6964       0.2860
    9548.5       0.0000       0.9591       0.4013    2465.6863      51.2858     125.5317      29.7400       0.2784
    9548.0       0.0000       1.0260       0.4056    2228.4314      52.9411     125.3220      28.1170       0.2589
    9547.5       0.0000       1.0687       0.4087    1994.1176      53.0369     125.1272      27.7509       0.2383
    9547.0       0.0000       1.0500       0.4040    2573.5293      53.4307     125.1505      28.5036       0.2481
