~VERSION INFORMATION
VERS.           2.0   :CWLS Log ASCII Standard - VERSION 2.0
WRAP.           NO    :One Line per depth step
PROD.  Schlumberger   :LAS Producer
PROG.  DLIS to ASCII 17C0-154                          :LAS Program name and version
CREA.        2010/09/16 16:20                          :LAS Creation date {YYYY/MM/DD hh:mm}
DLIS_CREA.  2010-Sep-07 20:55                          :DLIS Creation date and time {YYYY-MMM-DD hh:mm}
SOURCE.     CFU_31F_#1_DENBURY_ONSHORE_7-SEP-2010_10660-10934_MAIN_PASS_RST_PSP_071PUP.DLIS  :DLIS File Name
FILE-ID.     FCS_GMS_RST_PSP_071PUP                    :File Identification Number
#--------------------------------------------------
~WELL INFORMATION
#MNEM.UNIT      DATA             DESCRIPTION
#---- ------ --------------   -----------------------------
STRT .F        10666.5       :START DEPTH     
STOP .F         8508.5       :STOP DEPTH     
STEP .F           -0.5       :STEP     
NULL .          -999.25      :NULL VALUE
COMP .        DENBURY ONSHORE, LLC                     :COMPANY
WELL .        CFU 31F #1                               :WELL
FLD  .        CRANFIELD                                :FIELD
LOC  .                                                 :LOCATION
CNTY .        FRANKLIN                                 :COUNTY
STAT .        MISSISSIPPI                              :STATE
CTRY .                                                 :COUNTRY
API  .        23-037-21488-0000                        :API NUMBER
UWI  .        23-037-21488-0000                        :UNIQUE WELL ID
DATE .        07-Sep-2010                              :LOG DATE {DD-MMM-YYYY}
SRVC .        Schlumberger                             :SERVICE COMPANY
LATI .DEG                                              :LATITUDE
LONG .DEG                                              :LONGITUDE
GDAT .                                                 :GeoDetic Datum
SECT .        31                                       :Section
RANG .        1E                                       :Range
TOWN .        7N                                       :Township
#-----------------------------------------------------------------------------
~PARAMETER INFORMATION
#MNEM.UNIT    VALUE                      DESCRIPTION
#---- -----   --------------------       ------------------------
RUN  .          1                        :RUN NUMBER
PDAT .        GROUND LEVEL               :Permanent Datum
EPD  .F         315.700012               :Elevation of Permanent Datum above Mean Sea Level
LMF  .          KELLY BUSHING            :Logging Measured From (Name of Logging Elevation Reference)
APD  .F          18.000000               :Elevation of Depth Reference (LMF) above Permanent Datum
#-----------------------------------------------------------------------------
~CURVE INFORMATION
#MNEM.UNIT   API CODE                                  DESCRIPTION
#---- -----  --------                                  -----------------------
DEPT .F                                                :DEPTH (BOREHOLE) {F10.1}
CCLD .V                                                :CCL Discriminated Amplitude {F13.4}
CIRF_FIL.                                              :Capture to Inelastic Ratio Far Filtered {F13.4}
CIRN_FIL.                                              :Capture to Inelastic Ratio Near Filtered {F13.4}
FBAC .HZ                                               :Far Background Count Rate {F13.4}
GR   .GAPI                                             :Gamma Ray {F13.4}
SIBF .CU                                               :Sigma Borehole Fluid {F13.4}
SIGM .CU                                               :Formation Sigma (Neutron Capture Cross Section) {F13.4}
TPHI .CFCF                                             :Thermal Decay Porosity {F13.4}
#-----------------------------------------------------------------------------
# 
#     DEPT        CCLD       CIRF_FIL     CIRN_FIL       FBAC         GR           SIBF         SIGM         TPHI
#
~A  
# ...
   10141.5       0.0000       1.0241       0.4835    2334.0393      48.4706     115.3011      31.1814       0.4403
   10141.0       0.0000       1.0311       0.4864    2317.9961      48.2029     115.6091      31.0953       0.4347
   10140.5       0.0000       1.0239       0.4893    2340.0549      49.4530     115.6753      31.0442       0.4304
   10140.0       0.0000       1.0166       0.4869    2341.1245      49.0960     115.2600      31.2530       0.4283
   10139.5       0.0000       1.0188       0.4845    2354.4934      48.3770     115.4937      30.8507       0.4215
   10139.0       0.0000       1.0338       0.4828    2344.7400      48.8283     115.5919      30.9462       0.4060
   10138.5       0.0000       1.0449       0.4802    2346.2363      47.1440     115.4233      30.5094       0.3855
   10138.0       0.0000       1.0705       0.4708    2328.8567      45.7996     115.4048      29.9189       0.3682
   10137.5       0.0000       1.0857       0.4726    2354.2578      45.6258     115.7211      29.3367       0.3627
   10137.0       0.0000       1.0974       0.4843    2330.1992      47.2322     115.8163      29.7386       0.3735
   10136.5       0.0000       1.0689       0.4906    2306.6431      46.2141     115.8370      30.4864       0.3909
   10136.0       0.0000       1.0460       0.4862    2330.1726      46.4959     115.9799      31.3394       0.4183
   10135.5       0.0000       1.0162       0.4902    2361.5903      46.2282     116.4980      31.3927       0.4422
   10135.0       0.0000       1.0283       0.4989    2368.7842      47.5621     116.5289      31.9066       0.4589
   10134.5       0.0494       1.0299       0.5015    2365.0410      46.4068     116.3018      32.0431       0.4571
   10134.0       0.0000       1.0323       0.4941    2379.7468      48.1338     116.2591      32.2785       0.4522
   10133.5       0.0000       1.0020       0.4837    2396.7197      50.5322     116.1314      32.5185       0.4465
   10133.0      -0.0378       0.9886       0.4781    2398.0564      51.6041     116.1306      32.4692       0.4460
   10132.5       0.0000       0.9782       0.4750    2393.2170      50.8851     116.4493      32.7183       0.4487
   10132.0       0.0000       0.9747       0.4673    2376.5059      49.8136     116.1798      32.7348       0.4580
   10131.5       0.0244       0.9553       0.4578    2397.8970      49.1940     115.9931      32.5261       0.4714
   10131.0      -0.0302       0.9529       0.4483    2412.7632      48.2822     115.8573      31.8784       0.4824
   10130.5      -0.0057       0.9709       0.4551    2401.9343      49.1796     115.8371      31.5522       0.4850
   10130.0       0.0941       0.9941       0.4574    2369.7405      50.8863     115.2166      31.9449       0.4738
   10129.5       0.0000       1.0080       0.4595    2341.1563      50.8777     114.6518      32.4875       0.4503
   10129.0       0.0000       1.0048       0.4594    2320.4343      50.4312     114.7741      32.6201       0.4332
   10128.5       0.0000       0.9879       0.4671    2322.5732      50.2392     114.7698      32.2875       0.4231
   10128.0       0.0000       0.9930       0.4732    2313.8835      46.9311     114.9669      31.9236       0.4246
   10127.5       0.0000       1.0074       0.4774    2301.0232      45.1403     115.2831      31.1454       0.4132
   10127.0       0.0000       1.0542       0.4797    2316.8250      45.7739     115.5632      30.5583       0.4033
   10126.5       0.0000       1.0631       0.4865    2328.8572      47.9110     115.4308      29.6653       0.3887
   10126.0       0.0000       1.0767       0.4834    2310.1343      47.6619     115.2789      29.3021       0.3892
   10125.5       0.0000       1.0710       0.4868    2307.9951      47.3090     115.2420      29.6159       0.3855
   10125.0       0.0000       1.0753       0.4853    2316.0166      46.1729     115.0526      29.9961       0.3890
   10124.5       0.0000       1.0760       0.4938    2340.3481      47.0607     114.7000      29.7388       0.3872
   10124.0       0.0000       1.0921       0.4981    2347.1663      46.4360     114.3733      28.7191       0.3891
   10123.5       0.0000       1.0957       0.5030    2364.5461      46.5302     114.3399      28.3093       0.3861
   10123.0       0.0000       1.0948       0.5003    2361.8723      49.0250     114.0665      28.4828       0.3841
   10122.5       0.0000       1.0712       0.4948    2353.1824      49.2732     113.8172      29.1452       0.3785
   10122.0       0.0000       1.0845       0.4891    2382.0857      49.3625     113.7857      29.4030       0.3766
   10121.5       0.0000       1.0891       0.4863    2387.4331      46.9528     113.8099      29.8249       0.3746
   10121.0       0.0000       1.0925       0.4891    2371.3904      46.3278     113.8461      30.3063       0.3827
   10120.5       0.0000       1.0733       0.4923    2380.0803      47.3095     113.7618      30.4363       0.3952
   10120.0       0.0000       1.0471       0.4971    2391.3101      48.6436     114.1878      30.6476       0.4098
   10119.5       0.0000       1.0376       0.4968    2400.0000      48.7239     114.4352      30.5162       0.4202
   10119.0       0.0000       1.0244       0.4925    2385.9626      50.3357     115.0778      31.0444       0.4237
   10118.5       0.0000       1.0367       0.4874    2400.3757      51.8553     115.5642      31.3447       0.4253
   10118.0       0.0000       1.0263       0.4791    2420.8301      52.8434     115.7072      30.9931       0.4253
   10117.5       0.0000       1.0180       0.4716    2414.6804      51.3262     116.1101      30.9159       0.4207
   10117.0       0.0000       1.0133       0.4638    2396.3701      50.7105     116.2812      30.1041       0.4093
   10116.5       0.0000       1.0263       0.4624    2372.1460      49.0138     116.5565      30.2132       0.3816
   10116.0       0.0000       1.0647       0.4603    2363.6973      47.6680     116.4867      28.6532       0.3502
   10115.5       0.0000       1.1067       0.4635    2368.6438      44.8616     116.4463      27.7565       0.3133
   10115.0       0.0000       1.1624       0.4670    2365.9702      46.6519     116.3111      26.2246       0.2905
   10114.5       0.0000       1.1981       0.4763    2330.8096      46.2057     116.7984      26.0889       0.2792
   10114.0       0.0000       1.2257       0.4855    2290.1680      46.9153     116.4889      26.2256       0.2923
   10113.5       0.0000       1.2173       0.4984    2282.8149      46.2057     116.7373      27.2717       0.3164
   10113.0       0.0000       1.1749       0.5004    2290.3271      46.0606     117.0071      28.4757       0.3487
   10112.5       0.0000       1.1020       0.4929    2267.8672      45.8687     117.0663      29.8189       0.3775
   10112.0       0.0000       1.0673       0.4910    2283.2415      48.5983     116.8961      30.5974       0.4001
   10111.5       0.0000       1.0570       0.4918    2326.2847      50.0366     116.9141      31.2012       0.4130
   10111.0       0.0000       1.0669       0.5050    2316.2839      52.1645     116.6005      31.5150       0.4180
   10110.5       0.0000       1.0588       0.5067    2316.4438      53.4242     116.8364      31.8359       0.4251
   10110.0       0.0000       1.0383       0.5083    2326.2031      53.5216     116.6373      32.1847       0.4329
   10109.5       0.0000       1.0180       0.5027    2327.6797      51.8628     116.6008      31.8663       0.4421
   10109.0       0.0000       0.9946       0.4916    2342.3855      50.7865     116.2169      31.6584       0.4434
   10108.5       0.0000       1.0039       0.4864    2355.6208      48.3865     116.2700      31.6291       0.4412
   10108.0       0.0000       0.9816       0.4694    2358.5620      47.0375     116.0460      32.0852       0.4385
   10107.5       0.0000       0.9369       0.4408    2321.7974      46.1499     116.0533      32.9116       0.4332
   10107.0       0.0000       0.8593       0.3911    2305.7544      44.7220     116.0365      32.9855       0.4238
