~VERSION INFORMATION
VERS.           2.0   :CWLS Log ASCII Standard - VERSION 2.0
WRAP.           NO    :One Line per depth step
PROD.  Schlumberger   :LAS Producer
PROG.  DLIS to ASCII 17C0-154                          :LAS Program name and version
CREA.        2010/09/30 15:14                          :LAS Creation date {YYYY/MM/DD hh:mm}
DLIS_CREA.  2010-Sep-07 20:46                          :DLIS Creation date and time {YYYY-MMM-DD hh:mm}
SOURCE.     CFU_31F_#1_DENBURY_ONSHORE_7-SEP-2010_10660-10934_PRES_TEMP_DL_PSP_069PUP.DLIS  :DLIS File Name
FILE-ID.     FCS_GMS_RST_PSP_069PUP                    :File Identification Number
#--------------------------------------------------
~WELL INFORMATION
#MNEM.UNIT      DATA             DESCRIPTION
#---- ------ --------------   -----------------------------
STRT .F        10666.5       :START DEPTH     
STOP .F          -41.5       :STOP DEPTH     
STEP .F           -0.5       :STEP     
NULL .          -999.25      :NULL VALUE
COMP .        DENBURY ONSHORE, LLC                     :COMPANY
WELL .        CFU 31F #1                               :WELL
FLD  .        CRANFIELD                                :FIELD
LOC  .                                                 :LOCATION
CNTY .        FRANKLIN                                 :COUNTY
STAT .        MISSISSIPPI                              :STATE
CTRY .                                                 :COUNTRY
API  .        23-037-21488-0000                        :API NUMBER
UWI  .        23-037-21488-0000                        :UNIQUE WELL ID
DATE .        07-Sep-2010                              :LOG DATE {DD-MMM-YYYY}
SRVC .        Schlumberger                             :SERVICE COMPANY
LATI .DEG                                              :LATITUDE
LONG .DEG                                              :LONGITUDE
GDAT .                                                 :GeoDetic Datum
SECT .        31                                       :Section
RANG .        1E                                       :Range
TOWN .        7N                                       :Township
#-----------------------------------------------------------------------------
~PARAMETER INFORMATION
#MNEM.UNIT    VALUE                      DESCRIPTION
#---- -----   --------------------       ------------------------
RUN  .          1                        :RUN NUMBER
PDAT .        GROUND LEVEL               :Permanent Datum
EPD  .F         315.700012               :Elevation of Permanent Datum above Mean Sea Level
LMF  .          KELLY BUSHING            :Logging Measured From (Name of Logging Elevation Reference)
APD  .F          18.000000               :Elevation of Depth Reference (LMF) above Permanent Datum
#-----------------------------------------------------------------------------
~CURVE INFORMATION
#MNEM.UNIT   API CODE                                  DESCRIPTION
#---- -----  --------                                  -----------------------
DEPT .F                                                :DEPTH (BOREHOLE) {F10.1}
GR   .GAPI                                             :Gamma Ray {F13.4}
WFDE .G/C3                                             :Well Fluid Density Corrected {F13.4}
WPRE .PSI                                              :Well Pressure {F13.4}
WTEP .DEGF                                             :Well Temperature {F13.4}
#-----------------------------------------------------------------------------
# 
#     DEPT        GR           WFDE         WPRE         WTEP
#
~A  
# ...
    7809.0      65.9893       0.7332    4802.0601     155.6021
    7808.5      53.0855       0.7340    4801.9600     155.5964
    7808.0      59.5617       0.7352    4801.8145     155.5912
    7807.5      64.7427       0.7369    4801.6260     155.5878
    7807.0      54.3467       0.7358    4801.4771     155.5835
    7806.5      59.5865       0.7339    4801.3540     155.5772
    7806.0      72.4903       0.7335    4801.2031     155.5717
    7805.5      68.5558       0.7345    4801.0195     155.5658
    7805.0      64.6701       0.7341    4800.8506     155.5613
    7804.5      63.4089       0.7348    4800.6694     155.5564
    7804.0      55.5494       0.7357    4800.5464     155.5499
    7803.5      54.3223       0.7366    4800.4048     155.5436
    7803.0      49.1900       0.7361    4800.1968     155.5391
    7802.5      49.1900       0.7344    4800.0156     155.5353
    7802.0      45.3043       0.7337    4799.8521     155.5303
    7801.5      47.8850       0.7350    4799.7080     155.5251
    7801.0      41.4481       0.7348    4799.5552     155.5196
    7800.5      42.7433       0.7334    4799.3599     155.5160
    7800.0      46.5803       0.7333    4799.1958     155.5105
    7799.5      45.2949       0.7334    4799.0190     155.5029
    7799.0      45.3339       0.7315    4798.8564     155.4972
    7798.5      37.5134       0.7296    4798.7300     155.4899
    7798.0      34.9229       0.7304    4798.5537     155.4852
    7797.5      36.2669       0.7320    4798.4121     155.4798
    7797.0      51.7318       0.7336    4798.3096     155.4738
    7796.5      55.6176       0.7350    4798.1484     155.4665
    7796.0      58.2178       0.7373    4797.9878     155.4607
    7795.5      63.3988       0.7389    4797.8125     155.4563
    7795.0      51.7514       0.7395    4797.6431     155.4509
    7794.5      49.1706       0.7386    4797.5259     155.4438
    7794.0      50.4659       0.7380    4797.4019     155.4365
    7793.5      56.9421       0.7382    4797.2358     155.4305
    7793.0      62.0598       0.7375    4797.0493     155.4237
    7792.5      71.1167       0.7391    4796.9141     155.4161
    7792.0      76.4346       0.7418    4796.7935     155.4076
    7791.5      82.9108       0.7410    4796.6270     155.4000
    7791.0      78.9959       0.7388    4796.4536     155.3911
    7790.5      72.5829       0.7357    4796.3276     155.3844
    7790.0      76.5275       0.7303    4796.1621     155.3789
    7789.5      69.9193       0.7252    4795.9570     155.3705
    7789.0      60.8525       0.7239    4795.7866     155.3637
    7788.5      67.3580       0.7227    4795.6094     155.3574
    7788.0      64.7675       0.7249    4795.4722     155.3493
    7787.5      67.2309       0.7279    4795.3398     155.3412
    7787.0      64.6940       0.7305    4795.1694     155.3326
    7786.5      63.3988       0.7325    4794.9927     155.3268
    7786.0      63.3988       0.7345    4794.8389     155.3208
    7785.5      64.6599       0.7339    4794.7178     155.3127
    7785.0      56.9959       0.7333    4794.5874     155.3041
    7784.5      59.5864       0.7334    4794.4165     155.2983
    7784.0      56.9618       0.7337    4794.2622     155.2905
    7783.5      60.8475       0.7342    4794.0835     155.2813
    7783.0      59.5864       0.7346    4793.9355     155.2719
    7782.5      59.5082       0.7353    4793.7827     155.2649
    7782.0      53.0319       0.7357    4793.5967     155.2559
    7781.5      54.3613       0.7358    4793.4243     155.2476
    7781.0      43.9993       0.7355    4793.2334     155.2421
    7780.5      49.1316       0.7354    4793.1079     155.2334
    7780.0      49.1705       0.7351    4792.9644     155.2263
    7779.5      51.7610       0.7346    4792.7769     155.2191
    7779.0      56.9420       0.7340    4792.6079     155.2130
    7778.5      58.2032       0.7338    4792.4395     155.2028
    7778.0      56.9566       0.7315    4792.3135     155.1917
    7777.5      64.6599       0.7290    4792.1563     155.1826
    7777.0      63.3647       0.7276    4791.9937     155.1764
    7776.5      64.6599       0.7278    4791.7939     155.1692
    7776.0      68.5797       0.7274    4791.6240     155.1598
    7775.5      71.1702       0.7290    4791.4785     155.1494
    7775.0      63.4280       0.7306    4791.3335     155.1396
    7774.5      71.1994       0.7318    4791.1528     155.1336
    7774.0      63.4280       0.7316    4791.0352     155.1270
    7773.5      55.6370       0.7314    4790.9033     155.1173
    7773.0      49.1608       0.7317    4790.6987     155.1073
    7772.5      47.9045       0.7329    4790.5234     155.0973
    7772.0      41.4283       0.7346    4790.3462     155.0884
    7771.5      43.9750       0.7363    4790.2241     155.0819
    7771.0      59.6159       0.7383    4790.1182     155.0722
    7770.5      64.7969       0.7404    4789.9346     155.0624
    7770.0      71.2146       0.7394    4789.7661     155.0548
    7769.5      76.3956       0.7375    4789.6167     155.0485
    7769.0      75.1835       0.7371    4789.5093     155.0407
    7768.5      63.4137       0.7366    4789.3882     155.0327
    7768.0      76.3661       0.7353    4789.2070     155.0254
    7767.5      71.2828       0.7354    4789.0146     155.0191
    7767.0      71.2244       0.7349    4788.8101     155.0137
    7766.5      78.9566       0.7323    4788.6846     155.0052
    7766.0      82.8277       0.7296    4788.5508     155.0012
    7765.5      60.8086       0.7284    4788.3545     154.9959
    7765.0      59.4741       0.7280    4788.1426     154.9891
    7764.5      63.3452       0.7293    4788.0024     154.9830
    7764.0      55.6130       0.7311    4787.8828     154.9778
    7763.5      59.5474       0.7335    4787.7358     154.9727
    7763.0      69.8558       0.7355    4787.5728     154.9688
    7762.5      75.0368       0.7372    4787.4131     154.9659
    7762.0      64.7479       0.7375    4787.2974     154.9605
    7761.5      69.8312       0.7377    4787.1431     154.9554
    7761.0      60.7645       0.7357    4786.9688     154.9501
    7760.5      54.3418       0.7331    4786.7822     154.9483
    7760.0      47.8656       0.7264    4786.5898     154.9460
    7759.5      42.6846       0.7200    4786.4497     154.9425
    7759.0      34.9423       0.7167    4786.3252     154.9380
    7758.5      36.2376       0.7178    4786.1426     154.9354
    7758.0      33.6471       0.7190    4785.9595     154.9330
    7757.5      38.7794       0.7250    4785.8276     154.9298
    7757.0      44.3802       0.7309    4785.7217     154.9272
    7756.5      49.6394       0.7327    4785.6084     154.9240
    7756.0      56.0572       0.7316    4785.4541     154.9211
    7755.5      58.6477       0.7323    4785.2695     154.9172
    7755.0      52.2202       0.7329    4785.1089     154.9167
    7754.5      45.3144       0.7319    4784.9663     154.9135
    7754.0      51.7416       0.7323    4784.7983     154.9111
    7753.5      49.2095       0.7336    4784.6074     154.9094
    7753.0      53.0952       0.7340    4784.4307     154.9066
    7752.5      63.4572       0.7322    4784.2568     154.9032
    7752.0      66.0379       0.7301    4784.1489     154.9001
    7751.5      53.0855       0.7283    4784.0376     154.8974
    7751.0      50.4950       0.7280    4783.8882     154.8956
    7750.5      46.5801       0.7266    4783.7744     154.8934
    7750.0      50.5443       0.7257    4783.6392     154.8895
    7749.5      50.5638       0.7269    4783.4917     154.8874
    7749.0      60.8624       0.7283    4783.3257     154.8855
    7748.5      58.2719       0.7277    4783.1328     154.8860
    7748.0      58.3012       0.7273    4782.9556     154.8835
    7747.5      50.4025       0.7279    4782.7925     154.8813
    7747.0      56.8787       0.7288    4782.5762     154.8813
    7746.5      56.9420       0.7282    4782.3550     154.8779
    7746.0      62.1230       0.7269    4782.2295     154.8766
