~VERSION INFORMATION
VERS.           2.0   :CWLS Log ASCII Standard - VERSION 2.0
WRAP.           NO    :One Line per depth step
PROD.  Schlumberger   :LAS Producer
PROG.  DLIS to ASCII 17C0-154                          :LAS Program name and version
CREA.        2010/09/16 16:20                          :LAS Creation date {YYYY/MM/DD hh:mm}
DLIS_CREA.  2010-Sep-07 20:55                          :DLIS Creation date and time {YYYY-MMM-DD hh:mm}
SOURCE.     CFU_31F_#1_DENBURY_ONSHORE_7-SEP-2010_10660-10934_MAIN_PASS_RST_PSP_071PUP.DLIS  :DLIS File Name
FILE-ID.     FCS_GMS_RST_PSP_071PUP                    :File Identification Number
#--------------------------------------------------
~WELL INFORMATION
#MNEM.UNIT      DATA             DESCRIPTION
#---- ------ --------------   -----------------------------
STRT .F        10666.5       :START DEPTH     
STOP .F         8508.5       :STOP DEPTH     
STEP .F           -0.5       :STEP     
NULL .          -999.25      :NULL VALUE
COMP .        DENBURY ONSHORE, LLC                     :COMPANY
WELL .        CFU 31F #1                               :WELL
FLD  .        CRANFIELD                                :FIELD
LOC  .                                                 :LOCATION
CNTY .        FRANKLIN                                 :COUNTY
STAT .        MISSISSIPPI                              :STATE
CTRY .                                                 :COUNTRY
API  .        23-037-21488-0000                        :API NUMBER
UWI  .        23-037-21488-0000                        :UNIQUE WELL ID
DATE .        07-Sep-2010                              :LOG DATE {DD-MMM-YYYY}
SRVC .        Schlumberger                             :SERVICE COMPANY
LATI .DEG                                              :LATITUDE
LONG .DEG                                              :LONGITUDE
GDAT .                                                 :GeoDetic Datum
SECT .        31                                       :Section
RANG .        1E                                       :Range
TOWN .        7N                                       :Township
#-----------------------------------------------------------------------------
~PARAMETER INFORMATION
#MNEM.UNIT    VALUE                      DESCRIPTION
#---- -----   --------------------       ------------------------
RUN  .          1                        :RUN NUMBER
PDAT .        GROUND LEVEL               :Permanent Datum
EPD  .F         315.700012               :Elevation of Permanent Datum above Mean Sea Level
LMF  .          KELLY BUSHING            :Logging Measured From (Name of Logging Elevation Reference)
APD  .F          18.000000               :Elevation of Depth Reference (LMF) above Permanent Datum
#-----------------------------------------------------------------------------
~CURVE INFORMATION
#MNEM.UNIT   API CODE                                  DESCRIPTION
#---- -----  --------                                  -----------------------
DEPT .F                                                :DEPTH (BOREHOLE) {F10.1}
CCLD .V                                                :CCL Discriminated Amplitude {F13.4}
CIRF_FIL.                                              :Capture to Inelastic Ratio Far Filtered {F13.4}
CIRN_FIL.                                              :Capture to Inelastic Ratio Near Filtered {F13.4}
FBAC .HZ                                               :Far Background Count Rate {F13.4}
GR   .GAPI                                             :Gamma Ray {F13.4}
SIBF .CU                                               :Sigma Borehole Fluid {F13.4}
SIGM .CU                                               :Formation Sigma (Neutron Capture Cross Section) {F13.4}
TPHI .CFCF                                             :Thermal Decay Porosity {F13.4}
#-----------------------------------------------------------------------------
# 
#     DEPT        CCLD       CIRF_FIL     CIRN_FIL       FBAC         GR           SIBF         SIGM         TPHI
#
~A  
# ...
   10246.5       0.0000       1.0693       0.4891    2369.9761      51.6277     124.6624      30.3313       0.3700
   10246.0       0.0000       1.0594       0.4950    2368.7729      52.3365     124.7556      30.5403       0.3913
   10245.5       0.0000       1.0644       0.4927    2369.4153      51.1277     125.0522      30.6661       0.4005
   10245.0       0.0000       1.0635       0.4917    2394.1479      49.7949     125.3497      30.7560       0.4030
   10244.5       0.0000       1.0602       0.4862    2411.2603      48.5108     125.8854      30.8050       0.4090
   10244.0       0.0000       1.0323       0.4814    2411.7949      45.5656     126.1322      30.6231       0.4150
   10243.5       0.0000       0.9881       0.4551    2416.1250      44.4947     126.0639      30.3444       0.4080
   10243.0       0.0000       0.9779       0.4319    2417.1943      45.4356     126.0317      29.6915       0.3828
   10242.5       0.0000       1.0145       0.4245    2392.4619      47.2205     126.1412      29.2481       0.3515
   10242.0       0.0000       1.0638       0.4410    2377.2212      49.0176     126.2116      29.6808       0.3323
   10241.5       0.0000       1.0586       0.4496    2374.0127      50.1824     126.5041      31.2771       0.3320
   10241.0       0.0000       1.0343       0.4487    2369.6072      50.5479     127.3658      31.8927       0.3423
   10240.5       0.0000       1.0318       0.4473    2356.1045      49.8335     127.6342      31.2722       0.3481
   10240.0       0.0000       1.0622       0.4517    2362.9487      47.7809     128.0521      30.0845       0.3466
   10239.5       0.0000       1.0879       0.4621    2355.7356      48.6569     128.1520      29.8794       0.3432
   10239.0       0.0000       1.0818       0.4650    2331.2703      51.3357     128.6317      30.5730       0.3533
   10238.5       0.0000       1.0424       0.4614    2329.2649      51.4219     129.2047      31.0867       0.3695
   10238.0       0.0000       0.9969       0.4516    2300.0125      54.7257     129.4848      31.6044       0.3875
   10237.5       0.0000       0.9678       0.4431    2279.2905      56.6952     129.7103      31.4458       0.3956
   10237.0       0.0000       0.9453       0.4385    2285.0391      57.9384     129.6783      31.5661       0.3977
   10236.5       0.0000       0.9330       0.4308    2300.2798      56.2581     130.0663      31.5046       0.3951
   10236.0       0.0000       0.9367       0.4248    2304.1306      55.9849     129.8179      31.5173       0.3870
   10235.5       0.0000       0.9725       0.4195    2301.5842      53.8364     129.4008      30.9322       0.3735
   10235.0       0.0000       1.0230       0.4299    2322.3062      52.0698     129.3659      30.1459       0.3572
   10234.5       0.0000       1.0563       0.4401    2328.7234      48.6802     130.1149      29.5829       0.3452
   10234.0       0.0000       1.0862       0.4499    2334.5996      48.6640     130.5916      29.4343       0.3449
   10233.5       0.0000       1.0847       0.4502    2359.3323      48.7532     131.0133      29.6417       0.3498
   10233.0       0.0000       1.0495       0.4519    2346.8989      46.2543     131.2344      29.6097       0.3569
   10232.5       0.0000       1.0325       0.4535    2358.2627      44.5278     131.3143      29.0822       0.3508
   10232.0       0.0000       1.0869       0.4621    2364.4182      43.9968     131.6184      27.0713       0.3354
   10231.5       0.0000       1.2191       0.4880    2356.6641      44.0809     131.7736      25.0698       0.3085
   10231.0       0.0000       1.3081       0.5026    2360.1401      42.9252     132.0940      24.2211       0.2915
   10230.5       0.0000       1.2695       0.5002    2390.3801      45.5038     132.1454      25.8074       0.2917
   10230.0       0.0000       1.1659       0.4785    2395.8357      47.3004     131.2371      28.0080       0.3224
   10229.5       0.0000       1.0660       0.4727    2395.5684      51.0487     130.7918      29.9311       0.3607
   10229.0       0.0000       1.0273       0.4705    2396.5042      50.8702     130.5105      30.1992       0.3864
   10228.5       0.0000       1.0223       0.4629    2375.7822      52.8347     130.4474      29.7243       0.3855
   10228.0       0.0000       1.0405       0.4580    2369.0977      52.1303     130.5708      28.9428       0.3655
   10227.5       0.0000       1.0664       0.4576    2392.0669      49.7256     130.6406      28.4141       0.3449
   10227.0       0.0000       1.1014       0.4667    2386.5857      44.9100     130.6286      27.5636       0.3236
   10226.5       0.0000       1.1392       0.4676    2404.4941      44.9244     130.4239      25.9661       0.2960
   10226.0       0.0000       1.2144       0.4643    2418.5317      42.7814     130.3712      25.0921       0.2641
   10225.5       0.0000       1.2303       0.4621    2407.5806      42.1567     130.1181      25.8562       0.2484
   10225.0       0.0000       1.1575       0.4530    2364.8000      44.9132     130.3416      28.3519       0.2673
   10224.5       0.0000       1.0488       0.4404    2348.1145      49.2886     130.5722      29.8363       0.3063
   10224.0       0.0000       0.9783       0.4296    2350.2278      50.1510     130.5885      30.9874       0.3359
   10223.5       0.0000       0.9731       0.4239    2349.5593      52.5619     130.7448      31.5744       0.3475
   10223.0       0.0000       0.9837       0.4277    2347.4202      53.9006     130.8196      32.0447       0.3473
   10222.5       0.0000       0.9891       0.4283    2336.7251      53.0081     130.5514      31.2230       0.3465
   10222.0       0.0000       1.0207       0.4286    2343.1677      49.9721     130.9622      29.5627       0.3431
   10221.5       0.0000       1.0615       0.4315    2352.6597      48.4244     130.6284      28.0438       0.3304
   10221.0       0.0000       1.1456       0.4382    2335.9485      44.7596     131.5201      26.5936       0.3158
   10220.5       0.0000       1.2286       0.4537    2335.5474      43.1578     131.6987      25.2111       0.2931
   10220.0      -0.0367       1.3280       0.4701    2329.6533      42.7116     131.3446      24.3360       0.2754
   10219.5       0.0031       1.3635       0.4910    2348.3699      42.2610     131.1802      24.5098       0.2613
   10219.0       0.0000       1.3486       0.5034    2378.8513      41.2256     130.7151      25.1482       0.2688
   10218.5       0.0000       1.2753       0.5014    2359.6257      43.1890     130.8628      26.0659       0.2892
   10218.0       0.0000       1.1992       0.4921    2340.6416      43.0104     131.4437      27.3897       0.3136
   10217.5       0.0000       1.1320       0.4782    2346.1230      42.4749     131.5832      28.5647       0.3378
   10217.0       0.0000       1.0923       0.4821    2372.1924      43.1889     131.8858      29.0648       0.3543
   10216.5       0.0000       1.0974       0.4837    2363.1016      43.1067     131.9979      28.8281       0.3668
   10216.0       0.0000       1.1104       0.4889    2351.7380      45.2426     131.7493      28.3056       0.3695
   10215.5       0.0000       1.1083       0.4857    2350.6685      46.9392     130.8232      28.1915       0.3695
   10215.0       0.0000       1.0778       0.4763    2349.0642      49.6808     130.1549      28.4500       0.3713
   10214.5       0.0000       1.0383       0.4646    2358.4224      52.0012     130.3316      29.8302       0.3703
   10214.0       0.0000       1.0077       0.4536    2359.6257      55.2235     130.3139      31.2953       0.3700
   10213.5       0.0000       1.0023       0.4513    2326.6042      52.8198     130.3614      31.2838       0.3652
   10213.0       0.0000       1.0308       0.4549    2349.3315      52.7251     130.1491      30.1981       0.3619
   10212.5       0.0000       1.0672       0.4612    2353.6096      52.3854     130.1395      29.0261       0.3551
   10212.0       0.0000       1.0929       0.4678    2374.3315      52.1121     130.4027      29.1985       0.3584
