~VERSION INFORMATION
VERS.           2.0   :CWLS Log ASCII Standard - VERSION 2.0
WRAP.           NO    :One Line per depth step
PROD.  Schlumberger   :LAS Producer
PROG.  DLIS to ASCII 17C0-154                          :LAS Program name and version
CREA.        2010/09/16 16:20                          :LAS Creation date {YYYY/MM/DD hh:mm}
DLIS_CREA.  2010-Sep-07 20:55                          :DLIS Creation date and time {YYYY-MMM-DD hh:mm}
SOURCE.     CFU_31F_#1_DENBURY_ONSHORE_7-SEP-2010_10660-10934_MAIN_PASS_RST_PSP_071PUP.DLIS  :DLIS File Name
FILE-ID.     FCS_GMS_RST_PSP_071PUP                    :File Identification Number
#--------------------------------------------------
~WELL INFORMATION
#MNEM.UNIT      DATA             DESCRIPTION
#---- ------ --------------   -----------------------------
STRT .F        10666.5       :START DEPTH     
STOP .F         8508.5       :STOP DEPTH     
STEP .F           -0.5       :STEP     
NULL .          -999.25      :NULL VALUE
COMP .        DENBURY ONSHORE, LLC                     :COMPANY
WELL .        CFU 31F #1                               :WELL
FLD  .        CRANFIELD                                :FIELD
LOC  .                                                 :LOCATION
CNTY .        FRANKLIN                                 :COUNTY
STAT .        MISSISSIPPI                              :STATE
CTRY .                                                 :COUNTRY
API  .        23-037-21488-0000                        :API NUMBER
UWI  .        23-037-21488-0000                        :UNIQUE WELL ID
DATE .        07-Sep-2010                              :LOG DATE {DD-MMM-YYYY}
SRVC .        Schlumberger                             :SERVICE COMPANY
LATI .DEG                                              :LATITUDE
LONG .DEG                                              :LONGITUDE
GDAT .                                                 :GeoDetic Datum
SECT .        31                                       :Section
RANG .        1E                                       :Range
TOWN .        7N                                       :Township
#-----------------------------------------------------------------------------
~PARAMETER INFORMATION
#MNEM.UNIT    VALUE                      DESCRIPTION
#---- -----   --------------------       ------------------------
RUN  .          1                        :RUN NUMBER
PDAT .        GROUND LEVEL               :Permanent Datum
EPD  .F         315.700012               :Elevation of Permanent Datum above Mean Sea Level
LMF  .          KELLY BUSHING            :Logging Measured From (Name of Logging Elevation Reference)
APD  .F          18.000000               :Elevation of Depth Reference (LMF) above Permanent Datum
#-----------------------------------------------------------------------------
~CURVE INFORMATION
#MNEM.UNIT   API CODE                                  DESCRIPTION
#---- -----  --------                                  -----------------------
DEPT .F                                                :DEPTH (BOREHOLE) {F10.1}
CCLD .V                                                :CCL Discriminated Amplitude {F13.4}
CIRF_FIL.                                              :Capture to Inelastic Ratio Far Filtered {F13.4}
CIRN_FIL.                                              :Capture to Inelastic Ratio Near Filtered {F13.4}
FBAC .HZ                                               :Far Background Count Rate {F13.4}
GR   .GAPI                                             :Gamma Ray {F13.4}
SIBF .CU                                               :Sigma Borehole Fluid {F13.4}
SIGM .CU                                               :Formation Sigma (Neutron Capture Cross Section) {F13.4}
TPHI .CFCF                                             :Thermal Decay Porosity {F13.4}
#-----------------------------------------------------------------------------
# 
#     DEPT        CCLD       CIRF_FIL     CIRN_FIL       FBAC         GR           SIBF         SIGM         TPHI
#
~A  
# ...
   10386.5       0.0000       1.0242       0.4117    2453.4563      74.2169     131.2194      30.8461       0.3226
   10386.0       0.0000       1.0033       0.4040    2448.7773      71.9821     131.0681      31.3317       0.3287
   10385.5       0.0000       0.9870       0.4069    2441.9590      71.9238     130.8239      31.5126       0.3410
   10385.0       0.0000       0.9759       0.4158    2420.1677      71.1444     130.6634      31.4249       0.3538
   10384.5       0.0000       0.9877       0.4263    2416.0232      71.9363     130.1287      31.2787       0.3647
   10384.0       0.0000       0.9756       0.4263    2390.1133      69.8829     129.9532      31.4766       0.3768
   10383.5       0.0000       0.9411       0.4142    2385.3003      71.6292     129.8323      32.2142       0.3872
   10383.0       0.0000       0.8959       0.4012    2388.6426      70.9945     129.1943      33.0696       0.3959
   10382.5       0.0000       0.8614       0.3869    2386.7646      71.8394     128.9683      33.6445       0.4020
   10382.0       0.0000       0.8400       0.3833    2385.8289      71.3945     128.8468      34.0580       0.4068
   10381.5       0.0000       0.8427       0.3862    2384.8931      70.8931     128.2954      34.1073       0.4176
   10381.0       0.0000       0.8598       0.4028    2397.8608      69.7663     127.8828      33.8340       0.4323
   10380.5       0.0000       0.8971       0.4201    2401.8716      65.3394     127.8017      33.2258       0.4482
   10380.0       0.0000       0.8947       0.4203    2393.9839      63.0193     127.9517      33.6080       0.4497
   10379.5       0.0000       0.8859       0.4032    2381.0161      57.4632     127.4815      34.0531       0.4274
   10379.0       0.0000       0.9074       0.3876    2382.3276      53.9211     127.0614      33.0331       0.3811
   10378.5       0.0000       1.0298       0.4019    2413.3435      51.3203     127.2193      30.2539       0.3265
   10378.0       0.0000       1.1779       0.4322    2418.2900      50.9631     126.9728      27.5028       0.2744
   10377.5       0.0000       1.2212       0.4337    2401.4189      52.7588     126.6294      27.1123       0.2389
   10377.0       0.0000       1.1376       0.4072    2416.7935      56.8595     125.6964      29.0164       0.2260
   10376.5       0.0000       1.0100       0.3778    2417.0608      57.6631     124.9792      31.8986       0.2512
   10376.0       0.0000       0.9510       0.3880    2404.0928      57.3884     124.5677      33.9942       0.3072
   10375.5       0.0000       0.9411       0.4202    2414.5205      58.0135     124.2617      34.2941       0.3748
   10375.0       0.0000       0.9767       0.4598    2415.1890      56.6758     124.6756      33.6293       0.4281
   10374.5       0.0000       0.9896       0.4841    2429.4939      55.8663     124.2641      33.0511       0.4570
   10374.0       0.0000       0.9904       0.4792    2449.1462      57.2949     124.2488      32.9547       0.4652
   10373.5       0.0000       0.9597       0.4620    2446.2305      57.7317     123.8858      33.4290       0.4507
   10373.0       0.0000       0.9336       0.4387    2453.3159      58.7970     123.6159      33.4830       0.4265
   10372.5       0.0000       0.9366       0.4259    2452.1128      60.1411     123.5108      33.6052       0.3961
   10372.0       0.0000       0.9538       0.4192    2447.4336      60.7655     123.6019      33.6121       0.3749
   10371.5       0.0000       0.9847       0.4253    2424.0378      62.0026     123.4392      32.8532       0.3648
   10371.0       0.0000       1.0186       0.4417    2426.9790      66.8439     123.2701      31.9045       0.3691
   10370.5       0.0000       1.0348       0.4609    2418.5566      69.4321     123.3112      30.7516       0.3782
   10370.0       0.0000       1.0501       0.4663    2418.8240      72.1946     123.5748      30.5894       0.3880
   10369.5       0.0000       1.0457       0.4677    2403.4497      74.0678     123.4059      30.4405       0.3894
   10369.0       0.0000       1.0422       0.4550    2406.5247      75.9559     123.6788      30.3759       0.3882
   10368.5       0.0000       1.0154       0.4423    2399.7063      77.5715     124.0939      30.7563       0.3803
   10368.0       0.0000       1.0001       0.4322    2387.4070      81.3995     123.9038      31.6191       0.3804
   10367.5       0.0000       0.9876       0.4342    2363.7439      83.6440     123.8337      32.5515       0.3891
   10367.0       0.0000       0.9911       0.4457    2378.9846      90.6128     124.1542      32.5301       0.4114
   10366.5       0.0000       0.9741       0.4609    2377.2727      99.2617     124.1735      32.7310       0.4335
   10366.0       0.0000       0.9626       0.4676    2379.9465     103.9049     124.8787      32.5095       0.4521
   10365.5       0.0000       0.9509       0.4663    2375.0000     102.3468     124.9783      32.9904       0.4597
   10365.0       0.0000       0.9301       0.4462    2381.8181      97.6029     124.4442      33.0368       0.4489
   10364.5       0.0000       0.9125       0.4192    2409.6257      88.3441     123.9241      33.7434       0.4178
   10364.0       0.0000       0.9235       0.4035    2427.9412      75.1357     123.8626      33.2754       0.3775
   10363.5       0.0000       0.9654       0.4053    2437.2996      63.4384     123.8365      32.9390       0.3381
   10363.0       0.0000       1.0094       0.4147    2465.5081      57.5740     123.6269      31.9790       0.3139
   10362.5       0.0000       1.0378       0.4250    2474.0642      54.8059     123.3263      32.4954       0.2967
   10362.0       0.0000       1.0605       0.4328    2480.3477      53.8966     123.6349      32.3405       0.2974
   10361.5       0.0000       1.0558       0.4413    2464.0374      52.5012     123.9230      32.7400       0.3092
   10361.0       0.0000       1.0260       0.4478    2475.9358      51.5190     124.4257      32.8458       0.3350
   10360.5       0.0000       1.0081       0.4515    2468.3154      50.1157     123.6844      32.9003       0.3644
   10360.0       0.0000       1.0011       0.4658    2472.3262      48.6450     123.8054      32.3442       0.3832
   10359.5       0.0000       1.0358       0.4791    2497.4348      45.4305     123.5884      31.0590       0.3866
   10359.0       0.0000       1.0933       0.4963    2458.3975      44.2336     123.3710      29.3813       0.3726
   10358.5       0.0000       1.1519       0.5037    2425.3760      43.4014     123.0504      27.7147       0.3534
   10358.0       0.0000       1.1734       0.5014    2400.6433      43.1337     122.6528      26.5633       0.3317
   10357.5       0.0000       1.1677       0.4920    2385.6768      43.1337     121.9040      26.1897       0.3154
   10357.0       0.0000       1.1924       0.4976    2363.7515      46.8840     121.4877      26.6490       0.3064
   10356.5       0.0000       1.2250       0.5146    2375.6499      47.6914     121.0597      26.8559       0.3201
   10356.0       0.0000       1.2002       0.5323    2365.0627      52.0013     120.9449      27.8451       0.3544
   10355.5       0.0000       1.1447       0.5330    2365.9985      54.2324     121.1342      28.5285       0.3990
   10355.0       0.0000       1.0838       0.5230    2384.3140      56.5009     121.1665      29.8840       0.4344
   10354.5       0.0000       1.0396       0.5096    2409.7151      54.8043     120.6026      30.3823       0.4533
   10354.0       0.0000       0.9894       0.4802    2403.8577      56.1476     120.2987      30.1332       0.4600
   10353.5       0.0000       0.9689       0.4648    2394.0984      54.9854     120.0816      30.0802       0.4563
   10353.0       0.0000       0.9696       0.4591    2423.9111      53.4734     119.9928      30.2694       0.4514
   10352.5       0.0000       0.9903       0.4752    2428.5903      55.9437     120.0619      30.8386       0.4474
   10352.0       0.0000       1.0006       0.4835    2423.3699      56.4795     119.9355      31.2215       0.4461
