~VERSION INFORMATION
VERS.           2.0   :CWLS Log ASCII Standard - VERSION 2.0
WRAP.           NO    :One Line per depth step
PROD.  Schlumberger   :LAS Producer
PROG.  DLIS to ASCII 17C0-154                          :LAS Program name and version
CREA.        2010/09/30 15:14                          :LAS Creation date {YYYY/MM/DD hh:mm}
DLIS_CREA.  2010-Sep-07 20:46                          :DLIS Creation date and time {YYYY-MMM-DD hh:mm}
SOURCE.     CFU_31F_#1_DENBURY_ONSHORE_7-SEP-2010_10660-10934_PRES_TEMP_DL_PSP_069PUP.DLIS  :DLIS File Name
FILE-ID.     FCS_GMS_RST_PSP_069PUP                    :File Identification Number
#--------------------------------------------------
~WELL INFORMATION
#MNEM.UNIT      DATA             DESCRIPTION
#---- ------ --------------   -----------------------------
STRT .F        10666.5       :START DEPTH     
STOP .F          -41.5       :STOP DEPTH     
STEP .F           -0.5       :STEP     
NULL .          -999.25      :NULL VALUE
COMP .        DENBURY ONSHORE, LLC                     :COMPANY
WELL .        CFU 31F #1                               :WELL
FLD  .        CRANFIELD                                :FIELD
LOC  .                                                 :LOCATION
CNTY .        FRANKLIN                                 :COUNTY
STAT .        MISSISSIPPI                              :STATE
CTRY .                                                 :COUNTRY
API  .        23-037-21488-0000                        :API NUMBER
UWI  .        23-037-21488-0000                        :UNIQUE WELL ID
DATE .        07-Sep-2010                              :LOG DATE {DD-MMM-YYYY}
SRVC .        Schlumberger                             :SERVICE COMPANY
LATI .DEG                                              :LATITUDE
LONG .DEG                                              :LONGITUDE
GDAT .                                                 :GeoDetic Datum
SECT .        31                                       :Section
RANG .        1E                                       :Range
TOWN .        7N                                       :Township
#-----------------------------------------------------------------------------
~PARAMETER INFORMATION
#MNEM.UNIT    VALUE                      DESCRIPTION
#---- -----   --------------------       ------------------------
RUN  .          1                        :RUN NUMBER
PDAT .        GROUND LEVEL               :Permanent Datum
EPD  .F         315.700012               :Elevation of Permanent Datum above Mean Sea Level
LMF  .          KELLY BUSHING            :Logging Measured From (Name of Logging Elevation Reference)
APD  .F          18.000000               :Elevation of Depth Reference (LMF) above Permanent Datum
#-----------------------------------------------------------------------------
~CURVE INFORMATION
#MNEM.UNIT   API CODE                                  DESCRIPTION
#---- -----  --------                                  -----------------------
DEPT .F                                                :DEPTH (BOREHOLE) {F10.1}
GR   .GAPI                                             :Gamma Ray {F13.4}
WFDE .G/C3                                             :Well Fluid Density Corrected {F13.4}
WPRE .PSI                                              :Well Pressure {F13.4}
WTEP .DEGF                                             :Well Temperature {F13.4}
#-----------------------------------------------------------------------------
# 
#     DEPT        GR           WFDE         WPRE         WTEP
#
~A  
# ...
    6412.0      45.3043       0.7192    4360.6572     140.0889
    6411.5      45.2653       0.7181    4360.5356     140.0831
    6411.0      47.9243       0.7199    4360.4014     140.0783
    6410.5      54.4005       0.7261    4360.2017     140.0744
    6410.0      49.1952       0.7319    4360.0381     140.0713
    6409.5      45.3094       0.7347    4359.9399     140.0652
    6409.0      53.1885       0.7379    4359.8408     140.0601
    6408.5      54.4007       0.7388    4359.6782     140.0558
    6408.0      50.5150       0.7368    4359.5020     140.0518
    6407.5      54.4251       0.7339    4359.3164     140.0468
    6407.0      58.3108       0.7326    4359.1631     140.0427
    6406.5      53.0124       0.7331    4359.0405     140.0389
    6406.0      51.7610       0.7355    4358.8501     140.0352
    6405.5      51.7610       0.7380    4358.6401     140.0319
    6405.0      47.8753       0.7359    4358.4214     140.0258
    6404.5      41.3893       0.7348    4358.2808     140.0201
    6404.0      36.2570       0.7359    4358.1719     140.0147
    6403.5      38.8475       0.7344    4358.0117     140.0132
    6403.0      40.1038       0.7304    4357.8037     140.0103
    6402.5      47.8753       0.7320    4357.6362     140.0037
    6402.0      55.6957       0.7338    4357.4897     139.9957
    6401.5      53.0858       0.7317    4357.3232     139.9889
    6401.0      50.4953       0.7297    4357.1440     139.9852
    6400.5      55.7152       0.7298    4356.9546     139.9810
    6400.0      54.4200       0.7290    4356.8066     139.9758
    6399.5      54.3418       0.7319    4356.6665     139.9675
    6399.0      59.5422       0.7349    4356.5103     139.9599
    6398.5      62.1327       0.7368    4356.3691     139.9547
    6398.0      63.4280       0.7377    4356.2539     139.9473
    6397.5      58.2178       0.7394    4356.0879     139.9411
    6397.0      60.8472       0.7377    4355.9126     139.9356
    6396.5      59.5520       0.7359    4355.7427     139.9287
    6396.0      56.9225       0.7352    4355.6309     139.9218
    6395.5      47.8852       0.7354    4355.4707     139.9154
    6395.0      49.2097       0.7355    4355.2407     139.9095
    6394.5      50.4514       0.7357    4355.0430     139.9049
    6394.0      53.0419       0.7354    4354.8662     139.8997
    6393.5      55.7204       0.7345    4354.7651     139.8930
    6393.0      56.9521       0.7338    4354.6465     139.8866
    6392.5      55.6569       0.7335    4354.4580     139.8813
    6392.0      54.4152       0.7330    4354.2554     139.8746
    6391.5      50.5294       0.7323    4354.0688     139.8687
    6391.0      50.4804       0.7319    4353.9521     139.8617
    6390.5      44.0285       0.7321    4353.8462     139.8560
    6390.0      44.0285       0.7325    4353.6611     139.8500
    6389.5      42.7332       0.7319    4353.4634     139.8449
    6389.0      42.7332       0.7315    4353.2998     139.8390
    6388.5      37.5231       0.7321    4353.1680     139.8313
    6388.0      44.0090       0.7329    4353.0015     139.8251
    6387.5      51.7221       0.7335    4352.8369     139.8214
    6387.0      50.4268       0.7384    4352.6538     139.8161
    6386.5      53.0566       0.7436    4352.4956     139.8069
    6386.0      53.0858       0.7431    4352.3433     139.8009
    6385.5      51.7613       0.7417    4352.1709     139.7954
    6385.0      46.6388       0.7405    4351.9854     139.7901
    6384.5      41.4578       0.7358    4351.8506     139.7818
    6384.0      38.7988       0.7309    4351.7148     139.7753
    6383.5      32.3226       0.7314    4351.5293     139.7701
    6383.0      29.7613       0.7318    4351.3228     139.7643
    6382.5      23.2851       0.7329    4351.1841     139.7563
    6382.0      28.4271       0.7343    4351.0732     139.7509
    6381.5      29.7516       0.7334    4350.9146     139.7448
    6381.0      33.6373       0.7318    4350.7334     139.7397
    6380.5      38.7793       0.7346    4350.5552     139.7359
    6380.0      42.6945       0.7365    4350.3501     139.7288
    6379.5      40.1430       0.7367    4350.2085     139.7230
    6379.0      36.2572       0.7378    4350.1094     139.7166
    6378.5      36.2378       0.7392    4349.9453     139.7127
    6378.0      31.0957       0.7355    4349.7520     139.7063
    6377.5      29.7711       0.7314    4349.5913     139.7003
    6377.0      24.5803       0.7320    4349.4502     139.6944
    6376.5      31.0566       0.7337    4349.2852     139.6909
    6376.0      29.7808       0.7338    4349.1372     139.6861
    6375.5      32.3713       0.7344    4349.0146     139.6804
    6375.0      25.8951       0.7352    4348.8574     139.6718
    6374.5      25.9048       0.7327    4348.6675     139.6647
    6374.0      23.3143       0.7310    4348.4849     139.6613
    6373.5      24.6096       0.7318    4348.3350     139.6560
    6373.0      19.4384       0.7321    4348.2002     139.6504
    6372.5      28.5051       0.7334    4347.9980     139.6434
    6372.0      37.5280       0.7355    4347.8022     139.6398
    6371.5      32.3470       0.7346    4347.6167     139.6357
    6371.0      32.3470       0.7330    4347.4858     139.6318
    6370.5      40.0697       0.7319    4347.3613     139.6277
    6370.0      40.0697       0.7302    4347.1714     139.6242
    6369.5      34.9082       0.7280    4346.9946     139.6222
    6369.0      40.0892       0.7295    4346.8613     139.6180
    6368.5      42.6505       0.7308    4346.7295     139.6140
    6368.0      38.8037       0.7318    4346.5415     139.6106
    6367.5      36.2132       0.7332    4346.3594     139.6078
    6367.0      37.5328       0.7342    4346.1665     139.6049
    6366.5      33.6471       0.7336    4345.9951     139.6019
    6366.0      33.6471       0.7327    4345.8657     139.5987
    6365.5      37.5328       0.7314    4345.7563     139.5950
    6365.0      40.1233       0.7315    4345.5708     139.5923
    6364.5      37.5133       0.7337    4345.3979     139.5895
    6364.0      37.5329       0.7358    4345.2749     139.5853
    6363.5      45.2752       0.7348    4345.1167     139.5815
    6363.0      37.4940       0.7348    4344.8867     139.5759
    6362.5      33.6082       0.7353    4344.6948     139.5719
    6362.0      38.8087       0.7337    4344.5381     139.5686
    6361.5      43.9311       0.7323    4344.3838     139.5652
    6361.0      38.8086       0.7347    4344.1968     139.5615
    6360.5      51.7707       0.7369    4344.0044     139.5567
    6360.0      59.5422       0.7371    4343.8853     139.5539
    6359.5      67.2455       0.7383    4343.7490     139.5487
    6359.0      71.1702       0.7338    4343.6187     139.5457
    6358.5      77.6464       0.7289    4343.4814     139.5439
    6358.0      73.7607       0.7316    4343.3120     139.5402
    6357.5      73.7120       0.7340    4343.1899     139.5348
    6357.0      63.4477       0.7350    4343.0518     139.5288
    6356.5      59.5619       0.7410    4342.8813     139.5222
    6356.0      50.4660       0.7474    4342.6812     139.5183
    6355.5      49.1707       0.7458    4342.5088     139.5141
    6355.0      41.4676       0.7441    4342.3726     139.5078
    6354.5      38.8282       0.7402    4342.2095     139.5005
    6354.0      37.5329       0.7365    4342.0269     139.4945
    6353.5      38.8574       0.7356    4341.8574     139.4906
    6353.0      40.1526       0.7351    4341.6572     139.4858
    6352.5      45.2750       0.7347    4341.5181     139.4807
    6352.0      56.9517       0.7374    4341.3843     139.4770
    6351.5      54.3612       0.7402    4341.1904     139.4745
    6351.0      53.0660       0.7398    4340.9878     139.4716
    6350.5      55.6029       0.7392    4340.8442     139.4657
    6350.0      66.0823       0.7400    4340.7041     139.4600
    6349.5      67.3776       0.7407    4340.4785     139.4563
    6349.0      72.5147       0.7406    4340.2544     139.4539
