~VERSION INFORMATION
VERS.           2.0   :CWLS Log ASCII Standard - VERSION 2.0
WRAP.           NO    :One Line per depth step
PROD.  Schlumberger   :LAS Producer
PROG.  DLIS to ASCII 17C0-154                          :LAS Program name and version
CREA.        2010/09/30 15:14                          :LAS Creation date {YYYY/MM/DD hh:mm}
DLIS_CREA.  2010-Sep-07 20:46                          :DLIS Creation date and time {YYYY-MMM-DD hh:mm}
SOURCE.     CFU_31F_#1_DENBURY_ONSHORE_7-SEP-2010_10660-10934_PRES_TEMP_DL_PSP_069PUP.DLIS  :DLIS File Name
FILE-ID.     FCS_GMS_RST_PSP_069PUP                    :File Identification Number
#--------------------------------------------------
~WELL INFORMATION
#MNEM.UNIT      DATA             DESCRIPTION
#---- ------ --------------   -----------------------------
STRT .F        10666.5       :START DEPTH     
STOP .F          -41.5       :STOP DEPTH     
STEP .F           -0.5       :STEP     
NULL .          -999.25      :NULL VALUE
COMP .        DENBURY ONSHORE, LLC                     :COMPANY
WELL .        CFU 31F #1                               :WELL
FLD  .        CRANFIELD                                :FIELD
LOC  .                                                 :LOCATION
CNTY .        FRANKLIN                                 :COUNTY
STAT .        MISSISSIPPI                              :STATE
CTRY .                                                 :COUNTRY
API  .        23-037-21488-0000                        :API NUMBER
UWI  .        23-037-21488-0000                        :UNIQUE WELL ID
DATE .        07-Sep-2010                              :LOG DATE {DD-MMM-YYYY}
SRVC .        Schlumberger                             :SERVICE COMPANY
LATI .DEG                                              :LATITUDE
LONG .DEG                                              :LONGITUDE
GDAT .                                                 :GeoDetic Datum
SECT .        31                                       :Section
RANG .        1E                                       :Range
TOWN .        7N                                       :Township
#-----------------------------------------------------------------------------
~PARAMETER INFORMATION
#MNEM.UNIT    VALUE                      DESCRIPTION
#---- -----   --------------------       ------------------------
RUN  .          1                        :RUN NUMBER
PDAT .        GROUND LEVEL               :Permanent Datum
EPD  .F         315.700012               :Elevation of Permanent Datum above Mean Sea Level
LMF  .          KELLY BUSHING            :Logging Measured From (Name of Logging Elevation Reference)
APD  .F          18.000000               :Elevation of Depth Reference (LMF) above Permanent Datum
#-----------------------------------------------------------------------------
~CURVE INFORMATION
#MNEM.UNIT   API CODE                                  DESCRIPTION
#---- -----  --------                                  -----------------------
DEPT .F                                                :DEPTH (BOREHOLE) {F10.1}
GR   .GAPI                                             :Gamma Ray {F13.4}
WFDE .G/C3                                             :Well Fluid Density Corrected {F13.4}
WPRE .PSI                                              :Well Pressure {F13.4}
WTEP .DEGF                                             :Well Temperature {F13.4}
#-----------------------------------------------------------------------------
# 
#     DEPT        GR           WFDE         WPRE         WTEP
#
~A  
# ...
    9968.0      62.1621       0.7047    5471.2085     185.5306
    9967.5      63.4378       0.7068    5471.0757     185.5189
    9967.0      68.5603       0.7067    5470.9150     185.5074
    9966.5      54.3126       0.7065    5470.7334     185.4964
    9966.0      47.8364       0.7058    5470.5869     185.4895
    9965.5      53.0466       0.7047    5470.4351     185.4810
    9965.0      54.3126       0.7051    5470.3311     185.4710
    9964.5      51.8296       0.7056    5470.1919     185.4604
    9964.0      46.6486       0.7071    5470.0234     185.4496
    9963.5      47.9147       0.7088    5469.8999     185.4391
    9963.0      47.9147       0.7106    5469.7842     185.4315
    9962.5      46.6486       0.7113    5469.6309     185.4214
    9962.0      54.2931       0.7121    5469.4932     185.4108
    9961.5      55.5884       0.7117    5469.3467     185.4002
    9961.0      55.6176       0.7109    5469.1528     185.3889
    9960.5      45.2556       0.7101    5468.9819     185.3801
    9960.0      40.0747       0.7091    5468.8218     185.3729
    9959.5      23.3144       0.7095    5468.6851     185.3626
    9959.0      20.7044       0.7101    5468.4995     185.3494
    9958.5      16.8187       0.7105    5468.3589     185.3403
    9958.0      18.0993       0.7112    5468.2383     185.3280
    9957.5      32.3470       0.7120    5468.0483     185.3198
    9957.0      34.9375       0.7119    5467.9194     185.3098
    9956.5      37.5182       0.7109    5467.7715     185.2981
    9956.0      34.9278       0.7094    5467.5815     185.2842
    9955.5      45.3043       0.7079    5467.4624     185.2701
    9955.0      38.8281       0.7073    5467.2793     185.2612
    9954.5      37.5329       0.7062    5467.1392     185.2503
    9954.0      34.9521       0.7071    5466.9438     185.2356
    9953.5      41.4283       0.7087    5466.7817     185.2199
    9953.0      34.9521       0.7118    5466.6611     185.2063
    9952.5      29.7711       0.7139    5466.4609     185.1951
    9952.0      33.6228       0.7132    5466.2832     185.1836
    9951.5      41.4628       0.7087    5466.0747     185.1702
    9951.0      42.7580       0.7043    5465.9541     185.1543
    9950.5      44.0192       0.6984    5465.8081     185.1414
    9950.0      50.4954       0.6926    5465.6128     185.1269
    9949.5      49.2343       0.6927    5465.4312     185.1160
    9949.0      38.8135       0.6955    5465.2754     185.1052
    9948.5      34.9278       0.6995    5465.1641     185.0903
    9948.0      32.3714       0.7037    5465.0508     185.0779
    9947.5      29.7809       0.7059    5464.9185     185.0632
    9947.0      34.9132       0.7052    5464.7798     185.0541
    9946.5      42.6944       0.7050    5464.6128     185.0436
    9946.0      50.5149       0.7040    5464.5063     185.0299
    9945.5      54.3617       0.7023    5464.4199     185.0184
    9945.0      56.9522       0.7018    5464.2739     185.0056
    9944.5      55.7056       0.7015    5464.1182     184.9968
    9944.0      51.8199       0.7012    5463.9688     184.9872
    9943.5      49.1803       0.7002    5463.8545     184.9766
    9943.0      44.0188       0.7011    5463.7271     184.9664
    9942.5      46.6093       0.7026    5463.5688     184.9557
    9942.0      49.1998       0.7037    5463.3862     184.9489
    9941.5      64.6600       0.7048    5463.1816     184.9425
    9941.0      63.3647       0.7060    5463.0391     184.9327
    9940.5      84.2063       0.7056    5462.9121     184.9221
    9940.0      81.5768       0.7052    5462.7524     184.9129
    9939.5      80.2816       0.7050    5462.5728     184.9068
    9939.0      62.2456       0.7046    5462.4028     184.8977
    9938.5      62.2115       0.7040    5462.2261     184.8904
    9938.0      43.9508       0.7033    5462.0576     184.8852
    9937.5      46.5802       0.7036    5461.9478     184.8769
    9937.0      53.0564       0.7038    5461.8218     184.8717
    9936.5      59.5179       0.7059    5461.6235     184.8660
    9936.0      56.9615       0.7083    5461.4253     184.8625
    9935.5      56.9908       0.7092    5461.2510     184.8573
    9935.0      51.7806       0.7073    5461.1226     184.8499
    9934.5      36.2376       0.7063    5460.9888     184.8445
    9934.0      32.3275       0.7038    5460.8374     184.8382
    9933.5      28.4418       0.7010    5460.6704     184.8343
    9933.0      23.2608       0.7013    5460.5029     184.8284
    9932.5      25.8416       0.7034    5460.3691     184.8224
    9932.0      25.8416       0.7038    5460.2822     184.8156
    9931.5      21.9802       0.7038    5460.1563     184.8085
    9931.0      25.8659       0.7042    5459.9883     184.8040
    9930.5      32.3421       0.7038    5459.8296     184.7973
    9930.0      34.9229       0.7035    5459.6650     184.7893
    9929.5      38.8086       0.7045    5459.5566     184.7832
    9929.0      58.1545       0.7057    5459.4360     184.7742
    9928.5      65.9260       0.7052    5459.2529     184.7687
    9928.0      64.6308       0.7043    5459.0347     184.7628
    9927.5      67.3288       0.7057    5458.8130     184.7538
    9927.0      67.2996       0.7069    5458.6558     184.7449
    9926.5      51.8394       0.7067    5458.5054     184.7355
    9926.0      46.6584       0.7078    5458.3032     184.7275
    9925.5      45.3632       0.7092    5458.0835     184.7208
    9925.0      34.9229       0.7085    5457.8882     184.7110
    9924.5      37.5426       0.7084    5457.7593     184.6993
    9924.0      46.6093       0.7103    5457.6421     184.6893
    9923.5      47.9046       0.7121    5457.5103     184.6790
    9923.0      50.4610       0.7138    5457.3862     184.6713
    9922.5      49.1852       0.7152    5457.2710     184.6635
    9922.0      46.6241       0.7108    5457.1694     184.6544
    9921.5      38.8235       0.7056    5457.0723     184.6446
    9921.0      36.2330       0.6985    5456.9292     184.6353
    9920.5      32.3813       0.6915    5456.7769     184.6289
    9920.0      31.0861       0.6878    5456.6284     184.6216
    9919.5      33.6082       0.6891    5456.5137     184.6126
    9919.0      29.7516       0.6903    5456.3804     184.6053
    9918.5      25.8659       0.6933    5456.1948     184.5978
    9918.0      25.8464       0.6968    5456.0186     184.5902
    9917.5      33.6179       0.6979    5455.8472     184.5852
    9917.0      29.7711       0.6986    5455.7339     184.5781
    9916.5      31.0860       0.7007    5455.6133     184.5712
    9916.0      36.2329       0.7031    5455.4531     184.5650
    9915.5      42.7286       0.7052    5455.2656     184.5600
    9915.0      47.9096       0.7067    5455.0796     184.5544
    9914.5      54.3858       0.7079    5454.9395     184.5469
    9914.0      62.0890       0.7074    5454.7925     184.5412
    9913.5      66.0088       0.7075    5454.6343     184.5339
    9913.0      59.5326       0.7079    5454.4658     184.5279
    9912.5      51.7611       0.7081    5454.2900     184.5224
    9912.0      49.1316       0.7075    5454.0811     184.5151
    9911.5      54.4300       0.7078    5453.9014     184.5073
    9911.0      54.4300       0.7084    5453.8071     184.4996
    9910.5      62.1528       0.7082    5453.7173     184.4916
    9910.0      63.4480       0.7077    5453.5806     184.4843
    9909.5      66.0775       0.7085    5453.3843     184.4799
    9909.0      60.8278       0.7091    5453.2114     184.4725
    9908.5      60.7791       0.7087    5453.0532     184.4646
    9908.0      56.9421       0.7085    5452.9175     184.4557
    9907.5      62.1230       0.7090    5452.7979     184.4464
    9907.0      64.7135       0.7094    5452.6050     184.4385
    9906.5      60.7937       0.7094    5452.3906     184.4322
    9906.0      63.4918       0.7096    5452.2197     184.4230
    9905.5      63.4918       0.7089    5452.0981     184.4137
    9905.0      67.3093       0.7078    5451.9810     184.4049
