~VERSION INFORMATION
VERS.           2.0   :CWLS Log ASCII Standard - VERSION 2.0
WRAP.           NO    :One Line per depth step
PROD.  Schlumberger   :LAS Producer
PROG.  DLIS to ASCII 17C0-154                          :LAS Program name and version
CREA.        2010/09/16 16:20                          :LAS Creation date {YYYY/MM/DD hh:mm}
DLIS_CREA.  2010-Sep-07 20:55                          :DLIS Creation date and time {YYYY-MMM-DD hh:mm}
SOURCE.     CFU_31F_#1_DENBURY_ONSHORE_7-SEP-2010_10660-10934_MAIN_PASS_RST_PSP_071PUP.DLIS  :DLIS File Name
FILE-ID.     FCS_GMS_RST_PSP_071PUP                    :File Identification Number
#--------------------------------------------------
~WELL INFORMATION
#MNEM.UNIT      DATA             DESCRIPTION
#---- ------ --------------   -----------------------------
STRT .F        10666.5       :START DEPTH     
STOP .F         8508.5       :STOP DEPTH     
STEP .F           -0.5       :STEP     
NULL .          -999.25      :NULL VALUE
COMP .        DENBURY ONSHORE, LLC                     :COMPANY
WELL .        CFU 31F #1                               :WELL
FLD  .        CRANFIELD                                :FIELD
LOC  .                                                 :LOCATION
CNTY .        FRANKLIN                                 :COUNTY
STAT .        MISSISSIPPI                              :STATE
CTRY .                                                 :COUNTRY
API  .        23-037-21488-0000                        :API NUMBER
UWI  .        23-037-21488-0000                        :UNIQUE WELL ID
DATE .        07-Sep-2010                              :LOG DATE {DD-MMM-YYYY}
SRVC .        Schlumberger                             :SERVICE COMPANY
LATI .DEG                                              :LATITUDE
LONG .DEG                                              :LONGITUDE
GDAT .                                                 :GeoDetic Datum
SECT .        31                                       :Section
RANG .        1E                                       :Range
TOWN .        7N                                       :Township
#-----------------------------------------------------------------------------
~PARAMETER INFORMATION
#MNEM.UNIT    VALUE                      DESCRIPTION
#---- -----   --------------------       ------------------------
RUN  .          1                        :RUN NUMBER
PDAT .        GROUND LEVEL               :Permanent Datum
EPD  .F         315.700012               :Elevation of Permanent Datum above Mean Sea Level
LMF  .          KELLY BUSHING            :Logging Measured From (Name of Logging Elevation Reference)
APD  .F          18.000000               :Elevation of Depth Reference (LMF) above Permanent Datum
#-----------------------------------------------------------------------------
~CURVE INFORMATION
#MNEM.UNIT   API CODE                                  DESCRIPTION
#---- -----  --------                                  -----------------------
DEPT .F                                                :DEPTH (BOREHOLE) {F10.1}
CCLD .V                                                :CCL Discriminated Amplitude {F13.4}
CIRF_FIL.                                              :Capture to Inelastic Ratio Far Filtered {F13.4}
CIRN_FIL.                                              :Capture to Inelastic Ratio Near Filtered {F13.4}
FBAC .HZ                                               :Far Background Count Rate {F13.4}
GR   .GAPI                                             :Gamma Ray {F13.4}
SIBF .CU                                               :Sigma Borehole Fluid {F13.4}
SIGM .CU                                               :Formation Sigma (Neutron Capture Cross Section) {F13.4}
TPHI .CFCF                                             :Thermal Decay Porosity {F13.4}
#-----------------------------------------------------------------------------
# 
#     DEPT        CCLD       CIRF_FIL     CIRN_FIL       FBAC         GR           SIBF         SIGM         TPHI
#
~A  
# ...
    9161.5       0.0000       0.9498       0.3697    2355.0979      44.1856     152.2134      27.1445       0.2881
    9161.0       0.0000       0.9840       0.3763    2348.6807      43.6501     152.4057      26.4989       0.2892
    9160.5       0.0000       0.9873       0.3781    2367.7983      43.9293     152.2613      27.1387       0.2873
    9160.0       0.0000       0.9411       0.3677    2380.2314      44.3755     152.1568      28.1105       0.2871
    9159.5       0.0000       0.8960       0.3543    2405.4744      44.0823     151.6667      28.8842       0.2941
    9159.0       0.0000       0.8752       0.3558    2377.5388      44.9752     151.7319      29.2700       0.2949
    9158.5       0.0000       0.9017       0.3607    2356.8049      45.2381     150.9793      29.0124       0.2965
    9158.0       0.0000       0.9162       0.3684    2333.2754      42.9123     150.8201      28.5941       0.2921
    9157.5       0.0000       0.9394       0.3753    2361.8794      43.0908     150.0817      28.1137       0.2894
    9157.0       0.0000       0.9600       0.3788    2379.3987      42.1416     149.2644      27.5763       0.2812
    9156.5       0.0000       0.9783       0.3738    2385.0137      42.2309     148.4751      27.1703       0.2749
    9156.0       0.0000       0.9675       0.3681    2382.7471      39.8535     147.8168      26.9552       0.2673
    9155.5       0.0000       0.9342       0.3456    2375.7952      41.1484     147.0057      27.5136       0.2646
    9155.0       0.0000       0.9181       0.3407    2363.7629      40.8759     146.5036      28.1972       0.2592
    9154.5       0.0000       0.9274       0.3385    2343.3142      42.3473     145.9921      28.2313       0.2616
    9154.0       0.0000       0.9392       0.3537    2291.3335      44.4835     145.6597      28.0087       0.2634
    9153.5       0.0000       0.9378       0.3610    2286.6487      47.7583     145.6783      28.1574       0.2662
    9153.0       0.0000       0.9325       0.3628    2296.6753      46.9772     144.8338      28.0520       0.2636
    9152.5       0.0000       0.9553       0.3578    2330.8999      47.5398     144.6302      27.6028       0.2594
    9152.0       0.0000       0.9906       0.3616    2312.8518      48.1190     144.0681      26.3281       0.2566
    9151.5       0.0000       1.0447       0.3700    2326.3489      48.2000     143.7371      25.5139       0.2537
    9151.0       0.0000       1.0461       0.3760    2315.6536      49.2486     143.0928      25.5037       0.2509
    9150.5       0.0000       1.0271       0.3671    2309.8989      52.1767     142.8089      26.0667       0.2483
    9150.0       0.0000       0.9851       0.3547    2313.2412      51.0879     142.5368      27.5326       0.2519
    9149.5       0.0000       0.9532       0.3511    2321.6636      50.5859     141.9891      28.4378       0.2580
    9149.0       0.0000       0.9293       0.3481    2347.7273      49.0883     142.4367      29.0261       0.2642
    9148.5       0.0000       0.9119       0.3495    2370.7219      47.0532     142.5839      28.4594       0.2656
    9148.0       0.0000       0.9225       0.3545    2398.6631      43.4506     141.8815      27.9817       0.2649
    9147.5       0.0000       0.9458       0.3623    2388.1072      43.0684     141.6920      27.6499       0.2623
    9147.0       0.0000       0.9664       0.3679    2391.4495      44.0169     141.5793      27.4348       0.2583
    9146.5       0.0000       0.9766       0.3641    2405.6206      45.0833     141.1245      27.4174       0.2545
    9146.0       0.0000       0.9521       0.3606    2385.9680      45.7371     140.7079      27.6540       0.2525
    9145.5       0.0000       0.9229       0.3520    2394.2568      48.7360     140.1057      28.8198       0.2602
    9145.0       0.0000       0.8856       0.3528    2413.6418      48.7443     140.1382      29.3891       0.2737
    9144.5       0.0000       0.8672       0.3478    2386.7703      48.6583     140.0306      30.2695       0.2875
    9144.0       0.0000       0.8607       0.3471    2384.6311      48.4958     139.2103      30.0851       0.2879
    9143.5       0.0000       0.8732       0.3431    2347.8665      48.2537     138.8599      30.0190       0.2778
    9143.0       0.0000       0.8937       0.3464    2336.6365      46.7478     138.2853      29.1320       0.2636
    9142.5       0.0000       0.9089       0.3485    2317.2515      47.7258     137.6067      28.4766       0.2544
    9142.0       0.0000       0.9058       0.3496    2329.0166      45.7503     137.1195      27.9407       0.2477
    9141.5       0.0000       0.9077       0.3464    2306.1289      43.7568     136.7477      28.1066       0.2465
    9141.0       0.0000       0.9027       0.3482    2291.1558      41.7543     136.4883      28.2375       0.2463
    9140.5       0.0000       0.9214       0.3485    2307.1985      42.4841     136.4378      28.3016       0.2539
    9140.0       0.0000       0.9327       0.3514    2282.5996      40.0385     136.3149      28.2474       0.2570
    9139.5      -0.0042       0.9517       0.3446    2287.2788      39.6895     136.2903      28.4284       0.2650
    9139.0       0.0061       0.9552       0.3482    2302.2520      39.6935     136.2480      28.6378       0.2701
    9138.5       0.0251       0.9692       0.3498    2321.3696      41.6742     136.1964      28.2036       0.2758
    9138.0       0.0209       0.9847       0.3599    2342.3589      40.2122     135.9944      28.1209       0.2656
    9137.5       0.0000       0.9991       0.3621    2335.9419      42.3282     135.8795      27.4130       0.2501
    9137.0       0.0000       1.0125       0.3723    2327.9204      44.6443     135.7188      26.8455       0.2335
    9136.5       0.0000       1.0269       0.3770    2315.3477      46.8112     135.0408      26.1422       0.2259
    9136.0       0.0000       1.0484       0.3827    2337.9744      45.3444     135.2610      25.8253       0.2232
    9135.5       0.0000       1.0501       0.3849    2341.1829      46.9644     134.9638      26.3366       0.2267
    9135.0       0.0000       1.0444       0.3897    2331.1563      49.4180     134.5614      26.5254       0.2369
    9134.5       0.0000       1.0082       0.3877    2343.9905      50.1122     134.4183      27.8547       0.2467
    9134.0       0.0000       0.9486       0.3750    2323.9370      50.4475     134.2505      29.1896       0.2615
    9133.5       0.0000       0.8822       0.3574    2334.6321      53.4675     133.9356      30.7676       0.2728
    9133.0       0.0000       0.8348       0.3424    2319.2578      52.7966     134.2001      31.4103       0.2842
    9132.5       0.0000       0.8296       0.3399    2334.1035      50.5532     134.1510      31.7771       0.2881
    9132.0       0.0000       0.8324       0.3433    2325.2539      51.2530     134.5907      31.6643       0.2897
    9131.5       0.0000       0.8480       0.3503    2328.9971      49.7862     134.6528      31.7570       0.2917
    9131.0       0.0000       0.8566       0.3555    2340.2009      49.0959     134.9625      31.8333       0.2924
    9130.5       0.0000       0.8726       0.3613    2340.3281      49.1822     134.8997      31.7079       0.2972
    9130.0       0.0000       0.8741       0.3618    2368.6704      49.4411     135.0326      31.7234       0.3013
    9129.5       0.0000       0.8612       0.3587    2382.8413      48.0605     135.1430      31.7009       0.3047
    9129.0       0.0000       0.8554       0.3502    2392.3335      48.4056     135.4754      31.9172       0.3044
    9128.5       0.0000       0.8487       0.3496    2403.8308      46.7662     135.4380      31.5071       0.3023
    9128.0       0.0000       0.8616       0.3537    2399.6863      47.6291     135.2823      30.9808       0.2985
    9127.5       0.0000       0.8787       0.3604    2419.4724      47.4105     135.7459      29.6624       0.2941
    9127.0       0.0000       0.9188       0.3693    2420.4021      45.2495     135.8917      28.7545       0.2840
