~VERSION INFORMATION
VERS.           2.0   :CWLS Log ASCII Standard - VERSION 2.0
WRAP.           NO    :One Line per depth step
PROD.  Schlumberger   :LAS Producer
PROG.  DLIS to ASCII 17C0-154                          :LAS Program name and version
CREA.        2010/09/30 15:14                          :LAS Creation date {YYYY/MM/DD hh:mm}
DLIS_CREA.  2010-Sep-07 20:46                          :DLIS Creation date and time {YYYY-MMM-DD hh:mm}
SOURCE.     CFU_31F_#1_DENBURY_ONSHORE_7-SEP-2010_10660-10934_PRES_TEMP_DL_PSP_069PUP.DLIS  :DLIS File Name
FILE-ID.     FCS_GMS_RST_PSP_069PUP                    :File Identification Number
#--------------------------------------------------
~WELL INFORMATION
#MNEM.UNIT      DATA             DESCRIPTION
#---- ------ --------------   -----------------------------
STRT .F        10666.5       :START DEPTH     
STOP .F          -41.5       :STOP DEPTH     
STEP .F           -0.5       :STEP     
NULL .          -999.25      :NULL VALUE
COMP .        DENBURY ONSHORE, LLC                     :COMPANY
WELL .        CFU 31F #1                               :WELL
FLD  .        CRANFIELD                                :FIELD
LOC  .                                                 :LOCATION
CNTY .        FRANKLIN                                 :COUNTY
STAT .        MISSISSIPPI                              :STATE
CTRY .                                                 :COUNTRY
API  .        23-037-21488-0000                        :API NUMBER
UWI  .        23-037-21488-0000                        :UNIQUE WELL ID
DATE .        07-Sep-2010                              :LOG DATE {DD-MMM-YYYY}
SRVC .        Schlumberger                             :SERVICE COMPANY
LATI .DEG                                              :LATITUDE
LONG .DEG                                              :LONGITUDE
GDAT .                                                 :GeoDetic Datum
SECT .        31                                       :Section
RANG .        1E                                       :Range
TOWN .        7N                                       :Township
#-----------------------------------------------------------------------------
~PARAMETER INFORMATION
#MNEM.UNIT    VALUE                      DESCRIPTION
#---- -----   --------------------       ------------------------
RUN  .          1                        :RUN NUMBER
PDAT .        GROUND LEVEL               :Permanent Datum
EPD  .F         315.700012               :Elevation of Permanent Datum above Mean Sea Level
LMF  .          KELLY BUSHING            :Logging Measured From (Name of Logging Elevation Reference)
APD  .F          18.000000               :Elevation of Depth Reference (LMF) above Permanent Datum
#-----------------------------------------------------------------------------
~CURVE INFORMATION
#MNEM.UNIT   API CODE                                  DESCRIPTION
#---- -----  --------                                  -----------------------
DEPT .F                                                :DEPTH (BOREHOLE) {F10.1}
GR   .GAPI                                             :Gamma Ray {F13.4}
WFDE .G/C3                                             :Well Fluid Density Corrected {F13.4}
WPRE .PSI                                              :Well Pressure {F13.4}
WTEP .DEGF                                             :Well Temperature {F13.4}
#-----------------------------------------------------------------------------
# 
#     DEPT        GR           WFDE         WPRE         WTEP
#
~A  
# ...
    1395.5      41.8684       0.7228    2766.0884     107.3898
    1395.0      39.2812       0.7245    2765.9485     107.3900
    1394.5      38.8386       0.7248    2765.7500     107.3896
    1394.0      40.1403       0.7236    2765.5620     107.3882
    1393.5      42.7276       0.7224    2765.4290     107.3894
    1393.0      39.2475       0.7212    2765.3005     107.3885
    1392.5      39.2475       0.7194    2765.1587     107.3868
    1392.0      45.3213       0.7179    2765.0334     107.3866
    1391.5      51.7489       0.7172    2764.9155     107.3859
    1391.0      52.6287       0.7182    2764.7925     107.3839
    1390.5      49.1790       0.7185    2764.6460     107.3811
    1390.0      46.5918       0.7196    2764.4492     107.3794
    1389.5      37.9307       0.7202    2764.2593     107.3776
    1389.0      30.2080       0.7214    2764.1055     107.3769
    1388.5      29.3282       0.7206    2763.9404     107.3775
    1388.0      30.2058       0.7200    2763.7488     107.3774
    1387.5      28.4810       0.7197    2763.5972     107.3786
    1387.0      27.6185       0.7191    2763.4180     107.3788
    1386.5      27.6185       0.7180    2763.2568     107.3787
    1386.0      30.2058       0.7177    2763.1230     107.3771
    1385.5      36.2275       0.7184    2762.9773     107.3757
    1385.0      34.9387       0.7194    2762.8088     107.3740
    1384.5      34.0763       0.7209    2762.6587     107.3710
    1384.0      34.9322       0.7228    2762.4717     107.3697
    1383.5      29.7664       0.7245    2762.3369     107.3676
    1383.0      21.1423       0.7258    2762.2051     107.3665
    1382.5      20.7062       0.7252    2762.0696     107.3665
    1382.0      18.9846       0.7245    2761.8965     107.3668
    1381.5      18.9846       0.7236    2761.7227     107.3659
    1381.0      21.5632       0.7246    2761.5908     107.3662
    1380.5      23.2880       0.7262    2761.4702     107.3670
    1380.0      25.8905       0.7298    2761.2996     107.3671
    1379.5      28.4744       0.7331    2761.1257     107.3670
    1379.0      30.2090       0.7305    2761.0007     107.3673
    1378.5      25.8970       0.7249    2760.8799     107.3656
    1378.0      24.1721       0.7155    2760.7664     107.3636
    1377.5      22.4321       0.7093    2760.5916     107.3611
    1377.0      23.7339       0.7049    2760.4055     107.3603
    1376.5      18.5496       0.7076    2760.2134     107.3590
    1376.0      22.8617       0.7113    2760.0447     107.3573
    1375.5      25.4641       0.7171    2759.8936     107.3551
    1375.0      28.9138       0.7189    2759.6975     107.3538
    1374.5      29.3369       0.7188    2759.5149     107.3529
    1374.0      33.2258       0.7187    2759.3528     107.3517
    1373.5      31.5010       0.7185    2759.2449     107.3507
    1373.0      31.4858       0.7186    2759.1313     107.3489
    1372.5      29.7610       0.7190    2758.9712     107.3492
    1372.0      28.0492       0.7206    2758.8474     107.3467
    1371.5      24.1537       0.7211    2758.6956     107.3451
    1371.0      32.8104       0.7211    2758.5347     107.3439
    1370.5      28.4984       0.7202    2758.3982     107.3437
    1370.0      29.3608       0.7190    2758.2688     107.3438
    1369.5      29.3543       0.7168    2758.0920     107.3434
    1369.0      32.8104       0.7171    2757.9165     107.3418
    1368.5      28.4658       0.7173    2757.7524     107.3402
    1368.0      31.9154       0.7183    2757.6130     107.3393
    1367.5      28.4744       0.7196    2757.4580     107.3372
    1367.0      29.3303       0.7215    2757.3252     107.3362
    1366.5      29.7697       0.7213    2757.1550     107.3348
    1366.0      28.9073       0.7213    2757.0210     107.3343
    1365.5      30.6321       0.7202    2756.8962     107.3337
    1365.0      35.7979       0.7186    2756.7563     107.3334
    1364.5      39.2714       0.7167    2756.5933     107.3337
    1364.0      38.8321       0.7171    2756.4375     107.3316
    1363.5      40.1371       0.7171    2756.2949     107.3303
    1363.0      39.2747       0.7188    2756.1074     107.3303
    1362.5      37.5672       0.7189    2755.9448     107.3288
    1362.0      34.5087       0.7203    2755.7261     107.3270
    1361.5      35.3885       0.7197    2755.5261     107.3252
    1361.0      32.3587       0.7204    2755.3474     107.3246
    1360.5      29.7628       0.7184    2755.2473     107.3234
    1360.0      28.0336       0.7187    2755.1279     107.3201
    1359.5      29.3434       0.7173    2754.9995     107.3196
    1359.0      27.6077       0.7176    2754.8635     107.3185
    1358.5      25.8829       0.7172    2754.7014     107.3169
    1358.0      29.3412       0.7198    2754.5630     107.3146
    1357.5      28.4658       0.7202    2754.4048     107.3141
    1357.0      28.4658       0.7213    2754.2549     107.3136
    1356.5      36.2535       0.7208    2754.1165     107.3117
    1356.0      40.5656       0.7222    2753.9780     107.3097
    1355.5      40.1425       0.7209    2753.8076     107.3096
    1355.0      39.2801       0.7213    2753.7134     107.3084
    1354.5      40.1425       0.7201    2753.5735     107.3066
    1354.0      36.2405       0.7204    2753.4058     107.3064
    1353.5      35.3781       0.7193    2753.2122     107.3050
    1353.0      33.2139       0.7209    2753.0498     107.3041
    1352.5      39.2508       0.7222    2752.9006     107.3011
    1352.0      41.8663       0.7247    2752.7219     107.2975
    1351.5      38.8364       0.7260    2752.5278     107.2954
    1351.0      36.2557       0.7308    2752.3489     107.2935
    1350.5      37.9805       0.7322    2752.2109     107.2913
    1350.0      37.9805       0.7338    2752.0813     107.2905
    1349.5      36.2275       0.7323    2751.9114     107.2898
    1349.0      41.4019       0.7304    2751.7432     107.2886
    1348.5      48.3251       0.7223    2751.5779     107.2859
    1348.0      52.6113       0.7157    2751.4050     107.2833
    1347.5      49.1768       0.7074    2751.2583     107.2810
    1347.0      52.6265       0.7054    2751.1301     107.2791
    1346.5      48.3144       0.7050    2750.9988     107.2782
    1346.0      36.2102       0.7098    2750.8513     107.2778
    1345.5      31.9241       0.7124    2750.7129     107.2779
    1345.0      30.1841       0.7172    2750.6101     107.2765
    1344.5      22.4224       0.7177    2750.4907     107.2745
    1344.0      28.4918       0.7202    2750.3440     107.2720
    1343.5      35.3911       0.7200    2750.1848     107.2688
    1343.0      38.4210       0.7242    2750.0078     107.2661
    1342.5      38.4210       0.7247    2749.8262     107.2627
    1342.0      44.4578       0.7269    2749.6448     107.2608
    1341.5      39.2508       0.7253    2749.4438     107.2588
    1341.0      36.6744       0.7252    2749.2830     107.2589
    1340.5      32.7822       0.7226    2749.1038     107.2576
    1340.0      33.6511       0.7234    2748.9641     107.2570
    1339.5      28.4766       0.7208    2748.8591     107.2566
    1339.0      27.6142       0.7208    2748.7297     107.2560
    1338.5      27.1770       0.7215    2748.5513     107.2556
    1338.0      37.5260       0.7240    2748.4075     107.2537
    1337.5      40.1067       0.7253    2748.2720     107.2513
    1337.0      43.5563       0.7263    2748.0942     107.2505
    1336.5      45.3029       0.7253    2747.9514     107.2493
    1336.0      51.7402       0.7250    2747.7800     107.2483
    1335.5      43.1334       0.7249    2747.6404     107.2476
    1335.0      44.8582       0.7244    2747.4724     107.2477
    1334.5      41.4086       0.7245    2747.3120     107.2455
    1334.0      39.6620       0.7229    2747.1926     107.2442
    1333.5      34.5135       0.7223    2747.0574     107.2437
    1333.0      35.3781       0.7241    2746.9058     107.2422
    1332.5      29.3412       0.7222    2746.7383     107.2419
