~VERSION INFORMATION
VERS.           2.0   :CWLS Log ASCII Standard - VERSION 2.0
WRAP.           NO    :One Line per depth step
PROD.  Schlumberger   :LAS Producer
PROG.  DLIS to ASCII 17C0-154                          :LAS Program name and version
CREA.        2010/09/30 15:14                          :LAS Creation date {YYYY/MM/DD hh:mm}
DLIS_CREA.  2010-Sep-07 20:46                          :DLIS Creation date and time {YYYY-MMM-DD hh:mm}
SOURCE.     CFU_31F_#1_DENBURY_ONSHORE_7-SEP-2010_10660-10934_PRES_TEMP_DL_PSP_069PUP.DLIS  :DLIS File Name
FILE-ID.     FCS_GMS_RST_PSP_069PUP                    :File Identification Number
#--------------------------------------------------
~WELL INFORMATION
#MNEM.UNIT      DATA             DESCRIPTION
#---- ------ --------------   -----------------------------
STRT .F        10666.5       :START DEPTH     
STOP .F          -41.5       :STOP DEPTH     
STEP .F           -0.5       :STEP     
NULL .          -999.25      :NULL VALUE
COMP .        DENBURY ONSHORE, LLC                     :COMPANY
WELL .        CFU 31F #1                               :WELL
FLD  .        CRANFIELD                                :FIELD
LOC  .                                                 :LOCATION
CNTY .        FRANKLIN                                 :COUNTY
STAT .        MISSISSIPPI                              :STATE
CTRY .                                                 :COUNTRY
API  .        23-037-21488-0000                        :API NUMBER
UWI  .        23-037-21488-0000                        :UNIQUE WELL ID
DATE .        07-Sep-2010                              :LOG DATE {DD-MMM-YYYY}
SRVC .        Schlumberger                             :SERVICE COMPANY
LATI .DEG                                              :LATITUDE
LONG .DEG                                              :LONGITUDE
GDAT .                                                 :GeoDetic Datum
SECT .        31                                       :Section
RANG .        1E                                       :Range
TOWN .        7N                                       :Township
#-----------------------------------------------------------------------------
~PARAMETER INFORMATION
#MNEM.UNIT    VALUE                      DESCRIPTION
#---- -----   --------------------       ------------------------
RUN  .          1                        :RUN NUMBER
PDAT .        GROUND LEVEL               :Permanent Datum
EPD  .F         315.700012               :Elevation of Permanent Datum above Mean Sea Level
LMF  .          KELLY BUSHING            :Logging Measured From (Name of Logging Elevation Reference)
APD  .F          18.000000               :Elevation of Depth Reference (LMF) above Permanent Datum
#-----------------------------------------------------------------------------
~CURVE INFORMATION
#MNEM.UNIT   API CODE                                  DESCRIPTION
#---- -----  --------                                  -----------------------
DEPT .F                                                :DEPTH (BOREHOLE) {F10.1}
GR   .GAPI                                             :Gamma Ray {F13.4}
WFDE .G/C3                                             :Well Fluid Density Corrected {F13.4}
WPRE .PSI                                              :Well Pressure {F13.4}
WTEP .DEGF                                             :Well Temperature {F13.4}
#-----------------------------------------------------------------------------
# 
#     DEPT        GR           WFDE         WPRE         WTEP
#
~A  
# ...
    2856.0      23.3044       0.7505    3222.0171     112.7686
    2855.5      28.4659       0.7502    3221.8188     112.7654
    2855.0      31.0564       0.7491    3221.6755     112.7638
    2854.5      32.3517       0.7465    3221.5483     112.7605
    2854.0      29.7368       0.7432    3221.3901     112.7592
    2853.5      29.7368       0.7402    3221.2559     112.7561
    2853.0      25.8803       0.7400    3221.0979     112.7549
    2852.5      28.4708       0.7395    3220.9106     112.7524
    2852.0      24.5753       0.7406    3220.8022     112.7489
    2851.5      25.8949       0.7415    3220.6814     112.7475
    2851.0      29.7807       0.7444    3220.5500     112.7448
    2850.5      36.2569       0.7465    3220.3955     112.7419
    2850.0      38.8474       0.7485    3220.2468     112.7398
    2849.5      44.0089       0.7503    3220.0940     112.7385
    2849.0      36.2374       0.7482    3219.9709     112.7358
    2848.5      33.6469       0.7438    3219.8167     112.7325
    2848.0      27.1707       0.7410    3219.6331     112.7293
    2847.5      21.9897       0.7401    3219.4800     112.7266
    2847.0      22.0189       0.7390    3219.3096     112.7235
    2846.5      32.3809       0.7415    3219.1282     112.7211
    2846.0      40.1037       0.7440    3218.9746     112.7179
    2845.5      41.3989       0.7456    3218.8394     112.7144
    2845.0      43.9894       0.7457    3218.6733     112.7105
    2844.5      41.3794       0.7433    3218.5549     112.7081
    2844.0      34.9032       0.7412    3218.4165     112.7055
    2843.5      27.1804       0.7402    3218.2434     112.7034
    2843.0      24.5802       0.7383    3218.1072     112.7024
    2842.5      19.3992       0.7382    3217.9189     112.7002
    2842.0      19.4187       0.7410    3217.7556     112.6990
    2841.5      28.4854       0.7441    3217.6199     112.6967
    2841.0      28.4854       0.7461    3217.4338     112.6953
    2840.5      27.1950       0.7483    3217.2300     112.6939
    2840.0      29.8052       0.7487    3217.0486     112.6911
    2839.5      32.3957       0.7487    3216.8696     112.6890
    2839.0      20.7336       0.7479    3216.7522     112.6870
    2838.5      24.6193       0.7471    3216.6531     112.6850
    2838.0      29.8052       0.7462    3216.4890     112.6827
    2837.5      27.1950       0.7451    3216.3069     112.6818
    2837.0      23.3093       0.7447    3216.1296     112.6791
    2836.5      27.1804       0.7451    3215.9595     112.6763
    2836.0      25.8852       0.7458    3215.8369     112.6739
    2835.5      23.2947       0.7465    3215.6841     112.6699
    2835.0      29.7368       0.7476    3215.5049     112.6678
    2834.5      33.6226       0.7490    3215.3298     112.6657
    2834.0      37.5278       0.7502    3215.1570     112.6641
    2833.5      34.9569       0.7508    3214.9956     112.6611
    2833.0      32.3616       0.7515    3214.8618     112.6578
    2832.5      25.9194       0.7511    3214.7236     112.6550
    2832.0      23.3289       0.7504    3214.5234     112.6523
    2831.5      19.4432       0.7493    3214.3564     112.6508
    2831.0      18.1283       0.7485    3214.1624     112.6475
    2830.5      19.4187       0.7461    3213.9971     112.6443
    2830.0      16.8282       0.7444    3213.8445     112.6401
    2829.5      18.1235       0.7436    3213.6790     112.6379
    2829.0      19.4187       0.7430    3213.4980     112.6337
    2828.5      28.4854       0.7423    3213.3364     112.6309
    2828.0      31.0662       0.7433    3213.1782     112.6288
    2827.5      31.0662       0.7444    3213.0071     112.6257
    2827.0      28.4611       0.7447    3212.8308     112.6230
    2826.5      29.7563       0.7448    3212.7285     112.6202
    2826.0      21.9848       0.7459    3212.6187     112.6169
    2825.5      19.4138       0.7469    3212.4253     112.6133
    2825.0      25.8901       0.7478    3212.2429     112.6111
    2824.5      33.6323       0.7487    3212.0503     112.6089
    2824.0      29.7466       0.7501    3211.8481     112.6055
    2823.5      42.6309       0.7504    3211.7104     112.6026
    2823.0      47.8118       0.7505    3211.5842     112.6013
    2822.5      45.2214       0.7502    3211.4302     112.5984
    2822.0      38.7889       0.7499    3211.2244     112.5954
    2821.5      36.1985       0.7488    3211.0713     112.5937
    2821.0      20.7139       0.7478    3210.9185     112.5897
    2820.5      18.1235       0.7497    3210.8032     112.5870
    2820.0      16.8282       0.7519    3210.7156     112.5832
    2819.5      18.0991       0.7510    3210.5701     112.5799
    2819.0      20.6896       0.7503    3210.4089     112.5772
    2818.5      18.1088       0.7458    3210.2354     112.5745
    2818.0      12.9279       0.7385    3210.0884     112.5723
    2817.5      14.6603       0.7352    3209.9749     112.5699
    2817.0      15.9507       0.7352    3209.8401     112.5671
    2816.5      21.1317       0.7358    3209.6848     112.5652
    2816.0      23.7221       0.7407    3209.5103     112.5640
    2815.5      26.3029       0.7460    3209.3391     112.5603
    2815.0      31.0467       0.7474    3209.1680     112.5589
    2814.5      28.5050       0.7484    3208.9783     112.5577
    2814.0      32.3421       0.7482    3208.8381     112.5545
    2813.5      38.8183       0.7473    3208.7126     112.5517
    2813.0      42.7138       0.7465    3208.5420     112.5511
    2812.5      40.1233       0.7456    3208.3599     112.5487
    2812.0      38.7938       0.7445    3208.1638     112.5458
    2811.5      36.2913       0.7440    3207.9807     112.5443
    2811.0      32.3861       0.7430    3207.8240     112.5398
    2810.5      29.7956       0.7416    3207.6982     112.5369
    2810.0      27.1905       0.7412    3207.5383     112.5333
    2809.5      32.3861       0.7426    3207.3574     112.5305
    2809.0      23.2801       0.7436    3207.1936     112.5281
    2808.5      25.8901       0.7449    3207.0103     112.5233
    2808.0      27.1658       0.7462    3206.8826     112.5199
    2807.5      31.0662       0.7469    3206.7483     112.5162
    2807.0      34.9519       0.7466    3206.5938     112.5143
    2806.5      40.1329       0.7467    3206.4238     112.5117
    2806.0      38.8133       0.7473    3206.2598     112.5092
    2805.5      41.4527       0.7464    3206.0820     112.5076
    2805.0      36.2717       0.7450    3205.8931     112.5036
    2804.5      31.0615       0.7449    3205.7761     112.5013
    2804.0      29.7663       0.7448    3205.6394     112.4996
    2803.5      28.4954       0.7437    3205.4712     112.4962
    2803.0      24.5802       0.7435    3205.3113     112.4943
    2802.5      21.9897       0.7442    3205.1318     112.4921
    2802.0      14.2475       0.7441    3204.9473     112.4907
    2801.5       9.0665       0.7440    3204.8293     112.4889
    2801.0      10.3617       0.7441    3204.7058     112.4864
    2800.5      14.2182       0.7449    3204.5493     112.4849
    2800.0      20.6945       0.7467    3204.4004     112.4840
    2799.5      23.2850       0.7479    3204.2219     112.4816
    2799.0      25.8755       0.7480    3204.0396     112.4799
    2798.5      24.5607       0.7488    3203.9351     112.4772
    2798.0      21.9995       0.7493    3203.8396     112.4751
    2797.5      19.4090       0.7478    3203.6987     112.4728
    2797.0      21.9995       0.7464    3203.5332     112.4722
    2796.5      33.6031       0.7463    3203.3562     112.4698
    2796.0      36.2425       0.7454    3203.1731     112.4670
    2795.5      36.2425       0.7440    3203.0410     112.4664
    2795.0      45.3092       0.7428    3202.9089     112.4635
    2794.5      51.7854       0.7418    3202.7151     112.4602
    2794.0      41.4771       0.7403    3202.4956     112.4583
    2793.5      41.4184       0.7425    3202.2939     112.4548
    2793.0      38.8182       0.7452    3202.1118     112.4510
