~VERSION INFORMATION
VERS.           2.0   :CWLS Log ASCII Standard - VERSION 2.0
WRAP.           NO    :One Line per depth step
PROD.  Schlumberger   :LAS Producer
PROG.  DLIS to ASCII 17C0-154                          :LAS Program name and version
CREA.        2010/09/16 16:20                          :LAS Creation date {YYYY/MM/DD hh:mm}
DLIS_CREA.  2010-Sep-07 20:55                          :DLIS Creation date and time {YYYY-MMM-DD hh:mm}
SOURCE.     CFU_31F_#1_DENBURY_ONSHORE_7-SEP-2010_10660-10934_MAIN_PASS_RST_PSP_071PUP.DLIS  :DLIS File Name
FILE-ID.     FCS_GMS_RST_PSP_071PUP                    :File Identification Number
#--------------------------------------------------
~WELL INFORMATION
#MNEM.UNIT      DATA             DESCRIPTION
#---- ------ --------------   -----------------------------
STRT .F        10666.5       :START DEPTH     
STOP .F         8508.5       :STOP DEPTH     
STEP .F           -0.5       :STEP     
NULL .          -999.25      :NULL VALUE
COMP .        DENBURY ONSHORE, LLC                     :COMPANY
WELL .        CFU 31F #1                               :WELL
FLD  .        CRANFIELD                                :FIELD
LOC  .                                                 :LOCATION
CNTY .        FRANKLIN                                 :COUNTY
STAT .        MISSISSIPPI                              :STATE
CTRY .                                                 :COUNTRY
API  .        23-037-21488-0000                        :API NUMBER
UWI  .        23-037-21488-0000                        :UNIQUE WELL ID
DATE .        07-Sep-2010                              :LOG DATE {DD-MMM-YYYY}
SRVC .        Schlumberger                             :SERVICE COMPANY
LATI .DEG                                              :LATITUDE
LONG .DEG                                              :LONGITUDE
GDAT .                                                 :GeoDetic Datum
SECT .        31                                       :Section
RANG .        1E                                       :Range
TOWN .        7N                                       :Township
#-----------------------------------------------------------------------------
~PARAMETER INFORMATION
#MNEM.UNIT    VALUE                      DESCRIPTION
#---- -----   --------------------       ------------------------
RUN  .          1                        :RUN NUMBER
PDAT .        GROUND LEVEL               :Permanent Datum
EPD  .F         315.700012               :Elevation of Permanent Datum above Mean Sea Level
LMF  .          KELLY BUSHING            :Logging Measured From (Name of Logging Elevation Reference)
APD  .F          18.000000               :Elevation of Depth Reference (LMF) above Permanent Datum
#-----------------------------------------------------------------------------
~CURVE INFORMATION
#MNEM.UNIT   API CODE                                  DESCRIPTION
#---- -----  --------                                  -----------------------
DEPT .F                                                :DEPTH (BOREHOLE) {F10.1}
CCLD .V                                                :CCL Discriminated Amplitude {F13.4}
CIRF_FIL.                                              :Capture to Inelastic Ratio Far Filtered {F13.4}
CIRN_FIL.                                              :Capture to Inelastic Ratio Near Filtered {F13.4}
FBAC .HZ                                               :Far Background Count Rate {F13.4}
GR   .GAPI                                             :Gamma Ray {F13.4}
SIBF .CU                                               :Sigma Borehole Fluid {F13.4}
SIGM .CU                                               :Formation Sigma (Neutron Capture Cross Section) {F13.4}
TPHI .CFCF                                             :Thermal Decay Porosity {F13.4}
#-----------------------------------------------------------------------------
# 
#     DEPT        CCLD       CIRF_FIL     CIRN_FIL       FBAC         GR           SIBF         SIGM         TPHI
#
~A  
   10666.5      -0.0479    -999.2500    -999.2500    -999.2500      38.7113    -999.2500    -999.2500    -999.2500
   10666.0      -0.0427    -999.2500    -999.2500    -999.2500      38.7113    -999.2500    -999.2500    -999.2500
   10665.5      -0.0381    -999.2500    -999.2500    -999.2500      38.7113    -999.2500    -999.2500    -999.2500
   10665.0      -0.0339    -999.2500    -999.2500    -999.2500      38.7113    -999.2500    -999.2500    -999.2500
   10664.5      -0.0302    -999.2500    -999.2500    -999.2500      38.7113    -999.2500    -999.2500    -999.2500
   10664.0       0.0000    -999.2500    -999.2500    -999.2500      38.7113    -999.2500    -999.2500    -999.2500
   10663.5       0.0000    -999.2500    -999.2500    -999.2500      38.7113    -999.2500    -999.2500    -999.2500
   10663.0       0.0000    -999.2500    -999.2500    -999.2500      38.7113    -999.2500    -999.2500    -999.2500
   10662.5       0.0000    -999.2500    -999.2500    -999.2500      38.7113    -999.2500    -999.2500    -999.2500
   10662.0       0.0000    -999.2500    -999.2500    -999.2500      38.7113    -999.2500    -999.2500    -999.2500
   10661.5       0.0000    -999.2500    -999.2500    -999.2500      38.7113    -999.2500    -999.2500    -999.2500
   10661.0       0.0000    -999.2500    -999.2500    -999.2500      38.7113    -999.2500    -999.2500    -999.2500
   10660.5       0.0000    -999.2500    -999.2500    -999.2500      38.7113    -999.2500    -999.2500    -999.2500
   10660.0       0.0000    -999.2500    -999.2500    -999.2500      38.7113    -999.2500    -999.2500    -999.2500
   10659.5       0.0000    -999.2500    -999.2500    -999.2500      38.7113    -999.2500    -999.2500    -999.2500
   10659.0       0.0000    -999.2500    -999.2500    -999.2500      38.7113    -999.2500    -999.2500    -999.2500
   10658.5       0.0000    -999.2500    -999.2500    -999.2500      38.7113    -999.2500    -999.2500    -999.2500
   10658.0       0.0000    -999.2500    -999.2500    -999.2500      38.7113    -999.2500    -999.2500    -999.2500
   10657.5       0.0000    -999.2500    -999.2500    -999.2500      38.7113    -999.2500    -999.2500    -999.2500
   10657.0       0.0000    -999.2500    -999.2500    -999.2500      38.7113    -999.2500    -999.2500    -999.2500
   10656.5       0.0000    -999.2500    -999.2500    -999.2500      38.7113    -999.2500    -999.2500    -999.2500
   10656.0       0.0000    -999.2500    -999.2500    -999.2500      38.7113    -999.2500    -999.2500    -999.2500
   10655.5       0.0000    -999.2500    -999.2500    -999.2500      38.7113    -999.2500    -999.2500    -999.2500
   10655.0       0.0000    -999.2500    -999.2500    -999.2500      38.7113    -999.2500    -999.2500    -999.2500
   10654.5       0.0000    -999.2500    -999.2500    -999.2500      38.7113    -999.2500    -999.2500    -999.2500
   10654.0       0.0000    -999.2500    -999.2500    -999.2500      38.7113    -999.2500    -999.2500    -999.2500
   10653.5       0.0000    -999.2500    -999.2500    -999.2500      38.7113    -999.2500    -999.2500    -999.2500
   10653.0       0.0000    -999.2500    -999.2500    -999.2500      38.7113    -999.2500    -999.2500    -999.2500
   10652.5       0.0000    -999.2500    -999.2500    -999.2500      38.7113    -999.2500    -999.2500    -999.2500
   10652.0       0.0000    -999.2500    -999.2500    -999.2500      38.7113    -999.2500    -999.2500    -999.2500
   10651.5       0.0000    -999.2500    -999.2500    -999.2500      38.7113    -999.2500    -999.2500    -999.2500
   10651.0       0.0000    -999.2500    -999.2500    -999.2500      38.7113    -999.2500    -999.2500    -999.2500
   10650.5       0.0000    -999.2500    -999.2500    -999.2500      38.7113    -999.2500    -999.2500    -999.2500
   10650.0       0.0000    -999.2500    -999.2500    -999.2500      38.7113    -999.2500    -999.2500    -999.2500
   10649.5       0.0000    -999.2500    -999.2500    -999.2500      38.7113    -999.2500    -999.2500    -999.2500
   10649.0       0.0000    -999.2500    -999.2500    -999.2500      38.7113    -999.2500    -999.2500    -999.2500
   10648.5       0.0000    -999.2500    -999.2500    -999.2500      38.7113    -999.2500    -999.2500    -999.2500
   10648.0       0.0000    -999.2500    -999.2500    -999.2500      38.7113    -999.2500    -999.2500    -999.2500
   10647.5       0.0000    -999.2500    -999.2500    -999.2500      38.7113    -999.2500    -999.2500    -999.2500
   10647.0       0.0000    -999.2500    -999.2500    -999.2500      38.7113    -999.2500    -999.2500    -999.2500
   10646.5       0.0000    -999.2500    -999.2500    -999.2500      38.7113    -999.2500    -999.2500    -999.2500
   10646.0       0.0000    -999.2500    -999.2500    -999.2500      38.7113    -999.2500    -999.2500    -999.2500
   10645.5       0.0000    -999.2500    -999.2500    -999.2500      38.7113    -999.2500    -999.2500    -999.2500
   10645.0       0.0000    -999.2500    -999.2500    -999.2500      38.7113    -999.2500    -999.2500    -999.2500
   10644.5       0.0000    -999.2500    -999.2500    -999.2500      38.7113    -999.2500    -999.2500    -999.2500
   10644.0       0.0000   -3915.1960   -3913.4515  -15742.0433      38.7113   -4497.8123   -3989.5562   -3912.9434
   10643.5       0.0000       1.1756       0.5771    4058.8232      38.7113     201.0642      26.6877       0.4028
   10643.0       0.0000       1.2355       0.5721    3711.9207      38.7113     198.0620      23.5527       0.3402
   10642.5       0.0000       1.2337       0.5246    3441.1763      38.7113     187.6972      23.3628       0.2836
   10642.0       0.0000       1.1236       0.4444    3239.7056      38.7113     178.7914      25.9088       0.2450
   10641.5       0.0000       0.9777       0.3866    3094.1174      38.7113     178.7643      28.1298       0.2419
   10641.0       0.0000       0.9401       0.3937    2625.0000      38.7113     174.6486      27.5996       0.2568
   10640.5       0.0000       1.0884       0.4537    2453.4314      38.7113     180.0046      24.2812       0.2536
   10640.0       0.0000       1.3232       0.5125    2475.8823      38.7113     179.6653      20.6130       0.2215
   10639.5       0.0000       1.5178       0.5380    2477.7312      38.7113     180.3270      18.4868       0.1742
   10639.0       0.0000       1.6110       0.5382    2467.3203      38.7113     181.7583      16.7542       0.1410
   10638.5       0.0000       1.6226       0.5152    2422.3262      38.7113     182.4550      16.3155       0.1257
   10638.0       0.0000       1.4917       0.4715    2399.4395      38.7113     181.4511      17.6978       0.1223
   10637.5       0.0000       1.3510       0.4347    2394.0918      38.7113     181.0871      19.5164       0.1319
   10637.0       0.0000       1.2738       0.4244    2411.4717      38.7113     180.5275      20.5455       0.1446
   10636.5       0.0000       1.3463       0.4509    2414.6802      38.7113     180.4142      19.8300       0.1523
   10636.0       0.0000       1.3809       0.4591    2414.6802      38.7113     180.1515      19.7294       0.1501
   10635.5       0.0000       1.3939       0.4569    2407.7283      38.7113     180.5064      19.8598       0.1481
   10635.0       0.0000       1.3680       0.4555    2398.9048      38.7113     180.5522      19.8283       0.1488
   10634.5       0.0000       1.4389       0.4782    2369.2256      38.7113     180.4402      18.8461       0.1479
   10634.0       0.0000       1.5039       0.4946    2350.0549      38.7113     181.4846      17.6891       0.1388
   10633.5       0.0000       1.6123       0.5090    2355.4023      38.7113     182.6495      16.3943       0.1288
   10633.0       0.0000       1.7083       0.5284    2361.2849      38.7113     184.0501      15.3725       0.1200
   10632.5       0.0412       1.7854       0.5462    2370.1340      38.7113     184.9008      14.3854       0.1174
   10632.0      -0.0917       1.7990       0.5493    2347.6743      38.7113     185.3448      14.6899       0.1141
