~VERSION INFORMATION
VERS.           2.0   :CWLS Log ASCII Standard - VERSION 2.0
WRAP.           NO    :One Line per depth step
PROD.  Schlumberger   :LAS Producer
PROG.  DLIS to ASCII 17C0-154                          :LAS Program name and version
CREA.        2010/09/16 16:20                          :LAS Creation date {YYYY/MM/DD hh:mm}
DLIS_CREA.  2010-Sep-07 20:55                          :DLIS Creation date and time {YYYY-MMM-DD hh:mm}
SOURCE.     CFU_31F_#1_DENBURY_ONSHORE_7-SEP-2010_10660-10934_MAIN_PASS_RST_PSP_071PUP.DLIS  :DLIS File Name
FILE-ID.     FCS_GMS_RST_PSP_071PUP                    :File Identification Number
#--------------------------------------------------
~WELL INFORMATION
#MNEM.UNIT      DATA             DESCRIPTION
#---- ------ --------------   -----------------------------
STRT .F        10666.5       :START DEPTH     
STOP .F         8508.5       :STOP DEPTH     
STEP .F           -0.5       :STEP     
NULL .          -999.25      :NULL VALUE
COMP .        DENBURY ONSHORE, LLC                     :COMPANY
WELL .        CFU 31F #1                               :WELL
FLD  .        CRANFIELD                                :FIELD
LOC  .                                                 :LOCATION
CNTY .        FRANKLIN                                 :COUNTY
STAT .        MISSISSIPPI                              :STATE
CTRY .                                                 :COUNTRY
API  .        23-037-21488-0000                        :API NUMBER
UWI  .        23-037-21488-0000                        :UNIQUE WELL ID
DATE .        07-Sep-2010                              :LOG DATE {DD-MMM-YYYY}
SRVC .        Schlumberger                             :SERVICE COMPANY
LATI .DEG                                              :LATITUDE
LONG .DEG                                              :LONGITUDE
GDAT .                                                 :GeoDetic Datum
SECT .        31                                       :Section
RANG .        1E                                       :Range
TOWN .        7N                                       :Township
#-----------------------------------------------------------------------------
~PARAMETER INFORMATION
#MNEM.UNIT    VALUE                      DESCRIPTION
#---- -----   --------------------       ------------------------
RUN  .          1                        :RUN NUMBER
PDAT .        GROUND LEVEL               :Permanent Datum
EPD  .F         315.700012               :Elevation of Permanent Datum above Mean Sea Level
LMF  .          KELLY BUSHING            :Logging Measured From (Name of Logging Elevation Reference)
APD  .F          18.000000               :Elevation of Depth Reference (LMF) above Permanent Datum
#-----------------------------------------------------------------------------
~CURVE INFORMATION
#MNEM.UNIT   API CODE                                  DESCRIPTION
#---- -----  --------                                  -----------------------
DEPT .F                                                :DEPTH (BOREHOLE) {F10.1}
CCLD .V                                                :CCL Discriminated Amplitude {F13.4}
CIRF_FIL.                                              :Capture to Inelastic Ratio Far Filtered {F13.4}
CIRN_FIL.                                              :Capture to Inelastic Ratio Near Filtered {F13.4}
FBAC .HZ                                               :Far Background Count Rate {F13.4}
GR   .GAPI                                             :Gamma Ray {F13.4}
SIBF .CU                                               :Sigma Borehole Fluid {F13.4}
SIGM .CU                                               :Formation Sigma (Neutron Capture Cross Section) {F13.4}
TPHI .CFCF                                             :Thermal Decay Porosity {F13.4}
#-----------------------------------------------------------------------------
# 
#     DEPT        CCLD       CIRF_FIL     CIRN_FIL       FBAC         GR           SIBF         SIGM         TPHI
#
~A  
# ...
    9721.5       0.0000       1.3894       0.4716    2323.1853      45.9773     127.4227      22.0680       0.1646
    9721.0       0.0000       1.1352       0.3905    2355.8057      50.5631     127.8181      26.2021       0.1701
    9720.5       0.0000       0.9826       0.3483    2370.0034      53.9600     128.1440      30.3219       0.1863
    9720.0       0.0000       0.9087       0.3436    2378.6929      53.9106     128.6041      32.6417       0.2178
    9719.5       0.0000       0.8729       0.3449    2373.2178      54.0892     129.3444      33.6130       0.2470
    9719.0       0.0000       0.8490       0.3491    2369.2070      52.9133     130.0421      33.6067       0.2672
    9718.5       0.0000       0.8543       0.3546    2387.1216      53.1035     130.7190      32.0844       0.2839
    9718.0       0.0000       0.8775       0.3626    2422.9504      54.8000     131.2076      31.4011       0.2885
    9717.5       0.0000       0.9102       0.3653    2417.6028      57.5713     131.8566      31.0708       0.2904
    9717.0       0.0000       0.8747       0.3578    2421.4536      55.9589     132.7091      32.5034       0.2824
    9716.5       0.0000       0.8598       0.3494    2440.1704      56.7904     133.6667      32.5929       0.2638
    9716.0       0.0000       0.9033       0.3578    2426.9600      56.4264     134.6789      31.4909       0.2349
    9715.5       0.0000       0.9896       0.3698    2400.4895      54.4499     135.8349      30.0782       0.2026
    9715.0       0.0000       1.0211       0.3713    2407.0403      53.5631     136.9323      30.1602       0.1828
    9714.5       0.0000       0.9933       0.3588    2377.7876      54.5621     137.8040      30.4982       0.1751
    9714.0       0.0000       0.9580       0.3530    2365.3481      52.1463     138.5896      30.8972       0.1803
    9713.5       0.0000       0.9305       0.3505    2378.3162      53.4808     138.9756      31.2391       0.1914
    9713.0       0.0000       0.9184       0.3470    2351.5781      54.9154     139.9057      31.0593       0.2042
    9712.5       0.0000       0.9013       0.3405    2340.8828      54.6420     141.4835      31.1237       0.2153
    9712.0       0.0000       0.8652       0.3318    2322.8347      53.0231     141.7196      30.9585       0.2333
    9711.5       0.0000       0.7991       0.3115    2341.0427      51.5952     142.6392      32.5075       0.2519
    9711.0       0.0068       0.7487       0.2873    2331.4170      47.1267     143.2827      33.1098       0.2540
    9710.5       0.0046       0.8021       0.2899    2346.7915      39.9002     143.3377      31.7841       0.2398
    9710.0       0.0518       1.0022       0.3446    2374.7075      35.4379     143.0868      27.4657       0.2238
    9709.5       0.0035       1.3021       0.4337    2356.5256      31.5955     143.9075      22.9522       0.2046
    9709.0       0.0000       1.5267       0.4993    2357.8625      31.5104     144.6769      20.0108       0.1854
    9708.5       0.0000       1.5663       0.5121    2350.5098      32.2201     146.2308      19.4080       0.1599
    9708.0       0.0000       1.4664       0.4851    2378.3171      36.2689     146.6044      20.1219       0.1557
    9707.5       0.0000       1.3292       0.4462    2417.7556      39.5758     147.2066      21.0853       0.1591
    9707.0       0.0000       1.2232       0.4089    2433.2383      43.7704     147.4312      22.2532       0.1654
    9706.5       0.0000       1.1098       0.3709    2428.9602      48.2286     147.6179      23.8123       0.1739
    9706.0       0.0000       1.0005       0.3367    2415.5913      53.1481     148.4086      26.1676       0.1823
    9705.5       0.0000       0.8932       0.3059    2424.2810      56.0521     149.0762      28.4365       0.1907
    9705.0       0.0000       0.8202       0.2858    2415.4575      60.0702     149.2842      30.2596       0.2017
    9704.5       0.0000       0.7724       0.2746    2390.2153      60.3431     149.7265      31.2782       0.2134
    9704.0       0.0000       0.7540       0.2711    2414.8142      59.5399     150.0472      32.0892       0.2300
    9703.5       0.0000       0.7638       0.2769    2428.1831      56.0526     150.3762      31.9234       0.2304
    9703.0       0.0000       0.8305       0.2970    2442.8889      56.6623     150.5482      30.4111       0.2251
    9702.5       0.0000       0.8912       0.3141    2413.4773      53.8050     151.0389      28.1428       0.2150
    9702.0       0.0000       0.8796       0.3020    2374.7073      54.6867     151.5201      27.4101       0.2054
    9701.5       0.0000       0.8172       0.2682    2386.2300      56.4786     151.7332      27.7713       0.2023
    9701.0       0.0000       0.7799       0.2585    2379.6846      58.1742     152.4944      28.7576       0.1970
    9700.5       0.0000       0.8463       0.2834    2392.3853      56.2318     153.2149      28.5460       0.2043
    9700.0       0.0000       0.9168       0.3257    2394.3906      56.2318     153.3685      28.0467       0.2040
    9699.5       0.0000       0.9717       0.3374    2400.8076      57.3976     153.5850      27.5411       0.2064
    9699.0       0.0000       0.9613       0.3335    2401.3167      52.5714     154.0847      27.5257       0.1981
    9698.5       0.0000       0.9941       0.3352    2395.0332      48.9162     154.1004      26.8966       0.1967
    9698.0       0.0000       1.0505       0.3549    2375.2471      46.6851     154.2429      25.8840       0.1925
    9697.5       0.0000       1.1365       0.3814    2376.5840      44.4484     155.1080      24.4740       0.1900
    9697.0       0.0000       1.1734       0.3899    2391.2900      41.5973     154.8727      23.9655       0.1833
    9696.5       0.0000       1.1749       0.3857    2410.1401      44.3639     154.8935      23.7246       0.1837
    9696.0       0.0000       1.1034       0.3648    2397.2803      48.1083     155.0091      24.8774       0.1896
    9695.5       0.0000       0.9699       0.3259    2395.4031      50.8806     155.4047      27.8599       0.1992
    9695.0       0.0000       0.8031       0.2869    2387.5154      53.3936     155.7116      30.8111       0.2258
    9694.5       0.0000       0.7102       0.2611    2379.4939      55.6753     156.2301      33.3856       0.2509
    9694.0       0.0000       0.7109       0.2601    2357.1677      54.3276     156.2040      33.0725       0.2753
    9693.5       0.0000       0.7544       0.2726    2357.4609      53.1674     155.8611      32.5746       0.2679
    9693.0       0.0000       0.8073       0.2869    2336.7390      52.7155     155.7994      30.3383       0.2556
    9692.5       0.0000       0.8580       0.3036    2344.4929      53.8678     155.5435      28.8792       0.2397
    9692.0       0.0000       0.8983       0.3134    2329.1187      53.0985     155.1185      28.1253       0.2271
    9691.5       0.0000       0.9403       0.3220    2333.1294      52.9083     154.8899      27.6896       0.2192
    9691.0       0.0000       0.9592       0.3303    2324.9741      52.3167     154.6108      27.1231       0.2079
    9690.5       0.0000       0.9970       0.3366    2304.9465      50.0045     154.1404      26.4652       0.1984
    9690.0       0.0000       1.0173       0.3436    2297.5935      47.7671     153.4867      26.0538       0.1874
    9689.5       0.0000       1.0383       0.3520    2272.0588      46.4333     152.7092      25.6723       0.1820
    9689.0       0.0170       1.0677       0.3614    2282.2192      48.0605     152.2422      24.9850       0.1799
    9688.5       0.0000       1.0781       0.3635    2305.6150      49.3661     151.5213      24.7912       0.1751
    9688.0       0.0000       1.0770       0.3610    2301.8716      51.5943     150.1756      25.1712       0.1691
    9687.5       0.0000       1.0373       0.3517    2308.5562      52.3083     149.1523      25.9254       0.1666
    9687.0       0.0000       1.0056       0.3417    2327.2727      54.3561     148.1345      26.3174       0.1709
