~VERSION INFORMATION
VERS.           2.0   :CWLS Log ASCII Standard - VERSION 2.0
WRAP.           NO    :One Line per depth step
PROD.  Schlumberger   :LAS Producer
PROG.  DLIS to ASCII 17C0-154                          :LAS Program name and version
CREA.        2010/09/16 16:20                          :LAS Creation date {YYYY/MM/DD hh:mm}
DLIS_CREA.  2010-Sep-07 20:55                          :DLIS Creation date and time {YYYY-MMM-DD hh:mm}
SOURCE.     CFU_31F_#1_DENBURY_ONSHORE_7-SEP-2010_10660-10934_MAIN_PASS_RST_PSP_071PUP.DLIS  :DLIS File Name
FILE-ID.     FCS_GMS_RST_PSP_071PUP                    :File Identification Number
#--------------------------------------------------
~WELL INFORMATION
#MNEM.UNIT      DATA             DESCRIPTION
#---- ------ --------------   -----------------------------
STRT .F        10666.5       :START DEPTH     
STOP .F         8508.5       :STOP DEPTH     
STEP .F           -0.5       :STEP     
NULL .          -999.25      :NULL VALUE
COMP .        DENBURY ONSHORE, LLC                     :COMPANY
WELL .        CFU 31F #1                               :WELL
FLD  .        CRANFIELD                                :FIELD
LOC  .                                                 :LOCATION
CNTY .        FRANKLIN                                 :COUNTY
STAT .        MISSISSIPPI                              :STATE
CTRY .                                                 :COUNTRY
API  .        23-037-21488-0000                        :API NUMBER
UWI  .        23-037-21488-0000                        :UNIQUE WELL ID
DATE .        07-Sep-2010                              :LOG DATE {DD-MMM-YYYY}
SRVC .        Schlumberger                             :SERVICE COMPANY
LATI .DEG                                              :LATITUDE
LONG .DEG                                              :LONGITUDE
GDAT .                                                 :GeoDetic Datum
SECT .        31                                       :Section
RANG .        1E                                       :Range
TOWN .        7N                                       :Township
#-----------------------------------------------------------------------------
~PARAMETER INFORMATION
#MNEM.UNIT    VALUE                      DESCRIPTION
#---- -----   --------------------       ------------------------
RUN  .          1                        :RUN NUMBER
PDAT .        GROUND LEVEL               :Permanent Datum
EPD  .F         315.700012               :Elevation of Permanent Datum above Mean Sea Level
LMF  .          KELLY BUSHING            :Logging Measured From (Name of Logging Elevation Reference)
APD  .F          18.000000               :Elevation of Depth Reference (LMF) above Permanent Datum
#-----------------------------------------------------------------------------
~CURVE INFORMATION
#MNEM.UNIT   API CODE                                  DESCRIPTION
#---- -----  --------                                  -----------------------
DEPT .F                                                :DEPTH (BOREHOLE) {F10.1}
CCLD .V                                                :CCL Discriminated Amplitude {F13.4}
CIRF_FIL.                                              :Capture to Inelastic Ratio Far Filtered {F13.4}
CIRN_FIL.                                              :Capture to Inelastic Ratio Near Filtered {F13.4}
FBAC .HZ                                               :Far Background Count Rate {F13.4}
GR   .GAPI                                             :Gamma Ray {F13.4}
SIBF .CU                                               :Sigma Borehole Fluid {F13.4}
SIGM .CU                                               :Formation Sigma (Neutron Capture Cross Section) {F13.4}
TPHI .CFCF                                             :Thermal Decay Porosity {F13.4}
#-----------------------------------------------------------------------------
# 
#     DEPT        CCLD       CIRF_FIL     CIRN_FIL       FBAC         GR           SIBF         SIGM         TPHI
#
~A  
# ...
    9056.5       0.0000       0.8265       0.3566    2360.1472      53.1428     134.6459      33.5985       0.3403
    9056.0       0.0000       0.8300       0.3585    2386.8853      52.7924     134.8758      33.8397       0.3431
    9055.5       0.0000       0.8215       0.3573    2384.3386      54.6741     134.6970      33.9140       0.3486
    9055.0       0.0000       0.8210       0.3582    2388.4890      56.1921     134.7629      34.1396       0.3504
    9054.5       0.0000       0.8147       0.3538    2377.7937      57.2324     135.0657      34.0769       0.3471
    9054.0       0.0000       0.8194       0.3535    2400.6804      56.3081     134.8778      33.8919       0.3473
    9053.5       0.0000       0.8069       0.3516    2383.9692      57.6475     135.3623      33.4307       0.3490
    9053.0       0.0000       0.8028       0.3492    2389.4507      55.4052     135.7230      33.3561       0.3492
    9052.5       0.0000       0.7969       0.3430    2420.6003      53.1729     135.4598      33.3759       0.3497
    9052.0       0.0000       0.8015       0.3467    2416.5835      54.4665     135.7984      34.0367       0.3502
    9051.5       0.0000       0.8205       0.3523    2431.9580      54.5558     136.1823      34.1162       0.3545
    9051.0       0.0000       0.8340       0.3595    2423.0007      52.8542     136.6875      33.6939       0.3575
    9050.5       0.0000       0.8273       0.3550    2419.6584      51.4298     136.7299      32.8861       0.3668
    9050.0       0.0000       0.8092       0.3510    2440.9216      51.5532     136.7046      32.8262       0.3817
    9049.5       0.0000       0.7966       0.3430    2442.7874      48.5945     136.6988      33.1071       0.3883
    9049.0       0.0000       0.8269       0.3409    2457.2258      46.5821     136.5031      32.7739       0.3865
    9048.5       0.0000       0.8781       0.3491    2431.8247      47.6531     136.6376      31.3763       0.3687
    9048.0       0.0000       0.9289       0.3655    2448.4023      48.8133     136.7386      30.3380       0.3509
    9047.5       0.0000       0.9483       0.3730    2435.0332      49.5902     136.6030      30.4376       0.3352
    9047.0       0.0000       0.9021       0.3661    2409.0715      52.0521     136.5771      31.8738       0.3256
    9046.5       0.0000       0.8559       0.3493    2422.3069      54.8132     136.4430      33.1610       0.3271
    9046.0       0.0000       0.8072       0.3411    2422.9753      54.7295     136.5813      34.2299       0.3346
    9045.5       0.0000       0.7824       0.3380    2433.5369      54.0450     136.8314      34.7148       0.3497
    9045.0       0.0000       0.7488       0.3309    2424.8469      55.8235     136.5763      34.6912       0.3576
    9044.5       0.0000       0.7498       0.3231    2403.5837      53.7186     136.1828      34.1833       0.3583
    9044.0       0.0000       0.7861       0.3304    2396.4983      49.4044     136.0437      33.0891       0.3508
    9043.5       0.0000       0.8393       0.3491    2384.7336      50.5652     136.0274      32.5911       0.3457
    9043.0       0.0000       0.8524       0.3651    2394.3591      51.3414     136.0941      32.4294       0.3333
    9042.5       0.0000       0.8531       0.3592    2379.7871      49.9127     135.8601      32.4191       0.3252
    9042.0       0.0000       0.8500       0.3547    2394.4929      51.1621     136.1350      33.1403       0.3093
    9041.5       0.0000       0.8579       0.3502    2384.6257      56.5118     136.3907      32.8122       0.3047
    9041.0       0.0000       0.8631       0.3534    2382.0854      56.0594     136.4967      33.7008       0.2933
    9040.5       0.0000       0.8702       0.3513    2350.5083      57.6634     136.1214      33.3896       0.2942
    9040.0       0.0000       0.8684       0.3549    2339.6851      57.2169     135.9108      34.2398       0.2960
    9039.5       0.0000       0.8591       0.3576    2320.6482      56.0731     135.6777      33.8290       0.3130
    9039.0       0.0000       0.8483       0.3632    2327.0652      53.3015     135.6796      33.6973       0.3248
    9038.5       0.0000       0.8440       0.3624    2325.4609      52.3253     136.0260      33.2655       0.3289
    9038.0       0.0000       0.8519       0.3591    2324.1240      51.6699     136.5471      33.2732       0.3232
    9037.5       0.0000       0.8447       0.3581    2310.2202      51.5806     136.5094      33.4246       0.3162
    9037.0       0.0000       0.8522       0.3597    2312.7346      51.7481     136.6382      33.4266       0.3137
    9036.5       0.0000       0.8669       0.3649    2305.9165      51.8426     136.5519      32.6195       0.3107
    9036.0       0.0000       0.9054       0.3688    2321.7998      50.6818     136.5548      31.5530       0.3018
    9035.5       0.0000       0.9390       0.3728    2311.5056      49.6363     136.4999      30.3763       0.2946
    9035.0       0.0000       0.9500       0.3762    2330.8914      50.2613     136.2581      30.2279       0.2890
    9034.5       0.0000       0.9346       0.3723    2353.8801      49.4898     136.0154      30.3795       0.2936
    9034.0       0.0000       0.9120       0.3696    2360.3503      49.4845     136.0210      30.9380       0.2981
    9033.5       0.0000       0.8882       0.3603    2364.6284      49.5169     135.3595      31.4062       0.3035
    9033.0       0.0000       0.8968       0.3632    2358.7461      48.8081     134.9426      31.8895       0.3110
    9032.5       0.0000       0.9042       0.3682    2352.7300      48.5403     134.8762      31.9523       0.3210
    9032.0       0.0000       0.8941       0.3681    2370.3772      49.4848     134.7631      32.4657       0.3285
    9031.5       0.0000       0.8852       0.3640    2378.6917      51.0455     134.4779      32.6375       0.3263
    9031.0       0.0000       0.8839       0.3595    2385.5098      51.0132     134.3324      32.7409       0.3161
    9030.5       0.0000       0.9045       0.3685    2369.0918      51.2151     134.2232      32.3276       0.3104
    9030.0       0.0000       0.9027       0.3768    2374.0383      51.6616     134.1852      32.0265       0.3051
    9029.5       0.0000       0.8986       0.3775    2380.8823      52.1970     134.1129      32.0548       0.3050
    9029.0       0.0000       0.8794       0.3733    2381.5508      52.1536     134.0362      32.2936       0.3050
    9028.5       0.0000       0.8659       0.3684    2402.6484      53.0539     134.5206      33.1085       0.3163
    9028.0       0.0000       0.8477       0.3725    2376.5789      52.8470     134.2011      33.2888       0.3258
    9027.5       0.0000       0.8620       0.3753    2387.2739      52.5792     133.8528      32.4585       0.3287
    9027.0       0.0000       0.8875       0.3826    2385.2688      50.7989     133.7744      31.4856       0.3142
    9026.5       0.0000       0.9175       0.3807    2377.2473      50.7503     133.8681      30.8633       0.2972
    9026.0       0.0000       0.9393       0.3828    2392.4880      49.0463     133.4465      31.4060       0.2873
    9025.5       0.0000       0.9228       0.3778    2397.8354      49.0512     132.8458      31.4259       0.2907
    9025.0       0.0000       0.9128       0.3781    2427.1199      48.3318     133.1946      31.8174       0.2991
    9024.5       0.0000       0.9009       0.3785    2446.5049      49.3140     133.4101      31.4986       0.3028
    9024.0       0.0000       0.9132       0.3836    2434.6064      47.4167     133.4684      31.5411       0.3065
    9023.5       0.0000       0.9189       0.3898    2420.5691      48.9347     133.6875      31.0595       0.3119
    9023.0       0.0000       0.9192       0.3935    2438.1079      49.1131     133.4758      31.4887       0.3188
    9022.5       0.0000       0.9139       0.3923    2472.1987      48.2697     133.3927      31.4992       0.3235
    9022.0       0.0000       0.9044       0.3929    2456.6907      47.3768     133.8558      32.2672       0.3267
