~VERSION INFORMATION
VERS.           2.0   :CWLS Log ASCII Standard - VERSION 2.0
WRAP.           NO    :One Line per depth step
PROD.  Schlumberger   :LAS Producer
PROG.  DLIS to ASCII 17C0-154                          :LAS Program name and version
CREA.        2010/09/16 16:20                          :LAS Creation date {YYYY/MM/DD hh:mm}
DLIS_CREA.  2010-Sep-07 20:55                          :DLIS Creation date and time {YYYY-MMM-DD hh:mm}
SOURCE.     CFU_31F_#1_DENBURY_ONSHORE_7-SEP-2010_10660-10934_MAIN_PASS_RST_PSP_071PUP.DLIS  :DLIS File Name
FILE-ID.     FCS_GMS_RST_PSP_071PUP                    :File Identification Number
#--------------------------------------------------
~WELL INFORMATION
#MNEM.UNIT      DATA             DESCRIPTION
#---- ------ --------------   -----------------------------
STRT .F        10666.5       :START DEPTH     
STOP .F         8508.5       :STOP DEPTH     
STEP .F           -0.5       :STEP     
NULL .          -999.25      :NULL VALUE
COMP .        DENBURY ONSHORE, LLC                     :COMPANY
WELL .        CFU 31F #1                               :WELL
FLD  .        CRANFIELD                                :FIELD
LOC  .                                                 :LOCATION
CNTY .        FRANKLIN                                 :COUNTY
STAT .        MISSISSIPPI                              :STATE
CTRY .                                                 :COUNTRY
API  .        23-037-21488-0000                        :API NUMBER
UWI  .        23-037-21488-0000                        :UNIQUE WELL ID
DATE .        07-Sep-2010                              :LOG DATE {DD-MMM-YYYY}
SRVC .        Schlumberger                             :SERVICE COMPANY
LATI .DEG                                              :LATITUDE
LONG .DEG                                              :LONGITUDE
GDAT .                                                 :GeoDetic Datum
SECT .        31                                       :Section
RANG .        1E                                       :Range
TOWN .        7N                                       :Township
#-----------------------------------------------------------------------------
~PARAMETER INFORMATION
#MNEM.UNIT    VALUE                      DESCRIPTION
#---- -----   --------------------       ------------------------
RUN  .          1                        :RUN NUMBER
PDAT .        GROUND LEVEL               :Permanent Datum
EPD  .F         315.700012               :Elevation of Permanent Datum above Mean Sea Level
LMF  .          KELLY BUSHING            :Logging Measured From (Name of Logging Elevation Reference)
APD  .F          18.000000               :Elevation of Depth Reference (LMF) above Permanent Datum
#-----------------------------------------------------------------------------
~CURVE INFORMATION
#MNEM.UNIT   API CODE                                  DESCRIPTION
#---- -----  --------                                  -----------------------
DEPT .F                                                :DEPTH (BOREHOLE) {F10.1}
CCLD .V                                                :CCL Discriminated Amplitude {F13.4}
CIRF_FIL.                                              :Capture to Inelastic Ratio Far Filtered {F13.4}
CIRN_FIL.                                              :Capture to Inelastic Ratio Near Filtered {F13.4}
FBAC .HZ                                               :Far Background Count Rate {F13.4}
GR   .GAPI                                             :Gamma Ray {F13.4}
SIBF .CU                                               :Sigma Borehole Fluid {F13.4}
SIGM .CU                                               :Formation Sigma (Neutron Capture Cross Section) {F13.4}
TPHI .CFCF                                             :Thermal Decay Porosity {F13.4}
#-----------------------------------------------------------------------------
# 
#     DEPT        CCLD       CIRF_FIL     CIRN_FIL       FBAC         GR           SIBF         SIGM         TPHI
#
~A  
# ...
    9301.5       0.0000       1.4168       0.4427    2405.5952      35.2594     166.4473      16.7755       0.1896
    9301.0       0.0000       1.5270       0.4597    2414.0239      36.8615     166.0509      15.7317       0.1710
    9300.5       0.0000       1.4825       0.4389    2412.6870      41.0623     165.9155      16.4313       0.1715
    9300.0       0.0000       1.3242       0.4021    2442.7673      45.9708     166.1006      18.4726       0.1824
    9299.5       0.0000       1.1794       0.3735    2434.7458      49.0023     166.1609      20.3728       0.1993
    9299.0       0.0000       1.1153       0.3689    2418.0347      46.4171     166.1643      20.5824       0.2046
    9298.5       0.0000       1.1919       0.3900    2405.8628      41.0599     166.2639      19.0298       0.1988
    9298.0       0.0000       1.3643       0.4307    2401.6931      36.5060     166.2641      16.7489       0.1787
    9297.5       0.0000       1.5066       0.4577    2399.8472      34.9934     166.4390      15.5978       0.1583
    9297.0       0.0000       1.5315       0.4609    2385.1414      35.2566     166.5155      15.9115       0.1475
    9296.5       0.0000       1.4280       0.4362    2360.5422      38.6497     166.0080      17.3744       0.1577
    9296.0       0.0000       1.2712       0.4080    2371.2375      43.8283     165.6216      18.9543       0.1773
    9295.5       0.0000       1.1879       0.3900    2355.8569      42.1288     164.7817      19.7180       0.1940
    9295.0       0.0000       1.2122       0.3994    2381.7678      38.1999     164.1609      18.9763       0.1887
    9294.5       0.0000       1.3613       0.4282    2383.1045      35.9734     164.3414      17.2723       0.1705
    9294.0       0.0000       1.4735       0.4462    2403.4255      35.4332     164.2339      15.7602       0.1492
    9293.5       0.0000       1.4989       0.4441    2416.7944      34.9918     164.6131      15.7834       0.1432
    9293.0       0.0000       1.4113       0.4230    2419.4683      39.9004     164.3374      16.9291       0.1499
    9292.5       0.0000       1.2871       0.4025    2411.4724      44.8956     163.9909      18.9001       0.1658
    9292.0       0.0000       1.2260       0.3908    2406.7932      44.4525     163.7732      19.8822       0.1803
    9291.5       0.0000       1.2276       0.3956    2406.7932      42.3106     163.4386      19.6885       0.1897
    9291.0       0.0000       1.2860       0.4096    2419.6274      40.9671     163.4239      18.8400       0.1909
    9290.5       0.0000       1.2964       0.4112    2418.9590      39.5936     162.7694      18.5979       0.1924
    9290.0       0.0000       1.2425       0.3850    2437.5481      38.7472     162.8922      20.0071       0.1883
    9289.5      -0.0029       1.1392       0.3481    2420.3271      42.1051     162.8007      22.6812       0.1942
    9289.0       0.0308       1.0345       0.3199    2406.7983      46.3944     163.0242      26.0639       0.2043
    9288.5       0.0061       0.9502       0.3139    2404.5256      47.6438     162.4272      28.5329       0.2351
    9288.0      -0.0177       0.8749       0.3149    2391.6914      47.8571     162.0014      29.8864       0.2612
    9287.5       0.0000       0.8359       0.3144    2431.7983      45.8514     161.6997      29.7476       0.2783
    9287.0       0.0000       0.8374       0.3166    2444.6326      42.3118     161.2402      28.7533       0.2797
    9286.5       0.0000       0.9118       0.3406    2462.6807      39.0042     160.7347      26.6012       0.2618
    9286.0       0.0000       1.0461       0.3781    2462.6807      39.4554     160.3953      24.0882       0.2437
    9285.5       0.0000       1.1648       0.4046    2465.7620      39.9909     160.3454      22.7923       0.2195
    9285.0       0.0000       1.1735       0.3919    2457.5808      43.6463     160.1509      23.2046       0.2141
    9284.5       0.0000       1.0620       0.3589    2453.5637      45.9710     159.7448      25.9308       0.2069
    9284.0       0.0000       0.9115       0.3187    2457.4409      49.0018     159.7471      29.0318       0.2231
    9283.5       0.0000       0.7973       0.2971    2445.5686      46.6632     159.8639      31.1554       0.2326
    9283.0       0.0000       0.7872       0.2941    2420.8359      43.7217     159.2977      30.0801       0.2545
    9282.5       0.0000       0.8912       0.3330    2408.0017      40.2374     158.8141      26.2247       0.2408
    9282.0       0.0000       1.0990       0.3880    2371.9055      39.9695     157.9203      22.1117       0.2234
    9281.5       0.0000       1.2468       0.4221    2347.1729      39.9785     157.5587      20.1094       0.1900
    9281.0       0.0000       1.2492       0.4074    2330.8628      41.8611     157.5736      20.9022       0.1774
    9280.5       0.0000       1.1253       0.3663    2336.2102      43.9993     157.8601      22.9856       0.1771
    9280.0       0.0000       0.9942       0.3358    2303.9846      44.9890     158.0120      24.7304       0.1931
    9279.5       0.0000       0.9648       0.3366    2322.5935      43.9139     157.4440      24.3499       0.2021
    9279.0       0.0000       1.0680       0.3661    2327.7817      41.0566     157.0590      22.3443       0.2004
    9278.5       0.0000       1.2104       0.3997    2323.3760      41.1506     157.3878      20.2001       0.1851
    9278.0       0.0000       1.3140       0.4154    2337.4133      40.3683     156.7333      19.5850       0.1737
    9277.5       0.0000       1.2948       0.4052    2358.1353      41.0826     156.5576      20.1834       0.1662
    9277.0       0.0000       1.2488       0.3884    2353.1943      39.9025     156.9743      20.9092       0.1646
    9276.5       0.0000       1.2397       0.3908    2343.1675      39.5181     157.5288      20.6604       0.1632
    9276.0       0.0000       1.3035       0.4098    2368.5686      39.1658     157.9771      19.5692       0.1622
    9275.5       0.0000       1.3774       0.4317    2368.0339      37.8062     158.5860      18.3822       0.1623
    9275.0       0.0000       1.3625       0.4304    2353.1685      38.3370     158.7727      18.3921       0.1631
    9274.5       0.0000       1.3050       0.4122    2368.5430      39.2529     158.2314      19.5195       0.1667
    9274.0       0.0000       1.2495       0.3989    2358.7893      39.2764     158.4995      19.5237       0.1669
    9273.5       0.0000       1.3150       0.4109    2346.9167      37.8438     158.4919      18.3853       0.1695
    9273.0       0.0000       1.3853       0.4331    2340.0925      40.6155     158.4030      17.1190       0.1652
    9272.5       0.0000       1.3918       0.4247    2328.8625      39.9908     157.9423      17.6151       0.1666
    9272.0       0.0000       1.2975       0.3894    2319.5044      40.0766     157.3966      19.3151       0.1608
    9271.5       0.0000       1.2614       0.3745    2339.8257      39.1874     157.3877      19.4021       0.1644
    9271.0       0.0000       1.3374       0.4024    2355.2000      40.0798     158.1352      18.3880       0.1542
    9270.5       0.0000       1.4842       0.4454    2341.8311      38.6677     158.4646      16.3432       0.1481
    9270.0       0.0000       1.5206       0.4551    2358.4084      38.7241     159.5766      16.4433       0.1382
    9269.5       0.0000       1.4462       0.4389    2361.2417      39.5197     159.9485      17.4273       0.1441
    9269.0       0.0000       1.3433       0.4207    2369.2632      41.5691     159.9707      18.5588       0.1525
    9268.5       0.0000       1.3182       0.4193    2366.7173      40.7698     159.7312      18.4798       0.1619
    9268.0       0.0000       1.3046       0.4164    2369.2317      42.0876     159.6125      18.4188       0.1671
    9267.5       0.0000       1.2519       0.4038    2370.5686      38.6398     159.4965      18.8527       0.1717
    9267.0       0.0000       1.2274       0.3937    2374.3118      36.4191     159.6334      19.2790       0.1697
