~VERSION INFORMATION
VERS.           2.0   :CWLS Log ASCII Standard - VERSION 2.0
WRAP.           NO    :One Line per depth step
PROD.  Schlumberger   :LAS Producer
PROG.  DLIS to ASCII 17C0-154                          :LAS Program name and version
CREA.        2010/09/16 16:20                          :LAS Creation date {YYYY/MM/DD hh:mm}
DLIS_CREA.  2010-Sep-07 20:55                          :DLIS Creation date and time {YYYY-MMM-DD hh:mm}
SOURCE.     CFU_31F_#1_DENBURY_ONSHORE_7-SEP-2010_10660-10934_MAIN_PASS_RST_PSP_071PUP.DLIS  :DLIS File Name
FILE-ID.     FCS_GMS_RST_PSP_071PUP                    :File Identification Number
#--------------------------------------------------
~WELL INFORMATION
#MNEM.UNIT      DATA             DESCRIPTION
#---- ------ --------------   -----------------------------
STRT .F        10666.5       :START DEPTH     
STOP .F         8508.5       :STOP DEPTH     
STEP .F           -0.5       :STEP     
NULL .          -999.25      :NULL VALUE
COMP .        DENBURY ONSHORE, LLC                     :COMPANY
WELL .        CFU 31F #1                               :WELL
FLD  .        CRANFIELD                                :FIELD
LOC  .                                                 :LOCATION
CNTY .        FRANKLIN                                 :COUNTY
STAT .        MISSISSIPPI                              :STATE
CTRY .                                                 :COUNTRY
API  .        23-037-21488-0000                        :API NUMBER
UWI  .        23-037-21488-0000                        :UNIQUE WELL ID
DATE .        07-Sep-2010                              :LOG DATE {DD-MMM-YYYY}
SRVC .        Schlumberger                             :SERVICE COMPANY
LATI .DEG                                              :LATITUDE
LONG .DEG                                              :LONGITUDE
GDAT .                                                 :GeoDetic Datum
SECT .        31                                       :Section
RANG .        1E                                       :Range
TOWN .        7N                                       :Township
#-----------------------------------------------------------------------------
~PARAMETER INFORMATION
#MNEM.UNIT    VALUE                      DESCRIPTION
#---- -----   --------------------       ------------------------
RUN  .          1                        :RUN NUMBER
PDAT .        GROUND LEVEL               :Permanent Datum
EPD  .F         315.700012               :Elevation of Permanent Datum above Mean Sea Level
LMF  .          KELLY BUSHING            :Logging Measured From (Name of Logging Elevation Reference)
APD  .F          18.000000               :Elevation of Depth Reference (LMF) above Permanent Datum
#-----------------------------------------------------------------------------
~CURVE INFORMATION
#MNEM.UNIT   API CODE                                  DESCRIPTION
#---- -----  --------                                  -----------------------
DEPT .F                                                :DEPTH (BOREHOLE) {F10.1}
CCLD .V                                                :CCL Discriminated Amplitude {F13.4}
CIRF_FIL.                                              :Capture to Inelastic Ratio Far Filtered {F13.4}
CIRN_FIL.                                              :Capture to Inelastic Ratio Near Filtered {F13.4}
FBAC .HZ                                               :Far Background Count Rate {F13.4}
GR   .GAPI                                             :Gamma Ray {F13.4}
SIBF .CU                                               :Sigma Borehole Fluid {F13.4}
SIGM .CU                                               :Formation Sigma (Neutron Capture Cross Section) {F13.4}
TPHI .CFCF                                             :Thermal Decay Porosity {F13.4}
#-----------------------------------------------------------------------------
# 
#     DEPT        CCLD       CIRF_FIL     CIRN_FIL       FBAC         GR           SIBF         SIGM         TPHI
#
~A  
# ...
    9861.5       0.0000       1.0374       0.3523    2354.0107      41.0098     143.4516      26.3083       0.2119
    9861.0       0.0000       0.9444       0.3141    2334.7593      43.9516     143.6981      28.2316       0.2223
    9860.5       0.0000       0.8852       0.2961    2325.9104      44.0224     143.7685      30.1085       0.2285
    9860.0       0.0055       0.8624       0.2833    2313.4773      43.8153     144.0959      32.0198       0.2323
    9859.5       0.0266       0.8882       0.2950    2314.8142      44.5014     143.8026      32.0598       0.2285
    9859.0       0.0000       0.9354       0.3206    2296.7661      44.2337     143.5118      31.8543       0.2342
    9858.5       0.0000       0.9830       0.3620    2328.3169      41.6456     143.2479      30.2917       0.2443
    9858.0       0.0000       1.0406       0.3928    2350.0576      40.0383     143.5220      28.5964       0.2488
    9857.5       0.0000       1.1202       0.4193    2344.7100      39.5028     143.6701      25.4599       0.2400
    9857.0       0.0000       1.2422       0.4437    2337.0957      40.2541     143.3229      22.3346       0.2167
    9856.5       0.0000       1.3197       0.4437    2331.0796      40.8518     143.2889      20.1524       0.1963
    9856.0       0.0000       1.3003       0.4235    2347.3958      45.8435     142.9025      19.9581       0.1772
    9855.5       0.0000       1.2046       0.3915    2361.9680      48.6116     142.8277      21.8345       0.1776
    9855.0       0.0000       1.1066       0.3770    2364.1323      49.7764     142.6567      23.6823       0.1886
    9854.5       0.0000       1.0767       0.3826    2383.9185      48.1658     142.4722      24.4207       0.2038
    9854.0       0.0000       1.1092       0.3940    2363.8650      48.1081     142.2699      24.0801       0.2084
    9853.5       0.0000       1.1481       0.4033    2371.2180      47.7571     142.2209      23.1722       0.2069
    9853.0       0.0000       1.1544       0.4051    2374.9612      48.1978     142.0363      23.0722       0.2022
    9852.5       0.0000       1.1317       0.3978    2379.7996      51.2337     142.0778      23.3683       0.2021
    9852.0       0.0000       1.0951       0.3891    2392.9011      55.1130     142.1108      24.7099       0.2005
    9851.5       0.0000       1.0566       0.3795    2415.0876      56.6257     142.1422      26.0420       0.2128
    9851.0       0.0000       0.9887       0.3671    2427.7881      57.2566     141.4465      27.9280       0.2304
    9850.5       0.0000       0.9242       0.3600    2427.7883      58.2320     140.9987      28.8424       0.2499
    9850.0       0.0000       0.9146       0.3557    2434.3137      60.3750     140.8589      29.7126       0.2609
    9849.5       0.0000       0.8985       0.3561    2414.9287      59.7186     140.6595      29.6807       0.2655
    9849.0       0.0000       0.8722       0.3432    2411.5864      63.1099     140.7327      30.4736       0.2776
    9848.5       0.0000       0.8320       0.3278    2450.3564      64.6209     140.6980      31.7947       0.2919
    9848.0       0.0000       0.8114       0.3224    2428.1641      66.3786     140.7156      33.0105       0.3118
    9847.5       0.0000       0.8101       0.3331    2420.6772      65.9251     140.9907      34.1813       0.3282
    9847.0       0.0000       0.7965       0.3423    2421.5049      64.8536     140.5487      34.6295       0.3349
    9846.5       0.0000       0.8023       0.3425    2436.4783      60.3913     140.3636      33.9993       0.3197
    9846.0       0.0000       0.8691       0.3485    2423.1091      56.2859     140.6746      31.7039       0.2907
    9845.5       0.0000       0.9495       0.3660    2415.3552      52.9336     141.0935      29.4873       0.2588
    9845.0       0.0000       1.0220       0.3756    2408.3970      47.9894     141.1217      28.5025       0.2392
    9844.5       0.0000       1.0476       0.3789    2373.7969      47.0072     141.4054      28.1778       0.2320
    9844.0       0.0000       1.0967       0.3891    2385.9685      47.0072     141.6994      27.1330       0.2363
    9843.5       0.0000       1.1236       0.4065    2361.0754      48.2566     141.4759      26.3791       0.2417
    9843.0       0.0000       1.1334       0.4118    2346.3696      49.0602     141.6054      26.1191       0.2393
    9842.5       0.0000       1.0995       0.4011    2363.2144      51.2379     141.7965      27.0246       0.2349
    9842.0       0.0000       1.0738       0.3941    2342.4924      54.1782     142.3723      28.4603       0.2345
    9841.5       0.0000       1.0422       0.3930    2314.1501      60.8799     142.8333      30.0798       0.2435
    9841.0       0.0000       1.0020       0.3892    2316.1555      63.8250     142.8484      31.2024       0.2558
    9840.5       0.0000       0.9792       0.3915    2305.4604      65.0685     143.0117      31.6087       0.2730
    9840.0       0.0000       0.9864       0.4043    2320.9685      69.5469     143.4448      31.4908       0.2919
    9839.5       0.0000       0.9835       0.4142    2326.1565      68.5920     143.2466      31.7593       0.3069
    9839.0       0.0000       0.9426       0.3981    2357.3064      64.7808     143.5471      32.3471       0.3140
    9838.5       0.0000       0.8894       0.3783    2373.2092      63.2636     143.5498      32.8065       0.3132
    9838.0       0.0000       0.9029       0.3886    2392.0864      61.1217     144.2815      31.4368       0.3097
    9837.5       0.0000       1.0388       0.4506    2405.4556      57.8098     144.7713      28.6728       0.2988
    9837.0       0.0000       1.1841       0.5060    2406.6328      57.8442     144.6062      26.3077       0.2733
    9836.5       0.0000       1.2100       0.4940    2413.9858      58.6128     144.6062      25.7592       0.2343
    9836.0       0.0000       1.1071       0.4254    2422.1152      58.9763     144.4548      26.5332       0.2042
    9835.5       0.0000       0.9951       0.3546    2402.7302      58.8816     143.8181      27.2318       0.1868
    9835.0       0.0000       0.9642       0.3278    2392.9707      58.3459     143.2742      27.5663       0.1789
    9834.5       0.0000       0.9914       0.3277    2373.8530      57.3967     142.7878      27.2092       0.1679
    9834.0       0.0000       1.0526       0.3456    2378.9590      53.6964     143.0138      26.6468       0.1649
    9833.5       0.0000       1.1428       0.3785    2362.5151      51.4663     143.2077      24.9107       0.1693
    9833.0       0.0000       1.2513       0.4228    2345.1355      51.7395     143.7835      23.0493       0.1851
    9832.5       0.0000       1.3209       0.4619    2332.5686      51.4658     144.0192      21.4529       0.2042
    9832.0       0.0000       1.2656       0.4507    2289.1196      52.2702     144.1942      21.8805       0.2265
    9831.5       0.0000       1.1109       0.3923    2289.2791      52.2222     144.2472      23.7420       0.2295
    9831.0       0.0250       1.0004       0.3324    2301.5784      51.7684     144.1971      25.4615       0.2300
    9830.5       0.0116       1.0563       0.3527    2308.4224      49.1845     144.1692      25.4249       0.2263
    9830.0      -0.0184       1.2320       0.4064    2302.2727      48.8275     143.8764      23.9797       0.2361
    9829.5       0.0070       1.3248       0.4437    2308.0215      49.2680     143.6967      23.0206       0.2337
    9829.0       0.0000       1.2991       0.4296    2329.4116      53.7373     143.7974      23.2889       0.2296
    9828.5       0.0000       1.1679       0.4015    2327.5527      55.6520     143.8053      24.5164       0.2225
    9828.0       0.0000       1.0619       0.3729    2361.6436      56.9021     143.6130      25.4545       0.2206
    9827.5       0.0000       1.0563       0.3709    2376.3494      55.5634     143.7599      25.0765       0.2284
    9827.0       0.0000       1.1458       0.4075    2391.8574      53.6000     143.9068      23.7827       0.2315
