~VERSION INFORMATION
VERS.           2.0   :CWLS Log ASCII Standard - VERSION 2.0
WRAP.           NO    :One Line per depth step
PROD.  Schlumberger   :LAS Producer
PROG.  DLIS to ASCII 17C0-154                          :LAS Program name and version
CREA.        2010/09/30 15:14                          :LAS Creation date {YYYY/MM/DD hh:mm}
DLIS_CREA.  2010-Sep-07 20:46                          :DLIS Creation date and time {YYYY-MMM-DD hh:mm}
SOURCE.     CFU_31F_#1_DENBURY_ONSHORE_7-SEP-2010_10660-10934_PRES_TEMP_DL_PSP_069PUP.DLIS  :DLIS File Name
FILE-ID.     FCS_GMS_RST_PSP_069PUP                    :File Identification Number
#--------------------------------------------------
~WELL INFORMATION
#MNEM.UNIT      DATA             DESCRIPTION
#---- ------ --------------   -----------------------------
STRT .F        10666.5       :START DEPTH     
STOP .F          -41.5       :STOP DEPTH     
STEP .F           -0.5       :STEP     
NULL .          -999.25      :NULL VALUE
COMP .        DENBURY ONSHORE, LLC                     :COMPANY
WELL .        CFU 31F #1                               :WELL
FLD  .        CRANFIELD                                :FIELD
LOC  .                                                 :LOCATION
CNTY .        FRANKLIN                                 :COUNTY
STAT .        MISSISSIPPI                              :STATE
CTRY .                                                 :COUNTRY
API  .        23-037-21488-0000                        :API NUMBER
UWI  .        23-037-21488-0000                        :UNIQUE WELL ID
DATE .        07-Sep-2010                              :LOG DATE {DD-MMM-YYYY}
SRVC .        Schlumberger                             :SERVICE COMPANY
LATI .DEG                                              :LATITUDE
LONG .DEG                                              :LONGITUDE
GDAT .                                                 :GeoDetic Datum
SECT .        31                                       :Section
RANG .        1E                                       :Range
TOWN .        7N                                       :Township
#-----------------------------------------------------------------------------
~PARAMETER INFORMATION
#MNEM.UNIT    VALUE                      DESCRIPTION
#---- -----   --------------------       ------------------------
RUN  .          1                        :RUN NUMBER
PDAT .        GROUND LEVEL               :Permanent Datum
EPD  .F         315.700012               :Elevation of Permanent Datum above Mean Sea Level
LMF  .          KELLY BUSHING            :Logging Measured From (Name of Logging Elevation Reference)
APD  .F          18.000000               :Elevation of Depth Reference (LMF) above Permanent Datum
#-----------------------------------------------------------------------------
~CURVE INFORMATION
#MNEM.UNIT   API CODE                                  DESCRIPTION
#---- -----  --------                                  -----------------------
DEPT .F                                                :DEPTH (BOREHOLE) {F10.1}
GR   .GAPI                                             :Gamma Ray {F13.4}
WFDE .G/C3                                             :Well Fluid Density Corrected {F13.4}
WPRE .PSI                                              :Well Pressure {F13.4}
WTEP .DEGF                                             :Well Temperature {F13.4}
#-----------------------------------------------------------------------------
# 
#     DEPT        GR           WFDE         WPRE         WTEP
#
~A  
# ...
    5713.5      68.5213       0.7540    4131.3574     132.9626
    5713.0      65.9308       0.7543    4131.1699     132.9579
    5712.5      59.5130       0.7559    4130.9878     132.9537
    5712.0      54.3320       0.7516    4130.8452     132.9483
    5711.5      41.4282       0.7491    4130.6875     132.9445
    5711.0      38.8377       0.7474    4130.4805     132.9409
    5710.5      32.3615       0.7422    4130.3374     132.9376
    5710.0      28.4563       0.7394    4130.2031     132.9322
    5709.5      29.7516       0.7452    4130.0840     132.9272
    5709.0      31.0663       0.7510    4129.9409     132.9218
    5708.5      37.5425       0.7509    4129.7437     132.9187
    5708.0      45.2653       0.7515    4129.5342     132.9154
    5707.5      53.0562       0.7511    4129.4048     132.9116
    5707.0      58.1885       0.7471    4129.3076     132.9070
    5706.5      59.4838       0.7456    4129.1323     132.9030
    5706.0      64.6647       0.7526    4128.9458     132.9001
    5705.5      58.2372       0.7568    4128.8066     132.8978
    5705.0      50.4463       0.7564    4128.6143     132.8950
    5704.5      41.4282       0.7567    4128.4575     132.8901
    5704.0      44.0187       0.7575    4128.3438     132.8850
    5703.5      38.8377       0.7550    4128.1880     132.8815
    5703.0      38.8134       0.7555    4128.0254     132.8773
    5702.5      46.6534       0.7587    4127.8916     132.8720
    5702.0      53.1296       0.7603    4127.6919     132.8678
    5701.5      51.8003       0.7571    4127.5093     132.8621
    5701.0      46.6193       0.7546    4127.3843     132.8542
    5700.5      55.7693       0.7536    4127.2563     132.8513
    5700.0      50.5392       0.7519    4127.0835     132.8450
    5699.5      58.2425       0.7535    4126.8872     132.8409
    5699.0      53.0956       0.7570    4126.6919     132.8360
    5698.5      50.5051       0.7572    4126.5586     132.8299
    5698.0      45.2263       0.7560    4126.4243     132.8238
    5697.5      55.5883       0.7563    4126.2627     132.8202
    5697.0      58.2470       0.7557    4126.0786     132.8145
    5696.5      71.1994       0.7542    4125.9219     132.8090
    5696.0      77.6756       0.7558    4125.8071     132.8041
    5695.5      72.5141       0.7573    4125.6426     132.7989
    5695.0      63.4474       0.7520    4125.4551     132.7939
    5694.5      56.9712       0.7459    4125.2979     132.7895
    5694.0      46.5849       0.7452    4125.1338     132.7842
    5693.5      46.5849       0.7440    4124.9858     132.7782
    5693.0      57.0252       0.7444    4124.8477     132.7704
    5692.5      53.1200       0.7530    4124.6333     132.7667
    5692.0      51.8247       0.7585    4124.4307     132.7611
    5691.5      63.5063       0.7554    4124.2568     132.7574
    5691.0      57.0301       0.7529    4124.1646     132.7522
    5690.5      46.5897       0.7527    4124.0220     132.7459
    5690.0      50.4950       0.7498    4123.8135     132.7419
    5689.5      46.6092       0.7499    4123.6235     132.7374
    5689.0      36.2473       0.7541    4123.4414     132.7319
    5688.5      34.9374       0.7545    4123.3203     132.7260
    5688.0      42.7774       0.7506    4123.1807     132.7202
    5687.5      47.9584       0.7491    4123.0317     132.7143
    5687.0      53.0858       0.7500    4122.8950     132.7102
    5686.5      47.9146       0.7499    4122.7637     132.7021
    5686.0      53.1102       0.7543    4122.5879     132.6967
    5685.5      55.5932       0.7593    4122.4214     132.6918
    5685.0      53.0027       0.7581    4122.2329     132.6869
    5684.5      51.8101       0.7545    4122.1021     132.6833
    5684.0      56.9521       0.7542    4121.9819     132.6773
    5683.5      58.2473       0.7531    4121.8350     132.6708
    5683.0      62.1915       0.7513    4121.6387     132.6674
    5682.5      54.4200       0.7540    4121.4478     132.6646
    5682.0      55.6662       0.7571    4121.3125     132.6606
    5681.5      65.9892       0.7535    4121.1777     132.6560
    5681.0      71.1702       0.7496    4120.9976     132.6496
    5680.5      55.6272       0.7501    4120.8066     132.6442
    5680.0      69.8068       0.7504    4120.5825     132.6410
    5679.5      68.5115       0.7486    4120.4409     132.6382
    5679.0      55.6469       0.7509    4120.3237     132.6314
    5678.5      51.7173       0.7517    4120.1685     132.6278
    5678.0      54.3078       0.7458    4120.0039     132.6224
    5677.5      50.4902       0.7396    4119.8789     132.6160
    5677.0      53.0223       0.7423    4119.7769     132.6109
    5676.5      59.4789       0.7449    4119.6226     132.6054
    5676.0      56.9322       0.7454    4119.4717     132.6010
    5675.5      62.1132       0.7485    4119.2935     132.5965
    5675.0      53.0465       0.7532    4119.1567     132.5907
    5674.5      55.6273       0.7504    4119.0239     132.5854
    5674.0      46.5605       0.7502    4118.8623     132.5809
    5673.5      40.0843       0.7572    4118.6904     132.5753
    5673.0      43.9116       0.7615    4118.4980     132.5695
    5672.5      47.7974       0.7620    4118.3306     132.5638
    5672.0      40.1333       0.7635    4118.1782     132.5566
    5671.5      47.8658       0.7613    4118.0020     132.5511
    5671.0      55.6373       0.7556    4117.8218     132.5466
    5670.5      45.3534       0.7569    4117.6152     132.5420
    5670.0      39.7363       0.7607    4117.4453     132.5355
    5669.5      34.4966       0.7604    4117.3062     132.5302
    5669.0      28.0593       0.7579    4117.0732     132.5272
    5668.5      30.6498       0.7569    4116.8872     132.5230
    5668.0      33.2207       0.7519    4116.7480     132.5185
    5667.5      34.9325       0.7465    4116.6079     132.5139
    5667.0      41.4283       0.7478    4116.4761     132.5082
    5666.5      50.4950       0.7524    4116.3188     132.5042
    5666.0      45.2848       0.7513    4116.1445     132.4996
    5665.5      45.3142       0.7502    4115.9878     132.4939
    5665.0      46.1896       0.7466    4115.8823     132.4887
    5664.5      39.7330       0.7394    4115.7998     132.4835
    5664.0      31.9420       0.7356    4115.6392     132.4783
    5663.5      37.1522       0.7403    4115.5044     132.4748
    5663.0      39.6743       0.7447    4115.3550     132.4691
    5662.5      37.5232       0.7506    4115.1841     132.4638
    5662.0      42.6845       0.7573    4115.0078     132.4586
    5661.5      58.2470       0.7593    4114.8848     132.4539
    5661.0      53.0368       0.7566    4114.7456     132.4503
    5660.5      58.2567       0.7554    4114.5547     132.4458
    5660.0      66.0282       0.7572    4114.3564     132.4412
    5659.5      66.0282       0.7576    4114.1528     132.4364
    5659.0      56.9176       0.7581    4113.9775     132.4318
    5658.5      54.3760       0.7594    4113.8389     132.4257
    5658.0      47.8998       0.7566    4113.7075     132.4204
    5657.5      46.5656       0.7516    4113.5142     132.4162
    5657.0      41.3846       0.7505    4113.3262     132.4125
    5656.5      34.9522       0.7511    4113.1479     132.4075
    5656.0      34.9131       0.7501    4113.0142     132.4034
    5655.5      37.5036       0.7501    4112.8906     132.3979
    5655.0      34.9520       0.7503    4112.7109     132.3942
    5654.5      41.4282       0.7476    4112.5244     132.3905
    5654.0      44.0187       0.7443    4112.3896     132.3863
    5653.5      46.5995       0.7474    4112.2295     132.3812
    5653.0      41.4185       0.7526    4112.0566     132.3764
    5652.5      42.7138       0.7511    4111.8579     132.3732
    5652.0      41.3796       0.7490    4111.6611     132.3688
    5651.5      36.2084       0.7535    4111.5054     132.3650
    5651.0      40.1233       0.7529    4111.3765     132.3600
    5650.5      49.1316       0.7513    4111.2095     132.3570
