~VERSION INFORMATION
VERS.           2.0   :CWLS Log ASCII Standard - VERSION 2.0
WRAP.           NO    :One Line per depth step
PROD.  Schlumberger   :LAS Producer
PROG.  DLIS to ASCII 17C0-154                          :LAS Program name and version
CREA.        2010/09/30 15:14                          :LAS Creation date {YYYY/MM/DD hh:mm}
DLIS_CREA.  2010-Sep-07 20:46                          :DLIS Creation date and time {YYYY-MMM-DD hh:mm}
SOURCE.     CFU_31F_#1_DENBURY_ONSHORE_7-SEP-2010_10660-10934_PRES_TEMP_DL_PSP_069PUP.DLIS  :DLIS File Name
FILE-ID.     FCS_GMS_RST_PSP_069PUP                    :File Identification Number
#--------------------------------------------------
~WELL INFORMATION
#MNEM.UNIT      DATA             DESCRIPTION
#---- ------ --------------   -----------------------------
STRT .F        10666.5       :START DEPTH     
STOP .F          -41.5       :STOP DEPTH     
STEP .F           -0.5       :STEP     
NULL .          -999.25      :NULL VALUE
COMP .        DENBURY ONSHORE, LLC                     :COMPANY
WELL .        CFU 31F #1                               :WELL
FLD  .        CRANFIELD                                :FIELD
LOC  .                                                 :LOCATION
CNTY .        FRANKLIN                                 :COUNTY
STAT .        MISSISSIPPI                              :STATE
CTRY .                                                 :COUNTRY
API  .        23-037-21488-0000                        :API NUMBER
UWI  .        23-037-21488-0000                        :UNIQUE WELL ID
DATE .        07-Sep-2010                              :LOG DATE {DD-MMM-YYYY}
SRVC .        Schlumberger                             :SERVICE COMPANY
LATI .DEG                                              :LATITUDE
LONG .DEG                                              :LONGITUDE
GDAT .                                                 :GeoDetic Datum
SECT .        31                                       :Section
RANG .        1E                                       :Range
TOWN .        7N                                       :Township
#-----------------------------------------------------------------------------
~PARAMETER INFORMATION
#MNEM.UNIT    VALUE                      DESCRIPTION
#---- -----   --------------------       ------------------------
RUN  .          1                        :RUN NUMBER
PDAT .        GROUND LEVEL               :Permanent Datum
EPD  .F         315.700012               :Elevation of Permanent Datum above Mean Sea Level
LMF  .          KELLY BUSHING            :Logging Measured From (Name of Logging Elevation Reference)
APD  .F          18.000000               :Elevation of Depth Reference (LMF) above Permanent Datum
#-----------------------------------------------------------------------------
~CURVE INFORMATION
#MNEM.UNIT   API CODE                                  DESCRIPTION
#---- -----  --------                                  -----------------------
DEPT .F                                                :DEPTH (BOREHOLE) {F10.1}
GR   .GAPI                                             :Gamma Ray {F13.4}
WFDE .G/C3                                             :Well Fluid Density Corrected {F13.4}
WPRE .PSI                                              :Well Pressure {F13.4}
WTEP .DEGF                                             :Well Temperature {F13.4}
#-----------------------------------------------------------------------------
# 
#     DEPT        GR           WFDE         WPRE         WTEP
#
~A  
# ...
    4253.0      62.0743       0.7530    3664.8120     120.9251
    4252.5      59.5325       0.7545    3664.6538     120.9207
    4252.0      59.5325       0.7523    3664.4736     120.9185
    4251.5      51.7610       0.7513    3664.3228     120.9158
    4251.0      47.8558       0.7524    3664.1462     120.9117
    4250.5      46.6092       0.7533    3663.9873     120.9069
    4250.0      40.1330       0.7546    3663.8035     120.9043
    4249.5      38.7988       0.7565    3663.5916     120.9002
    4249.0      38.7988       0.7574    3663.4268     120.8955
    4248.5      41.4382       0.7572    3663.2642     120.8910
    4248.0      42.7334       0.7562    3663.0356     120.8866
    4247.5      54.3322       0.7546    3662.8281     120.8821
    4247.0      49.1902       0.7533    3662.6560     120.8776
    4246.5      57.0205       0.7545    3662.5254     120.8724
    4246.0      60.8330       0.7555    3662.3403     120.8692
    4245.5      59.5378       0.7555    3662.1804     120.8674
    4245.0      50.5295       0.7566    3662.0654     120.8651
    4244.5      53.0908       0.7565    3661.9338     120.8605
    4244.0      42.6699       0.7526    3661.7600     120.8555
    4243.5      41.4185       0.7502    3661.6033     120.8531
    4243.0      40.1233       0.7511    3661.4746     120.8513
    4242.5      41.3893       0.7516    3661.3762     120.8498
    4242.0      41.4185       0.7514    3661.1990     120.8452
    4241.5      47.8947       0.7525    3661.0220     120.8418
    4241.0      44.0090       0.7549    3660.8914     120.8392
    4240.5      43.9700       0.7554    3660.7310     120.8354
    4240.0      53.0660       0.7556    3660.5264     120.8313
    4239.5      60.8374       0.7577    3660.3665     120.8279
    4239.0      63.3744       0.7592    3660.1821     120.8252
    4238.5      65.9649       0.7571    3660.0159     120.8212
    4238.0      72.4800       0.7551    3659.9016     120.8158
    4237.5      65.9649       0.7563    3659.7266     120.8111
    4237.0      60.7839       0.7575    3659.5515     120.8089
    4236.5      62.1327       0.7557    3659.4385     120.8050
    4236.0      59.5422       0.7548    3659.3167     120.8023
    4235.5      55.6078       0.7557    3659.1272     120.7970
    4235.0      56.9420       0.7553    3658.9065     120.7945
    4234.5      51.7610       0.7531    3658.7700     120.7920
    4234.0      40.1038       0.7532    3658.6335     120.7888
    4233.5      38.7891       0.7534    3658.4314     120.7846
    4233.0      44.0187       0.7541    3658.2446     120.7825
    4232.5      42.7235       0.7531    3658.1135     120.7769
    4232.0      43.9944       0.7525    3657.9573     120.7724
    4231.5      53.1102       0.7534    3657.7832     120.7678
    4231.0      58.3106       0.7552    3657.6309     120.7646
    4230.5      54.3713       0.7559    3657.4456     120.7603
    4230.0      47.8951       0.7578    3657.2998     120.7564
    4229.5      49.2441       0.7618    3657.1592     120.7529
    4229.0      46.5656       0.7658    3656.9792     120.7504
    4228.5      45.2704       0.7625    3656.7832     120.7476
    4228.0      38.8477       0.7583    3656.6377     120.7433
    4227.5      50.4465       0.7548    3656.4944     120.7386
    4227.0      50.4170       0.7501    3656.2998     120.7350
    4226.5      51.7512       0.7456    3656.1082     120.7327
    4226.0      54.3417       0.7481    3655.9238     120.7290
    4225.5      49.1510       0.7510    3655.7761     120.7240
    4225.0      40.1427       0.7523    3655.6396     120.7194
    4224.5      49.2094       0.7537    3655.4531     120.7146
    4224.0      47.9142       0.7547    3655.2805     120.7106
    4223.5      43.9992       0.7552    3655.1763     120.7079
    4223.0      51.8197       0.7537    3655.0308     120.7043
    4222.5      63.4769       0.7521    3654.8394     120.6994
    4222.0      56.9617       0.7513    3654.6575     120.6956
    4221.5      56.9617       0.7511    3654.5283     120.6913
    4221.0      53.1052       0.7508    3654.4182     120.6863
    4220.5      55.7055       0.7521    3654.2319     120.6807
    4220.0      49.1855       0.7534    3654.0557     120.6765
    4219.5      50.5197       0.7545    3653.8528     120.6739
    4219.0      50.5197       0.7547    3653.7026     120.6703
    4218.5      67.2799       0.7548    3653.5913     120.6675
    4218.0      68.5261       0.7547    3653.4402     120.6643
    4217.5      71.1604       0.7552    3653.2632     120.6627
    4217.0      72.4557       0.7558    3653.1238     120.6596
    4216.5      72.4167       0.7565    3652.9871     120.6575
    4216.0      67.3137       0.7571    3652.8154     120.6538
    4215.5      69.9042       0.7579    3652.6433     120.6512
    4215.0      72.4946       0.7581    3652.5154     120.6485
    4214.5      75.0267       0.7577    3652.3838     120.6446
    4214.0      82.8371       0.7565    3652.1802     120.6426
    4213.5      78.9514       0.7554    3651.9824     120.6382
    4213.0      68.5651       0.7534    3651.7944     120.6357
    4212.5      65.9746       0.7509    3651.6021     120.6317
    4212.0      60.8913       0.7480    3651.4583     120.6268
    4211.5      51.7905       0.7460    3651.3098     120.6241
    4211.0      51.7905       0.7439    3651.1218     120.6217
    4210.5      53.1101       0.7452    3650.9502     120.6194
    4210.0      47.9291       0.7472    3650.8311     120.6142
    4209.5      42.6894       0.7494    3650.6978     120.6094
    4209.0      49.1997       0.7518    3650.5234     120.6052
    4208.5      47.9045       0.7547    3650.3513     120.6028
    4208.0      50.4949       0.7552    3650.1970     120.5990
    4207.5      51.7512       0.7552    3650.0625     120.5954
    4207.0      66.0184       0.7548    3649.8867     120.5911
    4206.5      56.9517       0.7546    3649.7148     120.5863
    4206.0      56.9127       0.7545    3649.5818     120.5850
    4205.5      56.9520       0.7541    3649.4390     120.5804
    4205.0      59.5814       0.7563    3649.2642     120.5759
    4204.5      45.3143       0.7588    3649.1077     120.5723
    4204.0      56.9715       0.7605    3648.9561     120.5696
    4203.5      59.6009       0.7615    3648.8254     120.5645
    4203.0      54.3612       0.7625    3648.6997     120.5585
    4202.5      54.3612       0.7585    3648.5222     120.5551
    4202.0      55.6759       0.7542    3648.3250     120.5508
    4201.5      46.6092       0.7521    3648.1985     120.5450
    4201.0      43.9798       0.7507    3648.0388     120.5382
    4200.5      51.7707       0.7505    3647.8918     120.5322
    4200.0      56.9517       0.7533    3647.7146     120.5273
    4199.5      63.4279       0.7570    3647.5564     120.5236
    4199.0      68.5553       0.7602    3647.4294     120.5183
    4198.5      66.0332       0.7604    3647.2764     120.5118
    4198.0      63.4427       0.7566    3647.0750     120.5069
    4197.5      56.9665       0.7524    3646.8860     120.5031
    4197.0      56.9178       0.7482    3646.7686     120.4970
    4196.5      55.7252       0.7429    3646.6719     120.4929
    4196.0      56.9569       0.7406    3646.4651     120.4878
    4195.5      62.1379       0.7411    3646.2646     120.4837
    4195.0      63.4331       0.7440    3646.0999     120.4798
    4194.5      63.4331       0.7481    3645.9734     120.4740
    4194.0      62.0888       0.7524    3645.8467     120.4678
    4193.5      67.3039       0.7544    3645.7026     120.4652
    4193.0      66.0087       0.7567    3645.5046     120.4611
    4192.5      63.4182       0.7571    3645.3452     120.4561
    4192.0      65.9989       0.7551    3645.1750     120.4509
    4191.5      63.4084       0.7526    3644.9795     120.4462
    4191.0      63.4084       0.7519    3644.8176     120.4428
    4190.5      50.4511       0.7492    3644.6870     120.4365
    4190.0      66.0922       0.7449    3644.5281     120.4329
