~VERSION INFORMATION
VERS.           2.0   :CWLS Log ASCII Standard - VERSION 2.0
WRAP.           NO    :One Line per depth step
PROD.  Schlumberger   :LAS Producer
PROG.  DLIS to ASCII 17C0-154                          :LAS Program name and version
CREA.        2010/09/16 16:20                          :LAS Creation date {YYYY/MM/DD hh:mm}
DLIS_CREA.  2010-Sep-07 20:55                          :DLIS Creation date and time {YYYY-MMM-DD hh:mm}
SOURCE.     CFU_31F_#1_DENBURY_ONSHORE_7-SEP-2010_10660-10934_MAIN_PASS_RST_PSP_071PUP.DLIS  :DLIS File Name
FILE-ID.     FCS_GMS_RST_PSP_071PUP                    :File Identification Number
#--------------------------------------------------
~WELL INFORMATION
#MNEM.UNIT      DATA             DESCRIPTION
#---- ------ --------------   -----------------------------
STRT .F        10666.5       :START DEPTH     
STOP .F         8508.5       :STOP DEPTH     
STEP .F           -0.5       :STEP     
NULL .          -999.25      :NULL VALUE
COMP .        DENBURY ONSHORE, LLC                     :COMPANY
WELL .        CFU 31F #1                               :WELL
FLD  .        CRANFIELD                                :FIELD
LOC  .                                                 :LOCATION
CNTY .        FRANKLIN                                 :COUNTY
STAT .        MISSISSIPPI                              :STATE
CTRY .                                                 :COUNTRY
API  .        23-037-21488-0000                        :API NUMBER
UWI  .        23-037-21488-0000                        :UNIQUE WELL ID
DATE .        07-Sep-2010                              :LOG DATE {DD-MMM-YYYY}
SRVC .        Schlumberger                             :SERVICE COMPANY
LATI .DEG                                              :LATITUDE
LONG .DEG                                              :LONGITUDE
GDAT .                                                 :GeoDetic Datum
SECT .        31                                       :Section
RANG .        1E                                       :Range
TOWN .        7N                                       :Township
#-----------------------------------------------------------------------------
~PARAMETER INFORMATION
#MNEM.UNIT    VALUE                      DESCRIPTION
#---- -----   --------------------       ------------------------
RUN  .          1                        :RUN NUMBER
PDAT .        GROUND LEVEL               :Permanent Datum
EPD  .F         315.700012               :Elevation of Permanent Datum above Mean Sea Level
LMF  .          KELLY BUSHING            :Logging Measured From (Name of Logging Elevation Reference)
APD  .F          18.000000               :Elevation of Depth Reference (LMF) above Permanent Datum
#-----------------------------------------------------------------------------
~CURVE INFORMATION
#MNEM.UNIT   API CODE                                  DESCRIPTION
#---- -----  --------                                  -----------------------
DEPT .F                                                :DEPTH (BOREHOLE) {F10.1}
CCLD .V                                                :CCL Discriminated Amplitude {F13.4}
CIRF_FIL.                                              :Capture to Inelastic Ratio Far Filtered {F13.4}
CIRN_FIL.                                              :Capture to Inelastic Ratio Near Filtered {F13.4}
FBAC .HZ                                               :Far Background Count Rate {F13.4}
GR   .GAPI                                             :Gamma Ray {F13.4}
SIBF .CU                                               :Sigma Borehole Fluid {F13.4}
SIGM .CU                                               :Formation Sigma (Neutron Capture Cross Section) {F13.4}
TPHI .CFCF                                             :Thermal Decay Porosity {F13.4}
#-----------------------------------------------------------------------------
# 
#     DEPT        CCLD       CIRF_FIL     CIRN_FIL       FBAC         GR           SIBF         SIGM         TPHI
#
~A  
# ...
    8776.5       0.0000       1.6997       0.4884    2335.4338      28.4719     150.0358      15.5503       0.1341
    8776.0       0.0000       1.6907       0.4849    2330.7546      27.3142     149.9487      15.2639       0.1324
    8775.5       0.0000       1.7037       0.4901    2332.6011      29.3668     149.9185      15.3232       0.1309
    8775.0       0.0000       1.7313       0.4955    2335.6821      31.2386     149.9256      15.4689       0.1316
    8774.5       0.0000       1.7382       0.5016    2334.3452      31.1520     150.0512      15.3404       0.1342
    8774.0       0.0000       1.7402       0.5042    2347.8418      29.5456     149.7596      15.2755       0.1377
    8773.5       0.0000       1.6936       0.4996    2358.5371      31.2388     149.2030      15.7913       0.1431
    8773.0       0.0000       1.6485       0.4959    2371.2375      30.9745     148.9260      16.2106       0.1502
    8772.5       0.0000       1.6146       0.5004    2385.6760      29.6358     148.4301      16.1759       0.1549
    8772.0       0.0000       1.6486       0.5164    2350.9167      30.2579     148.4304      15.6428       0.1537
    8771.5       0.0000       1.6958       0.5264    2344.3660      29.8147     148.0417      15.2535       0.1473
    8771.0       0.0000       1.7061       0.5242    2303.3230      28.4733     147.7538      15.0673       0.1401
    8770.5       0.0000       1.6991       0.5147    2310.0076      27.8483     147.4346      15.0888       0.1362
    8770.0       0.0000       1.6885       0.5114    2313.5090      30.6190     147.1949      15.3569       0.1330
    8769.5       0.0000       1.6731       0.5088    2289.7058      32.6676     146.9593      15.4197       0.1308
    8769.0       0.0000       1.6830       0.5025    2299.7327      34.5427     146.9711      15.5084       0.1279
    8768.5       0.0000       1.6766       0.4988    2292.6533      36.4196     146.7487      15.2114       0.1242
    8768.0       0.0000       1.7107       0.4928    2296.5046      37.3368     146.8642      15.0903       0.1227
    8767.5       0.0000       1.7194       0.5021    2306.9324      38.4976     146.2003      14.7887       0.1226
    8767.0       0.0000       1.7361       0.5104    2301.5847      39.3048     145.9124      14.6388       0.1246
    8766.5       0.0000       1.7269       0.5108    2343.6970      40.4610     145.2203      14.7562       0.1246
    8766.0       0.0000       1.7113       0.5051    2372.5740      41.0897     145.0446      15.0241       0.1242
    8765.5       0.0000       1.6995       0.4996    2401.3174      41.6826     144.8056      15.2273       0.1257
    8765.0       0.0000       1.6851       0.5055    2414.9539      39.8968     145.0113      15.1922       0.1290
    8764.5       0.0000       1.6845       0.5096    2413.6169      38.2047     144.9896      15.0699       0.1303
    8764.0       0.0000       1.6913       0.5102    2428.9912      37.0405     143.9332      14.9396       0.1309
    8763.5       0.0000       1.6968       0.5150    2430.1689      38.0227     143.4996      14.6904       0.1297
    8763.0       0.0000       1.7046       0.5112    2431.0986      39.4546     143.0245      14.7059       0.1305
    8762.5       0.0000       1.6966       0.5071    2430.5955      39.7186     142.0832      15.0069       0.1298
    8762.0       0.0000       1.6786       0.4997    2441.5579      40.1650     141.8412      15.7503       0.1326
    8761.5       0.0000       1.6162       0.4933    2468.7039      38.4733     141.4930      16.4016       0.1368
    8761.0       0.0000       1.5411       0.4886    2456.0032      35.7022     141.0387      17.2753       0.1457
    8760.5       0.0000       1.4742       0.4800    2454.9336      32.1352     140.8561      17.8460       0.1572
    8760.0       0.0000       1.4392       0.4832    2428.1958      31.6890     140.6317      18.2919       0.1677
    8759.5       0.0000       1.4498       0.4842    2420.1743      30.7035     140.5960      18.2489       0.1723
    8759.0       0.0000       1.4764       0.4854    2427.5273      31.9567     140.6397      18.0594       0.1667
    8758.5       0.0000       1.5218       0.4860    2427.5273      30.9822     140.8563      17.4891       0.1593
    8758.0       0.0000       1.5613       0.4973    2420.7344      32.4109     141.3265      16.9046       0.1534
    8757.5       0.0000       1.6078       0.5157    2446.1355      31.7861     140.9100      16.1937       0.1519
    8757.0       0.0000       1.6263       0.5223    2433.4292      30.7152     141.3228      15.9472       0.1514
    8756.5       0.0000       1.6498       0.5235    2412.7073      30.0008     140.8977      15.8685       0.1503
    8756.0       0.0000       1.6576       0.5227    2388.7700      30.1721     140.6644      15.9750       0.1494
    8755.5       0.0000       1.7103       0.5333    2412.2996      28.9914     141.0059      15.7135       0.1483
    8755.0       0.0000       1.7395       0.5415    2387.7004      27.9288     140.7726      15.3219       0.1473
    8754.5       0.0000       1.7607       0.5491    2439.1711      27.9288     140.0404      15.2766       0.1471
    8754.0       0.0000       1.7416       0.5463    2447.1924      26.5875     139.6252      15.4152       0.1492
    8753.5       0.0000       1.6689       0.5244    2443.1819      26.8581     139.8222      15.8625       0.1482
    8753.0       0.0000       1.6246       0.4901    2428.6155      25.9800     139.8484      16.0545       0.1469
    8752.5       0.0000       1.6200       0.4828    2416.1824      27.1353     139.9743      16.1553       0.1414
    8752.0       0.0000       1.6809       0.5013    2372.8667      26.0665     139.9288      16.0525       0.1407
    8751.5       0.0000       1.7358       0.5309    2384.0967      25.8914     139.7987      15.8060       0.1396
    8751.0       0.0000       1.7466       0.5390    2370.0593      26.1744     139.9508      15.7256       0.1406
    8750.5       0.0000       1.7314       0.5417    2358.2947      27.2220     139.9768      15.7959       0.1416
    8750.0       0.0000       1.6863       0.5263    2318.7224      27.1327     140.1854      16.1949       0.1490
    8749.5       0.0000       1.6234       0.5195    2344.9255      27.5091     140.5770      16.5837       0.1574
    8749.0       0.0175       1.5874       0.4905    2317.5193      27.7726     140.3253      16.9106       0.1694
    8748.5       0.0352       1.5906       0.4966    2298.1399      27.3981     140.7088      16.9518       0.1720
    8748.0       0.0000       1.6626       0.4914    2280.7603      27.6024     140.8856      16.9872       0.1733
    8747.5       0.0000       1.7128       0.5204    2294.1296      27.9898     141.1629      17.0294       0.1661
    8747.0       0.0000       1.7090       0.5222    2298.1401      29.3070     141.5623      17.2035       0.1619
    8746.5       0.0000       1.6565       0.5242    2299.7444      29.3048     141.8415      17.1356       0.1577
    8746.0       0.0000       1.6087       0.5110    2298.5413      30.9416     142.5892      17.0780       0.1581
    8745.5       0.0000       1.5941       0.5086    2320.7339      30.9416     142.8146      16.9259       0.1584
    8745.0       0.0000       1.5465       0.4950    2343.9958      30.5997     143.3014      17.0273       0.1583
    8744.5       0.0000       1.5209       0.4813    2358.4343      31.1776     143.6334      17.2452       0.1571
    8744.0       0.0000       1.5145       0.4729    2344.9316      30.7360     144.0374      17.5253       0.1564
    8743.5       0.0000       1.5512       0.4855    2347.0708      29.6976     144.0806      17.5799       0.1583
    8743.0       0.0000       1.5951       0.5117    2356.1558      27.7726     144.5093      17.2548       0.1595
    8742.5       0.0000       1.6558       0.5409    2366.7173      26.4743     144.9675      16.8970       0.1617
    8742.0       0.0000       1.7149       0.5719    2344.9197      25.3559     145.3324      16.6175       0.1653
