~VERSION INFORMATION
VERS.           2.0   :CWLS Log ASCII Standard - VERSION 2.0
WRAP.           NO    :One Line per depth step
PROD.  Schlumberger   :LAS Producer
PROG.  DLIS to ASCII 17C0-154                          :LAS Program name and version
CREA.        2010/09/30 15:14                          :LAS Creation date {YYYY/MM/DD hh:mm}
DLIS_CREA.  2010-Sep-07 20:46                          :DLIS Creation date and time {YYYY-MMM-DD hh:mm}
SOURCE.     CFU_31F_#1_DENBURY_ONSHORE_7-SEP-2010_10660-10934_PRES_TEMP_DL_PSP_069PUP.DLIS  :DLIS File Name
FILE-ID.     FCS_GMS_RST_PSP_069PUP                    :File Identification Number
#--------------------------------------------------
~WELL INFORMATION
#MNEM.UNIT      DATA             DESCRIPTION
#---- ------ --------------   -----------------------------
STRT .F        10666.5       :START DEPTH     
STOP .F          -41.5       :STOP DEPTH     
STEP .F           -0.5       :STEP     
NULL .          -999.25      :NULL VALUE
COMP .        DENBURY ONSHORE, LLC                     :COMPANY
WELL .        CFU 31F #1                               :WELL
FLD  .        CRANFIELD                                :FIELD
LOC  .                                                 :LOCATION
CNTY .        FRANKLIN                                 :COUNTY
STAT .        MISSISSIPPI                              :STATE
CTRY .                                                 :COUNTRY
API  .        23-037-21488-0000                        :API NUMBER
UWI  .        23-037-21488-0000                        :UNIQUE WELL ID
DATE .        07-Sep-2010                              :LOG DATE {DD-MMM-YYYY}
SRVC .        Schlumberger                             :SERVICE COMPANY
LATI .DEG                                              :LATITUDE
LONG .DEG                                              :LONGITUDE
GDAT .                                                 :GeoDetic Datum
SECT .        31                                       :Section
RANG .        1E                                       :Range
TOWN .        7N                                       :Township
#-----------------------------------------------------------------------------
~PARAMETER INFORMATION
#MNEM.UNIT    VALUE                      DESCRIPTION
#---- -----   --------------------       ------------------------
RUN  .          1                        :RUN NUMBER
PDAT .        GROUND LEVEL               :Permanent Datum
EPD  .F         315.700012               :Elevation of Permanent Datum above Mean Sea Level
LMF  .          KELLY BUSHING            :Logging Measured From (Name of Logging Elevation Reference)
APD  .F          18.000000               :Elevation of Depth Reference (LMF) above Permanent Datum
#-----------------------------------------------------------------------------
~CURVE INFORMATION
#MNEM.UNIT   API CODE                                  DESCRIPTION
#---- -----  --------                                  -----------------------
DEPT .F                                                :DEPTH (BOREHOLE) {F10.1}
GR   .GAPI                                             :Gamma Ray {F13.4}
WFDE .G/C3                                             :Well Fluid Density Corrected {F13.4}
WPRE .PSI                                              :Well Pressure {F13.4}
WTEP .DEGF                                             :Well Temperature {F13.4}
#-----------------------------------------------------------------------------
# 
#     DEPT        GR           WFDE         WPRE         WTEP
#
~A  
   10666.5      61.8580       1.2417    5701.2817     264.4316
   10666.0      61.8580       1.2417    5701.2949     264.4323
   10665.5      61.8580       1.2417    5701.2949     264.4323
   10665.0      61.8580       1.2417    5701.2949     264.4323
   10664.5      61.8580       1.2417    5701.2949     264.4323
   10664.0      61.8580       1.2416    5701.2949     264.4323
   10663.5      61.8580       1.2416    5701.2949     264.4323
   10663.0      61.8580       1.2416    5701.2949     264.4323
   10662.5      61.8580       1.2417    5701.2949     264.4323
   10662.0      61.8580       1.2417    5701.2949     264.4323
   10661.5      61.8580       1.2417    5701.2949     264.4323
   10661.0      61.8580       1.2417    5701.2949     264.4323
   10660.5      61.8580       1.2418    5701.2949     264.4323
   10660.0      61.8580       1.2418    5701.2949     264.4323
   10659.5      61.8580       1.2418    5701.2949     264.4323
   10659.0      61.8580       1.2418    5701.2949     264.4323
   10658.5      61.8580       1.2418    5701.2949     264.4323
   10658.0      61.8580       1.2417    5701.2949     264.4323
   10657.5      61.8580       1.2432    5701.2949     264.4323
   10657.0      61.8580       1.2430    5701.2949     264.4323
   10656.5      61.8580       1.2430    5701.2949     264.4323
   10656.0      61.8580       1.2432    5701.2949     264.4323
   10655.5      61.8580       1.2415    5701.2949     264.4323
   10655.0      61.8580       1.2388    5701.2949     264.4323
   10654.5      61.8580       1.2376    5701.2949     264.4323
   10654.0      61.8580       1.2375    5701.2949     264.4323
   10653.5      61.8580       1.2368    5701.2949     264.4323
   10653.0      61.8580       1.2386    5701.2949     264.4323
   10652.5      61.8580       1.2409    5701.2949     264.4323
   10652.0      61.8580       1.2428    5701.2949     264.4323
   10651.5      61.8580       1.2435    5701.2949     264.4323
   10651.0      61.8580       1.2447    5701.2949     264.4323
   10650.5      61.8580       1.2452    5701.2949     264.4323
   10650.0      61.8580       1.2449    5701.2949     264.4323
   10649.5      61.8580       1.2442    5701.2949     264.4323
   10649.0      61.8580       1.2441    5701.2949     264.4323
   10648.5      61.8580       1.2430    5701.2949     264.4323
   10648.0      61.8580       1.2424    5701.2949     264.4323
   10647.5      61.8580       1.2431    5701.2949     264.4323
   10647.0      61.8580       1.2435    5701.2949     264.4323
   10646.5      61.8580       1.2439    5701.2949     264.4323
   10646.0      61.8580       1.2445    5701.2949     264.4323
   10645.5      61.8580       1.2423    5701.2949     264.4323
   10645.0      61.8580       1.2403    5701.2949     264.4323
   10644.5      61.8580       1.2399    5701.2949     264.4323
   10644.0      61.8580       1.2394    5701.2949     264.4323
   10643.5      61.8580       1.2382    5701.2949     264.4323
   10643.0      61.8580       1.2409    5701.2949     264.4323
   10642.5      61.8580       1.2417    5701.2949     264.4323
   10642.0      61.8580       1.2423    5701.2949     264.4323
   10641.5      61.8580       1.2422    5701.2949     264.4323
   10641.0      61.8580       1.2440    5701.2949     264.4323
   10640.5      61.8580       1.2431    5701.2949     264.4323
   10640.0      61.8580       1.2421    5701.2949     264.4323
   10639.5      61.8580       1.2410    5701.2949     264.4323
   10639.0      61.8580       1.2408    5701.2949     264.4323
   10638.5      61.8580       1.2402    5701.2949     264.4323
   10638.0      61.8580       1.2415    5701.2949     264.4323
   10637.5      61.8580       1.2433    5701.2949     264.4323
   10637.0      61.8580       1.2455    5701.2949     264.4323
   10636.5      61.8580       1.2464    5701.2949     264.4323
   10636.0      61.8580       1.2457    5701.2949     264.4323
   10635.5      61.8580       1.2441    5701.2949     264.4323
   10635.0      61.8580       1.2418    5701.2949     264.4323
   10634.5      61.8580       1.2412    5701.2949     264.4323
   10634.0      61.8580       1.2419    5701.2949     264.4323
   10633.5      61.8580       1.2435    5701.2949     264.4323
   10633.0      61.8580       1.2442    5701.2949     264.4323
   10632.5      61.8580       1.2446    5701.2949     264.4323
   10632.0      61.8580       1.2437    5701.2949     264.4323
   10631.5      61.8580       1.2410    5701.2949     264.4323
   10631.0      61.8580       1.2405    5700.9863     264.4210
   10630.5      61.8580       1.2406    5700.6553     264.4092
   10630.0      61.8580       1.2410    5700.3647     264.3994
   10629.5      61.8580       1.2415    5700.1602     264.3891
   10629.0      63.5415       1.2434    5699.9307     264.3763
   10628.5      60.4166       1.2433    5699.6714     264.3587
   10628.0      58.0208       1.2432    5699.3105     264.3423
   10627.5      52.1254       1.2442    5698.9697     264.3209
   10627.0      47.5128       1.2435    5698.6704     264.2919
   10626.5      43.0743       1.2433    5698.3384     264.2603
   10626.0      42.7044       1.2427    5697.9907     264.2300
   10625.5      41.2357       1.2421    5697.7070     264.2009
   10625.0      43.6268       1.2419    5697.4707     264.1758
   10624.5      47.7038       1.2429    5697.1675     264.1546
   10624.0      44.7520       1.2436    5696.8560     264.1341
   10623.5      47.3287       1.2439    5696.6108     264.1101
   10623.0      50.2877       1.2458    5696.2949     264.0878
   10622.5      48.0709       1.2465    5695.9131     264.0686
   10622.0      44.7420       1.2457    5695.6011     264.0473
   10621.5      49.9130       1.2450    5695.2866     264.0261
   10621.0      54.3112       1.2454    5694.9487     264.0035
   10620.5      52.0920       1.2441    5694.6357     263.9784
   10620.0      55.0581       1.2423    5694.3086     263.9521
   10619.5      60.2363       1.2432    5694.0029     263.9222
   10619.0      58.3762       1.2435    5693.7959     263.9007
   10618.5      52.8808       1.2427    5693.5698     263.8906
   10618.0      58.0589       1.2432    5693.2275     263.8829
   10617.5      62.1275       1.2457    5692.9043     263.8733
   10617.0      59.5504       1.2470    5692.6143     263.8607
   10616.5      62.1367       1.2459    5692.3022     263.8427
   10616.0      62.1256       1.2456    5691.9619     263.8192
   10615.5      54.7281       1.2460    5691.6489     263.7956
   10615.0      48.4403       1.2458    5691.2866     263.7744
   10614.5      42.8803       1.2439    5691.0117     263.7604
   10614.0      36.9688       1.2450    5690.7319     263.7542
   10613.5      31.4318       1.2464    5690.4092     263.7552
   10613.0      31.8520       1.2462    5690.1006     263.7643
   10612.5      31.1051       1.2454    5689.7358     263.7808
   10612.0      31.4749       1.2453    5689.3877     263.7983
   10611.5      31.1122       1.2455    5689.0825     263.8156
   10611.0      30.3681       1.2462    5688.8110     263.8226
   10610.5      28.1042       1.2466    5688.5732     263.8167
   10610.0      28.1042       1.2470    5688.3589     263.8078
   10609.5      26.2592       1.2482    5688.1450     263.7939
   10609.0      29.2083       1.2499    5687.8232     263.7708
   10608.5      35.1306       1.2484    5687.4189     263.7454
   10608.0      46.2211       1.2471    5687.0513     263.7266
   10607.5      53.9800       1.2461    5686.8057     263.7152
   10607.0      61.7429       1.2459    5686.5679     263.6996
   10606.5      65.4516       1.2435    5686.2588     263.6790
   10606.0      66.9311       1.2423    5685.9155     263.6492
   10605.5      59.1638       1.2432    5685.6206     263.6082
   10605.0      49.9305       1.2455    5685.3125     263.5582
   10604.5      44.9939       1.2465    5684.9370     263.5155
   10604.0      35.7471       1.2477    5684.6323     263.4820
   10603.5      29.8292       1.2507    5684.3735     263.4521
