~VERSION INFORMATION
VERS.           2.0   :CWLS Log ASCII Standard - VERSION 2.0
WRAP.           NO    :One Line per depth step
PROD.  Schlumberger   :LAS Producer
PROG.  DLIS to ASCII 17C0-154                          :LAS Program name and version
CREA.        2010/09/30 15:14                          :LAS Creation date {YYYY/MM/DD hh:mm}
DLIS_CREA.  2010-Sep-07 20:46                          :DLIS Creation date and time {YYYY-MMM-DD hh:mm}
SOURCE.     CFU_31F_#1_DENBURY_ONSHORE_7-SEP-2010_10660-10934_PRES_TEMP_DL_PSP_069PUP.DLIS  :DLIS File Name
FILE-ID.     FCS_GMS_RST_PSP_069PUP                    :File Identification Number
#--------------------------------------------------
~WELL INFORMATION
#MNEM.UNIT      DATA             DESCRIPTION
#---- ------ --------------   -----------------------------
STRT .F        10666.5       :START DEPTH     
STOP .F          -41.5       :STOP DEPTH     
STEP .F           -0.5       :STEP     
NULL .          -999.25      :NULL VALUE
COMP .        DENBURY ONSHORE, LLC                     :COMPANY
WELL .        CFU 31F #1                               :WELL
FLD  .        CRANFIELD                                :FIELD
LOC  .                                                 :LOCATION
CNTY .        FRANKLIN                                 :COUNTY
STAT .        MISSISSIPPI                              :STATE
CTRY .                                                 :COUNTRY
API  .        23-037-21488-0000                        :API NUMBER
UWI  .        23-037-21488-0000                        :UNIQUE WELL ID
DATE .        07-Sep-2010                              :LOG DATE {DD-MMM-YYYY}
SRVC .        Schlumberger                             :SERVICE COMPANY
LATI .DEG                                              :LATITUDE
LONG .DEG                                              :LONGITUDE
GDAT .                                                 :GeoDetic Datum
SECT .        31                                       :Section
RANG .        1E                                       :Range
TOWN .        7N                                       :Township
#-----------------------------------------------------------------------------
~PARAMETER INFORMATION
#MNEM.UNIT    VALUE                      DESCRIPTION
#---- -----   --------------------       ------------------------
RUN  .          1                        :RUN NUMBER
PDAT .        GROUND LEVEL               :Permanent Datum
EPD  .F         315.700012               :Elevation of Permanent Datum above Mean Sea Level
LMF  .          KELLY BUSHING            :Logging Measured From (Name of Logging Elevation Reference)
APD  .F          18.000000               :Elevation of Depth Reference (LMF) above Permanent Datum
#-----------------------------------------------------------------------------
~CURVE INFORMATION
#MNEM.UNIT   API CODE                                  DESCRIPTION
#---- -----  --------                                  -----------------------
DEPT .F                                                :DEPTH (BOREHOLE) {F10.1}
GR   .GAPI                                             :Gamma Ray {F13.4}
WFDE .G/C3                                             :Well Fluid Density Corrected {F13.4}
WPRE .PSI                                              :Well Pressure {F13.4}
WTEP .DEGF                                             :Well Temperature {F13.4}
#-----------------------------------------------------------------------------
# 
#     DEPT        GR           WFDE         WPRE         WTEP
#
~A  
# ...
      -1.5      23.9980       0.7459    2348.5125      96.7034
      -2.0      23.9980       0.7459    2348.5125      96.7034
      -2.5      23.9980       0.7459    2348.5125      96.7034
      -3.0      23.9980       0.7459    2348.5125      96.7034
      -3.0      23.9980       0.7459    2348.5125      96.7034
      -4.0      23.9980       0.7459    2348.5125      96.7034
      -4.5      23.9980       0.7459    2348.5125      96.7034
      -5.0      23.9980       0.7459    2348.5125      96.7034
      -5.5      23.9980       0.7459    2348.5125      96.7034
      -6.0      23.9980       0.7459    2348.5125      96.7034
      -6.5      23.9980       0.7459    2348.5125      96.7034
      -6.5      23.9980       0.7459    2348.5125      96.7034
      -7.5      23.9980       0.7459    2348.5125      96.7034
      -8.0      23.9980       0.7459    2348.5125      96.7034
      -8.5      23.9980       0.7459    2348.5125      96.7034
      -9.0      23.9980       0.7459    2348.5125      96.7034
      -9.5      23.9980       0.7459    2348.5125      96.7034
     -10.0      23.9980       0.7459    2348.5125      96.7034
     -10.5      23.9980       0.7459    2348.5125      96.7034
     -11.0      23.9980       0.7459    2348.5125      96.7034
     -11.5      23.9980       0.7459    2348.5125      96.7034
     -12.0      23.9980       0.7459    2348.5125      96.7034
     -12.5      23.9980       0.7459    2348.5125      96.7034
     -13.0      23.9980       0.7459    2348.5125      96.7034
     -13.5      23.9980       0.7459    2348.5125      96.7034
     -13.5      23.9980       0.7459    2348.5125      96.7034
     -14.5      23.9980       0.7459    2348.5125      96.7034
     -15.0      23.9980       0.7459    2348.5125      96.7034
     -15.5      23.9980       0.7459    2348.5125      96.7034
     -16.0      23.9980       0.7459    2348.5125      96.7034
     -16.5      23.9980       0.7459    2348.5125      96.7034
     -17.0      23.9980       0.7459    2348.5125      96.7034
     -17.5      23.9980       0.7459    2348.5125      96.7034
     -18.0      23.9980       0.7459    2348.5125      96.7034
     -18.5      23.9980       0.7459    2348.5125      96.7034
     -19.0      23.9980       0.7459    2348.5125      96.7034
     -19.5      23.9980       0.7459    2348.5125      96.7034
     -20.0      23.9980       0.7459    2348.5125      96.7034
     -20.5      23.9980       0.7459    2348.5125      96.7034
     -21.0      23.9980       0.7459    2348.5125      96.7034
     -21.5      23.9980       0.7459    2348.5125      96.7034
     -22.0      23.9980       0.7459    2348.5125      96.7034
     -22.5      23.9980       0.7459    2348.5125      96.7034
     -23.0      23.9980       0.7459    2348.5125      96.7034
     -23.5      23.9980       0.7459    2348.5125      96.7034
     -24.0      23.9980       0.7459    2348.5125      96.7034
     -24.5      23.9980       0.7459    2348.5125      96.7034
     -25.0      23.9980       0.7459    2348.5125      96.7034
     -25.5      23.9980       0.7459    2348.5125      96.7034
     -26.0      23.9980       0.7459    2348.5125      96.7034
     -26.5      23.9980       0.7459    2348.5125      96.7034
     -27.0      23.9980       0.7459    2348.5125      96.7034
     -27.0      23.9980       0.7459    2348.5125      96.7034
     -27.5      23.9980       0.7459    2348.5125      96.7034
     -28.0      23.9980       0.7459    2348.5125      96.7034
     -29.0      23.9980       0.7459    2348.5125      96.7034
     -29.5      23.9980       0.7459    2348.5125      96.7034
     -30.0      23.9980       0.7459    2348.5125      96.7034
     -30.5      23.9980       0.7459    2348.5125      96.7034
     -31.0      23.9980       0.7459    2348.5125      96.7034
     -31.5      23.9980       0.7459    2348.5125      96.7034
     -32.0      23.9980       0.7459    2348.5125      96.7034
     -32.5      23.9980       0.7459    2348.5125      96.7034
     -33.0      23.9980       0.7459    2348.5125      96.7034
     -33.5      23.9980       0.7459    2348.5125      96.7034
     -34.0      23.9980       0.7459    2348.5125      96.7034
     -34.5      23.9980       0.7459    2348.5125      96.7034
     -35.0      23.9980       0.7459    2348.5125      96.7034
     -35.5      23.9980       0.7459    2348.5125      96.7034
     -36.0      23.9980       0.7459    2348.5125      96.7034
     -36.5      23.9980       0.7459    2348.5125      96.7034
     -37.0      23.9980       0.7459    2348.5125      96.7034
     -37.5      23.9980       0.7459    2348.5125      96.7034
     -38.0      23.9980       0.7459    2348.5125      96.7034
     -38.5      23.9980       0.7459    2348.5125      96.7034
     -39.0      23.9980       0.7459    2348.5125      96.7034
     -39.5      23.9980       0.7459    2348.5125      96.7034
     -40.0      23.9980       0.7459    2348.5125      96.7034
     -40.5      23.9980       0.7459    2348.5125      96.7034
     -41.0      23.9980       0.7459    2348.5125      96.7034
     -41.5      23.9980       0.7459    2348.5125      96.7034
