~VERSION INFORMATION
VERS.           2.0   :CWLS Log ASCII Standard - VERSION 2.0
WRAP.           NO    :One Line per depth step
PROD.  Schlumberger   :LAS Producer
PROG.  DLIS to ASCII 17C0-154                          :LAS Program name and version
CREA.        2010/09/16 16:20                          :LAS Creation date {YYYY/MM/DD hh:mm}
DLIS_CREA.  2010-Sep-07 20:55                          :DLIS Creation date and time {YYYY-MMM-DD hh:mm}
SOURCE.     CFU_31F_#1_DENBURY_ONSHORE_7-SEP-2010_10660-10934_MAIN_PASS_RST_PSP_071PUP.DLIS  :DLIS File Name
FILE-ID.     FCS_GMS_RST_PSP_071PUP                    :File Identification Number
#--------------------------------------------------
~WELL INFORMATION
#MNEM.UNIT      DATA             DESCRIPTION
#---- ------ --------------   -----------------------------
STRT .F        10666.5       :START DEPTH     
STOP .F         8508.5       :STOP DEPTH     
STEP .F           -0.5       :STEP     
NULL .          -999.25      :NULL VALUE
COMP .        DENBURY ONSHORE, LLC                     :COMPANY
WELL .        CFU 31F #1                               :WELL
FLD  .        CRANFIELD                                :FIELD
LOC  .                                                 :LOCATION
CNTY .        FRANKLIN                                 :COUNTY
STAT .        MISSISSIPPI                              :STATE
CTRY .                                                 :COUNTRY
API  .        23-037-21488-0000                        :API NUMBER
UWI  .        23-037-21488-0000                        :UNIQUE WELL ID
DATE .        07-Sep-2010                              :LOG DATE {DD-MMM-YYYY}
SRVC .        Schlumberger                             :SERVICE COMPANY
LATI .DEG                                              :LATITUDE
LONG .DEG                                              :LONGITUDE
GDAT .                                                 :GeoDetic Datum
SECT .        31                                       :Section
RANG .        1E                                       :Range
TOWN .        7N                                       :Township
#-----------------------------------------------------------------------------
~PARAMETER INFORMATION
#MNEM.UNIT    VALUE                      DESCRIPTION
#---- -----   --------------------       ------------------------
RUN  .          1                        :RUN NUMBER
PDAT .        GROUND LEVEL               :Permanent Datum
EPD  .F         315.700012               :Elevation of Permanent Datum above Mean Sea Level
LMF  .          KELLY BUSHING            :Logging Measured From (Name of Logging Elevation Reference)
APD  .F          18.000000               :Elevation of Depth Reference (LMF) above Permanent Datum
#-----------------------------------------------------------------------------
~CURVE INFORMATION
#MNEM.UNIT   API CODE                                  DESCRIPTION
#---- -----  --------                                  -----------------------
DEPT .F                                                :DEPTH (BOREHOLE) {F10.1}
CCLD .V                                                :CCL Discriminated Amplitude {F13.4}
CIRF_FIL.                                              :Capture to Inelastic Ratio Far Filtered {F13.4}
CIRN_FIL.                                              :Capture to Inelastic Ratio Near Filtered {F13.4}
FBAC .HZ                                               :Far Background Count Rate {F13.4}
GR   .GAPI                                             :Gamma Ray {F13.4}
SIBF .CU                                               :Sigma Borehole Fluid {F13.4}
SIGM .CU                                               :Formation Sigma (Neutron Capture Cross Section) {F13.4}
TPHI .CFCF                                             :Thermal Decay Porosity {F13.4}
#-----------------------------------------------------------------------------
# 
#     DEPT        CCLD       CIRF_FIL     CIRN_FIL       FBAC         GR           SIBF         SIGM         TPHI
#
~A  
# ...
   10526.5       0.0000       1.1267       0.5189    2474.0642      83.6576      22.5829      25.8291      -0.0299
   10526.0       0.0000       1.1336       0.5205    2483.2625      81.5868      22.2620      25.9248      -0.0208
   10525.5       0.0000       1.1378       0.5188    2477.2466      78.0532      22.7342      26.7071      -0.0214
   10525.0       0.0000       1.1182       0.5098    2472.1663      74.1298      22.5108      27.8910      -0.0261
   10524.5       0.0000       1.1343       0.5212    2451.4443      69.3511      22.5216      26.6184      -0.0229
   10524.0       0.0000       1.2123       0.5589    2461.3496      63.2009      22.4717      24.4878      -0.0245
   10523.5       0.0000       1.3951       0.6108    2440.6277      60.2049      22.3824      21.7672      -0.0310
   10523.0       0.0000       1.5696       0.6544    2399.4512      56.0715      22.1905      20.2892      -0.0453
   10522.5       0.0000       1.6803       0.6859    2401.4565      53.3005      21.9168      19.4085      -0.0531
   10522.0       0.0000       1.7019       0.6964    2382.7400      53.7639      22.2267      19.2156      -0.0563
   10521.5       0.0000       1.6910       0.6956    2367.3657      52.3672      22.6273      18.7768      -0.0577
   10521.0       0.0000       1.7026       0.6887    2367.9004      51.2906      23.2829      18.1748      -0.0602
   10520.5       0.0000       1.7413       0.6924    2388.7822      51.8160      23.5681      17.5687      -0.0624
   10520.0       0.0000       1.7763       0.6963    2379.6912      52.6814      23.9925      17.7618      -0.0656
   10519.5       0.0000       1.7961       0.7011    2409.7715      51.7294      24.4042      18.0705      -0.0658
   10519.0       0.0000       1.7998       0.7162    2409.9050      52.8049      24.6162      18.2222      -0.0639
   10518.5       0.0000       1.8251       0.7360    2418.0481      54.7234      24.9575      18.0579      -0.0588
   10518.0       0.0000       1.8436       0.7553    2427.6738      53.8445      25.7738      18.1112      -0.0538
   10517.5       0.0000       1.8439       0.7650    2431.8181      51.6874      26.0741      17.9622      -0.0495
   10517.0       0.0000       1.8728       0.7854    2426.2097      48.9263      25.6009      17.2500      -0.0487
   10516.5       0.0000       1.8976       0.7916    2417.9209      51.5132      25.5900      16.4864      -0.0512
   10516.0       0.0000       1.8447       0.7652    2413.2417      55.7382      25.7944      17.0132      -0.0586
   10515.5       0.0000       1.6965       0.6986    2434.8994      59.5347      25.7834      19.5885      -0.0608
   10515.0       0.0000       1.4700       0.6340    2430.2205      65.5784      25.6991      23.4518      -0.0503
   10514.5       0.0000       1.2990       0.5961    2459.6321      72.9975      25.0397      26.0318      -0.0210
   10514.0       0.0000       1.1823       0.5866    2439.4199      73.6895      25.3745      27.7339       0.0071
   10513.5       0.0000       1.1366       0.5806    2469.9014      71.5323      26.1694      28.3261       0.0229
   10513.0       0.0000       1.1341       0.5750    2465.5723      73.5245      26.6071      28.9360       0.0204
   10512.5       0.0000       1.1268       0.5624    2464.5029      73.3481      25.8213      29.1325       0.0118
   10512.0       0.0000       1.1270       0.5563    2480.5457      75.9380      26.1716      29.1052       0.0057
   10511.5       0.0000       1.1036       0.5489    2488.6941      80.5974      27.4012      29.2329       0.0049
   10511.0       0.0000       1.0657       0.5323    2522.1167      84.9105      28.5574      29.3505       0.0027
   10510.5       0.0000       1.0209       0.5024    2540.1714      84.1264      27.7693      29.0475      -0.0031
   10510.0       0.0000       0.9991       0.4750    2530.1445      86.1109      28.5696      28.4274      -0.0127
   10509.5       0.0000       0.9979       0.4589    2533.4932      85.5976      31.1253      27.5568      -0.0201
   10509.0       0.0000       1.0261       0.4540    2527.8782      83.0096      33.7181      27.2795      -0.0273
   10508.5       0.0000       1.0563       0.4554    2518.2776      79.2178      35.5259      27.1448      -0.0303
   10508.0       0.0000       1.0774       0.4606    2481.6465      78.7001      38.6878      26.5860      -0.0260
   10507.5       0.0000       1.1111       0.4764    2490.3872      76.5429      41.8718      25.8797      -0.0187
   10507.0       0.0527       1.1281       0.4859    2485.8418      72.3969      44.1708      25.1888      -0.0125
   10506.5      -0.0578       1.1296       0.4736    2467.2588      72.0439      46.9443      25.3660      -0.0158
   10506.0       0.1557       1.0706       0.4359    2447.3391      68.3300      50.0579      25.9042      -0.0269
   10505.5       0.0285       1.0016       0.3920    2413.0881      64.7924      50.2459      27.2555      -0.0408
   10505.0       0.0969       0.9024       0.3528    2400.9160      58.2368      54.7178      29.5491      -0.0554
   10504.5       0.0000       0.8219       0.3148    2405.5950      53.9658      59.5984      32.2779      -0.0621
   10504.0       0.0000       0.7268       0.2824    2415.8828      45.0874      65.0905      35.1301      -0.0714
   10503.5       0.0000       0.6718       0.2533    2415.8828      42.8440      69.4890      36.2675      -0.0713
   10503.0       0.0000       0.6305       0.2392    2419.4993      40.1692      72.3945      36.4019      -0.0733
   10502.5       0.0000       0.6204       0.2330    2416.1570      39.5580      69.3581      35.4979      -0.0681
   10502.0       0.0000       0.6063       0.2279    2405.4619      39.2217      72.6002      35.5731      -0.0690
   10501.5       0.0000       0.6144       0.2274    2391.4243      39.1731      74.4506      35.2472      -0.0716
   10501.0       0.0000       0.6677       0.2394    2397.8416      38.7417      72.9118      34.3334      -0.0731
   10500.5       0.0000       0.7699       0.2786    2395.6768      35.9901      71.3020      31.9564      -0.0695
   10500.0       0.0000       0.8496       0.3073    2446.4807      35.2187      70.1342      29.7852      -0.0618
   10499.5       0.0000       0.8536       0.3134    2452.3630      33.5272      70.2786      28.5631      -0.0575
   10499.0       0.0000       0.7650       0.2747    2436.3203      33.9210      70.7280      29.4283      -0.0603
   10498.5       0.6788       0.6654       0.2328    2418.1384      34.2798      69.3953      32.6996      -0.0705
   10498.0      -0.0731       0.6092       0.2132    2425.4915      35.4799      68.0776      36.3081      -0.0794
   10497.5       0.0210       0.6176       0.2265    2425.0835      37.6370      67.2469      38.2963      -0.0805
   10497.0       0.0000       0.6478       0.2499    2461.8484      36.9468      67.5596      37.4260      -0.0765
   10496.5       0.0000       0.7250       0.2758    2449.9558      37.9805      66.1100      34.4357      -0.0714
   10496.0       0.0000       0.8574       0.3131    2468.0039      37.4470      66.1488      30.7254      -0.0679
   10495.5       0.0000       0.9725       0.3563    2472.1482      37.8767      65.4001      27.9095      -0.0637
   10495.0       0.0000       0.9906       0.3697    2473.9121      36.0648      64.8608      27.9125      -0.0623
   10494.5       0.0000       0.8912       0.3390    2419.2571      37.8032      63.8143      29.9137      -0.0624
   10494.0       0.0000       0.7736       0.2976    2406.4229      37.7169      64.0585      32.6514      -0.0643
   10493.5       0.0000       0.6705       0.2637    2415.7813      36.2523      64.2505      35.1134      -0.0638
   10493.0       0.0000       0.6190       0.2492    2427.0112      37.1219      64.2807      36.8940      -0.0666
   10492.5       0.0000       0.6047       0.2400    2421.6636      37.5533      64.2372      36.9813      -0.0694
   10492.0       0.0000       0.6343       0.2417    2410.4336      37.3748      64.2600      35.7867      -0.0752
