~VERSION INFORMATION
VERS.           2.0   :CWLS Log ASCII Standard - VERSION 2.0
WRAP.           NO    :One Line per depth step
PROD.  Schlumberger   :LAS Producer
PROG.  DLIS to ASCII 17C0-154                          :LAS Program name and version
CREA.        2010/09/30 15:14                          :LAS Creation date {YYYY/MM/DD hh:mm}
DLIS_CREA.  2010-Sep-07 20:46                          :DLIS Creation date and time {YYYY-MMM-DD hh:mm}
SOURCE.     CFU_31F_#1_DENBURY_ONSHORE_7-SEP-2010_10660-10934_PRES_TEMP_DL_PSP_069PUP.DLIS  :DLIS File Name
FILE-ID.     FCS_GMS_RST_PSP_069PUP                    :File Identification Number
#--------------------------------------------------
~WELL INFORMATION
#MNEM.UNIT      DATA             DESCRIPTION
#---- ------ --------------   -----------------------------
STRT .F        10666.5       :START DEPTH     
STOP .F          -41.5       :STOP DEPTH     
STEP .F           -0.5       :STEP     
NULL .          -999.25      :NULL VALUE
COMP .        DENBURY ONSHORE, LLC                     :COMPANY
WELL .        CFU 31F #1                               :WELL
FLD  .        CRANFIELD                                :FIELD
LOC  .                                                 :LOCATION
CNTY .        FRANKLIN                                 :COUNTY
STAT .        MISSISSIPPI                              :STATE
CTRY .                                                 :COUNTRY
API  .        23-037-21488-0000                        :API NUMBER
UWI  .        23-037-21488-0000                        :UNIQUE WELL ID
DATE .        07-Sep-2010                              :LOG DATE {DD-MMM-YYYY}
SRVC .        Schlumberger                             :SERVICE COMPANY
LATI .DEG                                              :LATITUDE
LONG .DEG                                              :LONGITUDE
GDAT .                                                 :GeoDetic Datum
SECT .        31                                       :Section
RANG .        1E                                       :Range
TOWN .        7N                                       :Township
#-----------------------------------------------------------------------------
~PARAMETER INFORMATION
#MNEM.UNIT    VALUE                      DESCRIPTION
#---- -----   --------------------       ------------------------
RUN  .          1                        :RUN NUMBER
PDAT .        GROUND LEVEL               :Permanent Datum
EPD  .F         315.700012               :Elevation of Permanent Datum above Mean Sea Level
LMF  .          KELLY BUSHING            :Logging Measured From (Name of Logging Elevation Reference)
APD  .F          18.000000               :Elevation of Depth Reference (LMF) above Permanent Datum
#-----------------------------------------------------------------------------
~CURVE INFORMATION
#MNEM.UNIT   API CODE                                  DESCRIPTION
#---- -----  --------                                  -----------------------
DEPT .F                                                :DEPTH (BOREHOLE) {F10.1}
GR   .GAPI                                             :Gamma Ray {F13.4}
WFDE .G/C3                                             :Well Fluid Density Corrected {F13.4}
WPRE .PSI                                              :Well Pressure {F13.4}
WTEP .DEGF                                             :Well Temperature {F13.4}
#-----------------------------------------------------------------------------
# 
#     DEPT        GR           WFDE         WPRE         WTEP
#
~A  
# ...
    7110.5      50.4560       0.7388    4582.4810     147.6530
    7110.0      33.6179       0.7371    4582.3242     147.6496
    7109.5      43.9993       0.7353    4582.1523     147.6448
    7109.0      45.2556       0.7345    4581.9902     147.6417
    7108.5      46.5508       0.7346    4581.8320     147.6402
    7108.0      42.7040       0.7346    4581.7188     147.6388
    7107.5      47.8656       0.7360    4581.5723     147.6372
    7107.0      41.3893       0.7373    4581.3867     147.6374
    7106.5      49.1997       0.7337    4581.2031     147.6353
    7106.0      50.4950       0.7290    4581.0791     147.6323
    7105.5      59.5033       0.7250    4580.9326     147.6313
    7105.0      64.7037       0.7226    4580.7578     147.6305
    7104.5      64.7037       0.7218    4580.5996     147.6303
    7104.0      60.8180       0.7263    4580.4780     147.6264
    7103.5      64.6453       0.7310    4580.3384     147.6243
    7103.0      59.5228       0.7343    4580.1665     147.6238
    7102.5      58.2275       0.7372    4579.9639     147.6217
    7102.0      62.1132       0.7371    4579.8335     147.6212
    7101.5      53.0271       0.7354    4579.7290     147.6217
    7101.0      46.6093       0.7343    4579.5659     147.6181
    7100.5      45.3140       0.7346    4579.4336     147.6160
    7100.0      53.0222       0.7349    4579.2856     147.6143
    7099.5      50.4317       0.7364    4579.1074     147.6112
    7099.0      50.4317       0.7380    4578.9189     147.6072
    7098.5      50.4317       0.7375    4578.7778     147.6024
    7098.0      56.9079       0.7361    4578.6455     147.5995
    7097.5      53.0368       0.7350    4578.4673     147.5918
    7097.0      50.4463       0.7345    4578.2988     147.5878
    7096.5      51.7610       0.7338    4578.1221     147.5841
    7096.0      55.6468       0.7343    4578.0039     147.5784
    7095.5      53.0076       0.7349    4577.8638     147.5733
    7095.0      53.0563       0.7346    4577.6890     147.5706
    7094.5      54.3515       0.7339    4577.5337     147.5658
    7094.0      59.5325       0.7341    4577.4014     147.5591
    7093.5      56.9031       0.7343    4577.2705     147.5541
    7093.0      53.0660       0.7345    4577.0557     147.5489
    7092.5      46.5898       0.7352    4576.8574     147.5450
    7092.0      54.2980       0.7362    4576.6973     147.5388
    7091.5      45.2411       0.7366    4576.5371     147.5319
    7091.0      46.5753       0.7370    4576.3477     147.5275
    7090.5      51.7562       0.7364    4576.1465     147.5232
    7090.0      58.1838       0.7359    4575.9873     147.5196
    7089.5      54.4104       0.7356    4575.8320     147.5155
    7089.0      67.2946       0.7352    4575.6421     147.5137
    7088.5      71.1803       0.7347    4575.4541     147.5094
    7088.0      68.5899       0.7353    4575.2798     147.5046
    7087.5      63.4870       0.7358    4575.1592     147.4994
    7087.0      59.5181       0.7355    4575.0273     147.4941
    7086.5      49.2146       0.7353    4574.8945     147.4886
    7086.0      45.3288       0.7356    4574.7769     147.4835
    7085.5      36.2524       0.7357    4574.6187     147.4772
    7085.0      31.0420       0.7366    4574.4458     147.4726
    7084.5      27.1903       0.7388    4574.2520     147.4682
    7084.0      32.3713       0.7405    4574.1279     147.4628
    7083.5      25.8756       0.7413    4573.9961     147.4581
    7083.0      37.5425       0.7424    4573.8057     147.4535
    7082.5      44.0188       0.7414    4573.6367     147.4482
    7082.0      49.1608       0.7395    4573.5073     147.4453
    7081.5      53.0465       0.7388    4573.3740     147.4386
    7081.0      56.9517       0.7384    4573.2065     147.4340
    7080.5      54.3613       0.7379    4573.0303     147.4294
    7080.0      54.3272       0.7389    4572.8896     147.4212
    7079.5      54.4054       0.7401    4572.7466     147.4143
    7079.0      50.5196       0.7389    4572.5327     147.4080
    7078.5      51.7759       0.7378    4572.3418     147.4026
    7078.0      50.4807       0.7388    4572.1787     147.3951
    7077.5      49.1903       0.7392    4572.0234     147.3872
    7077.0      54.3320       0.7375    4571.8291     147.3820
    7076.5      50.4463       0.7354    4571.6387     147.3764
    7076.0      53.0758       0.7331    4571.5225     147.3708
    7075.5      47.8753       0.7284    4571.3843     147.3640
    7075.0      47.9045       0.7238    4571.1914     147.3576
    7074.5      46.6093       0.7243    4570.9995     147.3542
    7074.0      54.3807       0.7266    4570.8604     147.3492
    7073.5      46.5898       0.7301    4570.7412     147.3458
    7073.0      59.5617       0.7338    4570.5552     147.3418
    7072.5      58.2665       0.7374    4570.3843     147.3381
    7072.0      53.0855       0.7378    4570.2700     147.3327
    7071.5      46.5801       0.7383    4570.1172     147.3283
    7071.0      53.0758       0.7377    4569.9546     147.3258
    7070.5      47.8948       0.7373    4569.7944     147.3199
    7070.0      54.3223       0.7359    4569.6772     147.3144
    7069.5      55.6176       0.7346    4569.5337     147.3082
    7069.0      53.0759       0.7345    4569.3516     147.3019
    7068.5      59.4840       0.7358    4569.1924     147.2966
    7068.0      59.4840       0.7365    4569.0498     147.2929
    7067.5      51.7612       0.7379    4568.9204     147.2867
    7067.0      49.1415       0.7397    4568.7573     147.2798
    7066.5      59.4838       0.7395    4568.5898     147.2755
    7066.0      54.3710       0.7382    4568.4673     147.2700
    7065.5      43.9993       0.7359    4568.3438     147.2643
    7065.0      51.7708       0.7340    4568.1616     147.2603
    7064.5      54.3905       0.7320    4567.9712     147.2564
    7064.0      50.5047       0.7308    4567.8208     147.2496
    7063.5      47.8753       0.7295    4567.6709     147.2421
    7063.0      53.0660       0.7301    4567.4995     147.2382
    7062.5      50.4755       0.7307    4567.3135     147.2333
    7062.0      43.9993       0.7327    4567.1577     147.2281
    7061.5      37.5036       0.7347    4567.0122     147.2208
    7061.0      45.3140       0.7364    4566.8237     147.2153
    7060.5      58.2665       0.7373    4566.6357     147.2090
    7060.0      55.6468       0.7379    4566.5117     147.2014
    7059.5      54.3613       0.7366    4566.4004     147.1965
    7059.0      59.5618       0.7352    4566.2427     147.1907
    7058.5      54.3321       0.7359    4566.0493     147.1855
    7058.0      37.4939       0.7366    4565.8823     147.1793
    7057.5      43.9994       0.7371    4565.7588     147.1726
    7057.0      54.3028       0.7381    4565.6299     147.1656
    7056.5      58.1886       0.7387    4565.4448     147.1608
    7056.0      59.5325       0.7367    4565.2793     147.1562
    7055.5      68.5505       0.7348    4565.1494     147.1507
    7055.0      67.2553       0.7356    4564.9878     147.1465
    7054.5      66.0087       0.7363    4564.8105     147.1433
    7054.0      67.3040       0.7377    4564.6846     147.1381
    7053.5      67.3040       0.7403    4564.5464     147.1328
    7053.0      64.7232       0.7419    4564.3628     147.1271
    7052.5      63.4280       0.7402    4564.1938     147.1224
    7052.0      67.3137       0.7389    4564.0688     147.1182
    7051.5      59.5130       0.7376    4563.9351     147.1126
    7051.0      60.8671       0.7361    4563.7275     147.1072
    7050.5      54.4299       0.7357    4563.5410     147.0998
    7050.0      49.2246       0.7364    4563.3770     147.0957
    7049.5      46.6831       0.7367    4563.2466     147.0891
    7049.0      48.0076       0.7368    4563.0845     147.0845
    7048.5      42.7288       0.7376    4562.9180     147.0818
    7048.0      58.2717       0.7385    4562.7827     147.0756
    7047.5      72.6223       0.7391    4562.6211     147.0694
