~VERSION INFORMATION
VERS.           2.0   :CWLS Log ASCII Standard - VERSION 2.0
WRAP.           NO    :One Line per depth step
PROD.  Schlumberger   :LAS Producer
PROG.  DLIS to ASCII 17C0-154                          :LAS Program name and version
CREA.        2010/09/30 15:14                          :LAS Creation date {YYYY/MM/DD hh:mm}
DLIS_CREA.  2010-Sep-07 20:46                          :DLIS Creation date and time {YYYY-MMM-DD hh:mm}
SOURCE.     CFU_31F_#1_DENBURY_ONSHORE_7-SEP-2010_10660-10934_PRES_TEMP_DL_PSP_069PUP.DLIS  :DLIS File Name
FILE-ID.     FCS_GMS_RST_PSP_069PUP                    :File Identification Number
#--------------------------------------------------
~WELL INFORMATION
#MNEM.UNIT      DATA             DESCRIPTION
#---- ------ --------------   -----------------------------
STRT .F        10666.5       :START DEPTH     
STOP .F          -41.5       :STOP DEPTH     
STEP .F           -0.5       :STEP     
NULL .          -999.25      :NULL VALUE
COMP .        DENBURY ONSHORE, LLC                     :COMPANY
WELL .        CFU 31F #1                               :WELL
FLD  .        CRANFIELD                                :FIELD
LOC  .                                                 :LOCATION
CNTY .        FRANKLIN                                 :COUNTY
STAT .        MISSISSIPPI                              :STATE
CTRY .                                                 :COUNTRY
API  .        23-037-21488-0000                        :API NUMBER
UWI  .        23-037-21488-0000                        :UNIQUE WELL ID
DATE .        07-Sep-2010                              :LOG DATE {DD-MMM-YYYY}
SRVC .        Schlumberger                             :SERVICE COMPANY
LATI .DEG                                              :LATITUDE
LONG .DEG                                              :LONGITUDE
GDAT .                                                 :GeoDetic Datum
SECT .        31                                       :Section
RANG .        1E                                       :Range
TOWN .        7N                                       :Township
#-----------------------------------------------------------------------------
~PARAMETER INFORMATION
#MNEM.UNIT    VALUE                      DESCRIPTION
#---- -----   --------------------       ------------------------
RUN  .          1                        :RUN NUMBER
PDAT .        GROUND LEVEL               :Permanent Datum
EPD  .F         315.700012               :Elevation of Permanent Datum above Mean Sea Level
LMF  .          KELLY BUSHING            :Logging Measured From (Name of Logging Elevation Reference)
APD  .F          18.000000               :Elevation of Depth Reference (LMF) above Permanent Datum
#-----------------------------------------------------------------------------
~CURVE INFORMATION
#MNEM.UNIT   API CODE                                  DESCRIPTION
#---- -----  --------                                  -----------------------
DEPT .F                                                :DEPTH (BOREHOLE) {F10.1}
GR   .GAPI                                             :Gamma Ray {F13.4}
WFDE .G/C3                                             :Well Fluid Density Corrected {F13.4}
WPRE .PSI                                              :Well Pressure {F13.4}
WTEP .DEGF                                             :Well Temperature {F13.4}
#-----------------------------------------------------------------------------
# 
#     DEPT        GR           WFDE         WPRE         WTEP
#
~A  
# ...
     697.0     489.6513       0.6918    2554.2197     105.9860
     696.5     482.7520       0.6920    2554.1133     105.9840
     696.0     491.2640       0.6932    2554.0095     105.9826
     695.5     481.1038       0.6939    2553.8550     105.9816
     695.0     486.6013       0.6950    2553.7375     105.9781
     694.5     465.9034       0.6959    2553.6604     105.9769
     694.0     434.1788       0.6951    2553.5298     105.9753
     693.5     421.1092       0.6945    2553.3804     105.9752
     693.0     418.6821       0.6959    2553.2705     105.9737
     692.5     403.4679       0.7000    2553.1455     105.9721
     692.0     420.0731       0.7040    2553.0139     105.9716
     691.5     416.2637       0.7027    2552.8745     105.9688
     691.0     403.3275       0.6935    2552.7295     105.9668
     690.5     387.4388       0.6824    2552.5730     105.9639
     690.0     385.6636       0.6677    2552.3950     105.9625
     689.5     377.3505       0.6581    2552.2732     105.9621
     689.0     402.0451       0.6570    2552.1501     105.9599
     688.5     398.7888       0.6659    2552.0129     105.9591
     688.0     413.3198       0.6734    2551.9019     105.9556
     687.5     420.2694       0.6837    2551.7576     105.9529
     687.0     424.6454       0.6885    2551.5637     105.9538
     686.5     406.6901       0.6914    2551.3945     105.9551
     686.0     408.7520       0.6909    2551.2129     105.9558
     685.5     420.9401       0.6910    2551.0532     105.9582
     685.0     418.6750       0.6892    2550.9324     105.9597
     684.5     414.6310       0.6883    2550.8293     105.9608
     684.0     412.6881       0.6879    2550.7102     105.9630
     683.5     418.3569       0.6881    2550.5581     105.9612
     683.0     415.2981       0.6887    2550.3970     105.9600
     682.5     408.8219       0.6890    2550.1743     105.9599
     682.0     427.0868       0.6889    2549.9990     105.9593
     681.5     445.2203       0.6879    2549.8477     105.9610
     681.0     441.9882       0.6873    2549.6765     105.9611
     680.5     429.6834       0.6878    2549.5706     105.9610
     680.0     448.7736       0.6879    2549.4236     105.9613
     679.5     432.7672       0.6872    2549.3159     105.9613
     679.0     419.6647       0.6872    2549.1968     105.9639
     678.5     428.8852       0.6868    2549.0061     105.9648
     678.0     423.7042       0.6850    2548.8413     105.9662
     677.5     407.6984       0.6842    2548.6602     105.9679
     677.0     402.5174       0.6840    2548.4998     105.9668
     676.5     420.4623       0.6819    2548.3618     105.9679
     676.0     411.3957       0.6819    2548.2698     105.9696
     675.5     424.3481       0.6820    2548.1533     105.9701
     675.0     435.3370       0.6806    2548.0166     105.9724
     674.5     446.1819       0.6799    2547.8586     105.9738
     674.0     424.5012       0.6803    2547.6509     105.9742
     673.5     416.0821       0.6801    2547.4700     105.9739
     673.0     408.1606       0.6803    2547.3013     105.9754
     672.5     396.7917       0.6818    2547.1460     105.9755
     672.0     383.3563       0.6817    2547.0413     105.9748
     671.5     388.5373       0.6822    2546.9321     105.9742
     671.0     401.9739       0.6804    2546.8127     105.9744
     670.5     412.4859       0.6796    2546.6814     105.9748
     670.0     418.2006       0.6785    2546.5110     105.9752
     669.5     429.6968       0.6780    2546.3633     105.9735
     669.0     431.6396       0.6779    2546.2178     105.9712
     668.5     438.1037       0.6786    2546.0688     105.9693
     668.0     431.9488       0.6780    2545.9358     105.9671
     667.5     432.4317       0.6775    2545.7913     105.9631
     667.0     422.2308       0.6770    2545.6179     105.9592
     666.5     405.9146       0.6766    2545.4604     105.9544
     666.0     397.0235       0.6764    2545.2871     105.9505
     665.5     407.7117       0.6774    2545.1313     105.9475
     665.0     412.8830       0.6772    2544.9563     105.9430
     664.5     423.8925       0.6767    2544.8354     105.9403
     664.0     440.1046       0.6757    2544.7102     105.9359
     663.5     438.1617       0.6762    2544.5420     105.9365
     663.0     424.4092       0.6789    2544.3640     105.9376
     662.5     404.5073       0.6865    2544.1794     105.9374
     662.0     404.3451       0.6913    2544.0354     105.9373
     661.5     398.6206       0.6917    2543.9094     105.9367
     661.0     383.0777       0.6841    2543.8003     105.9366
     660.5     383.3440       0.6725    2543.6538     105.9371
     660.0     391.6107       0.6598    2543.5034     105.9359
     659.5     395.6586       0.6516    2543.3857     105.9356
     659.0     407.9634       0.6499    2543.2244     105.9346
     658.5     425.9371       0.6557    2543.0706     105.9340
     658.0     429.7089       0.6632    2542.9021     105.9350
     657.5     431.1566       0.6695    2542.7407     105.9346
     657.0     432.2799       0.6742    2542.5645     105.9330
     656.5     430.0116       0.6768    2542.4050     105.9316
     656.0     424.3428       0.6784    2542.2849     105.9302
     655.5     436.4647       0.6791    2542.1052     105.9286
     655.0     435.1694       0.6795    2541.9548     105.9287
     654.5     420.4461       0.6794    2541.7993     105.9273
     654.0     423.1925       0.6794    2541.6531     105.9266
     653.5     422.5449       0.6809    2541.5386     105.9274
     653.0     407.5136       0.6821    2541.3962     105.9260
     652.5     399.7421       0.6837    2541.2893     105.9263
     652.0     395.8564       0.6836    2541.1458     105.9256
     651.5     380.3427       0.6839    2540.9517     105.9214
     651.0     382.7807       0.6829    2540.7498     105.9193
     650.5     378.5663       0.6812    2540.5352     105.9181
     650.0     396.0521       0.6796    2540.3945     105.9156
     649.5     412.3468       0.6807    2540.2996     105.9168
     649.0     424.7919       0.6800    2540.1982     105.9143
     648.5     411.8638       0.6815    2540.0642     105.9125
     648.0     415.7496       0.6835    2539.8953     105.9124
     647.5     405.2364       0.6831    2539.6819     105.9110
     647.0     394.7703       0.6843    2539.4851     105.9127
     646.5     379.2273       0.6837    2539.3171     105.9138
     646.0     405.0834       0.6816    2539.1677     105.9123
     645.5     409.7242       0.6816    2539.0603     105.9125
     645.0     411.8183       0.6815    2538.9397     105.9113
     644.5     399.5135       0.6806    2538.7908     105.9106
     644.0     396.1473       0.6836    2538.6628     105.9109
     643.5     385.9622       0.6837    2538.4907     105.9123
     643.0     366.9891       0.6838    2538.3359     105.9140
     642.5     363.2515       0.6866    2538.1633     105.9159
     642.0     388.1655       0.6831    2537.9673     105.9177
     641.5     400.5984       0.6822    2537.8069     105.9187
     641.0     388.8058       0.6816    2537.6416     105.9187
     640.5     397.9571       0.6793    2537.5149     105.9187
     640.0     397.1614       0.6799    2537.3945     105.9180
     639.5     388.9814       0.6817    2537.2749     105.9174
     639.0     394.6478       0.6801    2537.1245     105.9186
     638.5     404.4975       0.6809    2536.9663     105.9200
     638.0     425.2214       0.6817    2536.8042     105.9222
     637.5     445.1136       0.6768    2536.6794     105.9224
     637.0     439.2700       0.6771    2536.5242     105.9231
     636.5     456.0765       0.6762    2536.3777     105.9226
     636.0     460.6099       0.6763    2536.2280     105.9229
     635.5     453.9629       0.6770    2536.0657     105.9229
     635.0     441.8422       0.6783    2535.9312     105.9217
     634.5     456.8566       0.6786    2535.7480     105.9202
     634.0     449.7462       0.6779    2535.5942     105.9191
