~VERSION INFORMATION
VERS.           2.0   :CWLS Log ASCII Standard - VERSION 2.0
WRAP.           NO    :One Line per depth step
PROD.  Schlumberger   :LAS Producer
PROG.  DLIS to ASCII 17C0-154                          :LAS Program name and version
CREA.        2010/09/30 15:14                          :LAS Creation date {YYYY/MM/DD hh:mm}
DLIS_CREA.  2010-Sep-07 20:46                          :DLIS Creation date and time {YYYY-MMM-DD hh:mm}
SOURCE.     CFU_31F_#1_DENBURY_ONSHORE_7-SEP-2010_10660-10934_PRES_TEMP_DL_PSP_069PUP.DLIS  :DLIS File Name
FILE-ID.     FCS_GMS_RST_PSP_069PUP                    :File Identification Number
#--------------------------------------------------
~WELL INFORMATION
#MNEM.UNIT      DATA             DESCRIPTION
#---- ------ --------------   -----------------------------
STRT .F        10666.5       :START DEPTH     
STOP .F          -41.5       :STOP DEPTH     
STEP .F           -0.5       :STEP     
NULL .          -999.25      :NULL VALUE
COMP .        DENBURY ONSHORE, LLC                     :COMPANY
WELL .        CFU 31F #1                               :WELL
FLD  .        CRANFIELD                                :FIELD
LOC  .                                                 :LOCATION
CNTY .        FRANKLIN                                 :COUNTY
STAT .        MISSISSIPPI                              :STATE
CTRY .                                                 :COUNTRY
API  .        23-037-21488-0000                        :API NUMBER
UWI  .        23-037-21488-0000                        :UNIQUE WELL ID
DATE .        07-Sep-2010                              :LOG DATE {DD-MMM-YYYY}
SRVC .        Schlumberger                             :SERVICE COMPANY
LATI .DEG                                              :LATITUDE
LONG .DEG                                              :LONGITUDE
GDAT .                                                 :GeoDetic Datum
SECT .        31                                       :Section
RANG .        1E                                       :Range
TOWN .        7N                                       :Township
#-----------------------------------------------------------------------------
~PARAMETER INFORMATION
#MNEM.UNIT    VALUE                      DESCRIPTION
#---- -----   --------------------       ------------------------
RUN  .          1                        :RUN NUMBER
PDAT .        GROUND LEVEL               :Permanent Datum
EPD  .F         315.700012               :Elevation of Permanent Datum above Mean Sea Level
LMF  .          KELLY BUSHING            :Logging Measured From (Name of Logging Elevation Reference)
APD  .F          18.000000               :Elevation of Depth Reference (LMF) above Permanent Datum
#-----------------------------------------------------------------------------
~CURVE INFORMATION
#MNEM.UNIT   API CODE                                  DESCRIPTION
#---- -----  --------                                  -----------------------
DEPT .F                                                :DEPTH (BOREHOLE) {F10.1}
GR   .GAPI                                             :Gamma Ray {F13.4}
WFDE .G/C3                                             :Well Fluid Density Corrected {F13.4}
WPRE .PSI                                              :Well Pressure {F13.4}
WTEP .DEGF                                             :Well Temperature {F13.4}
#-----------------------------------------------------------------------------
# 
#     DEPT        GR           WFDE         WPRE         WTEP
#
~A  
# ...
    3554.5      33.6619       0.7510    3442.6062     116.5287
    3554.0      31.0957       0.7509    3442.4741     116.5257
    3553.5      28.4660       0.7507    3442.3081     116.5240
    3553.0      29.7612       0.7509    3442.1240     116.5195
    3552.5      23.3094       0.7513    3441.9526     116.5154
    3552.0      19.4334       0.7510    3441.8259     116.5114
    3551.5      19.4334       0.7503    3441.6431     116.5083
    3551.0      15.5331       0.7501    3441.4817     116.5041
    3550.5      15.5331       0.7499    3441.3940     116.4995
    3550.0      22.0142       0.7497    3441.2241     116.4944
    3549.5      24.5949       0.7502    3441.0359     116.4917
    3549.0      28.4514       0.7509    3440.8542     116.4892
    3548.5      30.6171       0.7513    3440.6970     116.4856
    3548.0      29.3317       0.7514    3440.5288     116.4841
    3547.5      29.3317       0.7508    3440.3984     116.4797
    3547.0      29.3122       0.7507    3440.2593     116.4775
    3546.5      25.4557       0.7514    3440.0391     116.4755
    3546.0      24.5998       0.7519    3439.8352     116.4738
    3545.5      24.5900       0.7519    3439.6621     116.4703
    3545.0      20.7043       0.7526    3439.5007     116.4664
    3544.5      23.2850       0.7528    3439.3159     116.4638
    3544.0      21.9898       0.7523    3439.1836     116.4621
    3543.5      21.9898       0.7517    3439.0732     116.4601
    3543.0      23.2704       0.7517    3438.9055     116.4574
    3542.5      21.9752       0.7519    3438.7361     116.4541
    3542.0      15.5281       0.7521    3438.5547     116.4515
    3541.5      23.2996       0.7514    3438.4014     116.4487
    3541.0      20.6994       0.7499    3438.2412     116.4473
    3540.5      22.0092       0.7497    3438.1292     116.4429
    3540.0      22.0092       0.7505    3437.9951     116.4387
    3539.5      23.3045       0.7510    3437.8093     116.4352
    3539.0      14.2329       0.7518    3437.6240     116.4326
    3538.5      12.9474       0.7533    3437.4741     116.4303
    3538.0      14.2426       0.7536    3437.3350     116.4273
    3537.5      22.0534       0.7525    3437.1997     116.4252
    3537.0      19.4629       0.7485    3437.0417     116.4224
    3536.5      22.0582       0.7455    3436.8613     116.4198
    3536.0      24.6487       0.7458    3436.7227     116.4184
    3535.5      24.6487       0.7460    3436.5659     116.4159
    3535.0      23.3142       0.7465    3436.4246     116.4115
    3534.5      24.6046       0.7500    3436.2600     116.4089
    3534.0      25.8998       0.7532    3436.0847     116.4066
    3533.5      22.0141       0.7528    3435.9260     116.4032
    3533.0      18.1186       0.7517    3435.7476     116.4009
    3532.5      14.2329       0.7496    3435.6299     116.3981
    3532.0      15.5330       0.7473    3435.5107     116.3954
    3531.5      12.9425       0.7469    3435.3462     116.3931
    3531.0      20.7140       0.7466    3435.1592     116.3911
    3530.5      19.4236       0.7481    3434.9827     116.3887
    3530.0      20.7189       0.7505    3434.8054     116.3856
    3529.5      18.1284       0.7520    3434.6687     116.3822
    3529.0      18.1186       0.7519    3434.5430     116.3788
    3528.5      12.9377       0.7515    3434.3848     116.3767
    3528.0      14.2378       0.7498    3434.2156     116.3731
    3527.5      10.3520       0.7491    3434.0391     116.3700
    3527.0      15.5135       0.7501    3433.8809     116.3663
    3526.5      15.5233       0.7510    3433.7192     116.3647
    3526.0      20.7043       0.7525    3433.5891     116.3603
    3525.5      21.9995       0.7538    3433.4507     116.3574
    3525.0      20.6994       0.7531    3433.2651     116.3547
    3524.5      20.7189       0.7516    3433.0840     116.3515
    3524.0      22.0141       0.7502    3432.9287     116.3479
    3523.5      16.8331       0.7489    3432.7480     116.3447
    3523.0      12.9474       0.7474    3432.5562     116.3435
    3522.5      20.7237       0.7467    3432.3745     116.3399
    3522.0      16.8380       0.7475    3432.2395     116.3369
    3521.5      18.1332       0.7483    3432.1118     116.3349
    3521.0      23.3142       0.7484    3431.9431     116.3316
    3520.5      28.4757       0.7490    3431.7505     116.3302
    3520.0      25.8852       0.7510    3431.5730     116.3271
    3519.5      31.0662       0.7527    3431.4170     116.3257
    3519.0      31.0467       0.7533    3431.2588     116.3208
    3518.5      28.4562       0.7532    3431.0891     116.3165
    3518.0      27.1805       0.7533    3430.9685     116.3121
    3517.5      27.1805       0.7520    3430.8730     116.3066
    3517.0      21.9946       0.7495    3430.7249     116.3021
    3516.5      20.7189       0.7477    3430.5718     116.2986
    3516.0      22.0141       0.7468    3430.3813     116.2958
    3515.5      20.7189       0.7466    3430.1733     116.2915
    3515.0      19.4041       0.7467    3430.0310     116.2900
    3514.5      19.4090       0.7477    3429.8809     116.2875
    3514.0      19.4090       0.7490    3429.7173     116.2855
    3513.5      12.9328       0.7507    3429.5283     116.2832
    3513.0      18.0846       0.7520    3429.3323     116.2820
    3512.5      15.5234       0.7538    3429.1423     116.2791
    3512.0      19.4091       0.7551    3428.9841     116.2755
    3511.5      21.9752       0.7565    3428.8296     116.2722
    3511.0      33.6324       0.7576    3428.7109     116.2689
    3510.5      31.0712       0.7587    3428.5947     116.2648
    3510.0      33.6518       0.7582    3428.4102     116.2609
    3509.5      36.2423       0.7574    3428.2383     116.2590
    3509.0      38.8572       0.7574    3428.0586     116.2552
    3508.5      31.0711       0.7573    3427.9097     116.2526
    3508.0      33.6910       0.7544    3427.7405     116.2491
    3507.5      33.6715       0.7527    3427.6221     116.2457
    3507.0      29.7858       0.7485    3427.5117     116.2421
    3506.5      22.0143       0.7433    3427.3499     116.2389
    3506.0      18.1432       0.7398    3427.1987     116.2348
    3505.5      14.2280       0.7408    3427.0488     116.2313
    3505.0      14.2280       0.7424    3426.9155     116.2297
    3504.5      18.1432       0.7469    3426.7585     116.2267
    3504.0      20.7337       0.7516    3426.6138     116.2239
    3503.5      24.6048       0.7551    3426.5066     116.2213
    3503.0      28.4906       0.7571    3426.4155     116.2180
    3502.5      31.1005       0.7575    3426.2649     116.2147
    3502.0      31.0711       0.7574    3426.1223     116.2126
    3501.5      41.4331       0.7553    3425.9441     116.2082
    3501.0      44.0382       0.7529    3425.7727     116.2054
    3500.5      36.2667       0.7507    3425.6433     116.2023
    3500.0      29.7905       0.7493    3425.4639     116.1999
    3499.5      27.2000       0.7473    3425.2896     116.1954
    3499.0      18.1138       0.7475    3425.1394     116.1931
    3498.5      15.5233       0.7472    3424.9561     116.1884
    3498.0      21.9995       0.7460    3424.7813     116.1876
    3497.5      27.1805       0.7456    3424.6089     116.1856
    3497.0      29.7418       0.7466    3424.4465     116.1825
    3496.5      31.0565       0.7473    3424.3164     116.1793
    3496.0      29.7612       0.7481    3424.1970     116.1762
    3495.5      32.3176       0.7500    3424.0579     116.1755
    3495.0      32.3176       0.7516    3423.8718     116.1723
    3494.5      28.4611       0.7523    3423.7114     116.1719
    3494.0      28.4611       0.7525    3423.5271     116.1706
    3493.5      33.6129       0.7530    3423.3701     116.1686
    3493.0      27.1707       0.7526    3423.2356     116.1653
    3492.5      21.9898       0.7518    3423.1152     116.1624
    3492.0      25.8755       0.7507    3422.9333     116.1592
    3491.5      23.2850       0.7503    3422.7429     116.1558
