~VERSION INFORMATION
VERS.           2.0   :CWLS Log ASCII Standard - VERSION 2.0
WRAP.           NO    :One Line per depth step
PROD.  Schlumberger   :LAS Producer
PROG.  DLIS to ASCII 17C0-154                          :LAS Program name and version
CREA.        2010/09/16 16:20                          :LAS Creation date {YYYY/MM/DD hh:mm}
DLIS_CREA.  2010-Sep-07 20:55                          :DLIS Creation date and time {YYYY-MMM-DD hh:mm}
SOURCE.     CFU_31F_#1_DENBURY_ONSHORE_7-SEP-2010_10660-10934_MAIN_PASS_RST_PSP_071PUP.DLIS  :DLIS File Name
FILE-ID.     FCS_GMS_RST_PSP_071PUP                    :File Identification Number
#--------------------------------------------------
~WELL INFORMATION
#MNEM.UNIT      DATA             DESCRIPTION
#---- ------ --------------   -----------------------------
STRT .F        10666.5       :START DEPTH     
STOP .F         8508.5       :STOP DEPTH     
STEP .F           -0.5       :STEP     
NULL .          -999.25      :NULL VALUE
COMP .        DENBURY ONSHORE, LLC                     :COMPANY
WELL .        CFU 31F #1                               :WELL
FLD  .        CRANFIELD                                :FIELD
LOC  .                                                 :LOCATION
CNTY .        FRANKLIN                                 :COUNTY
STAT .        MISSISSIPPI                              :STATE
CTRY .                                                 :COUNTRY
API  .        23-037-21488-0000                        :API NUMBER
UWI  .        23-037-21488-0000                        :UNIQUE WELL ID
DATE .        07-Sep-2010                              :LOG DATE {DD-MMM-YYYY}
SRVC .        Schlumberger                             :SERVICE COMPANY
LATI .DEG                                              :LATITUDE
LONG .DEG                                              :LONGITUDE
GDAT .                                                 :GeoDetic Datum
SECT .        31                                       :Section
RANG .        1E                                       :Range
TOWN .        7N                                       :Township
#-----------------------------------------------------------------------------
~PARAMETER INFORMATION
#MNEM.UNIT    VALUE                      DESCRIPTION
#---- -----   --------------------       ------------------------
RUN  .          1                        :RUN NUMBER
PDAT .        GROUND LEVEL               :Permanent Datum
EPD  .F         315.700012               :Elevation of Permanent Datum above Mean Sea Level
LMF  .          KELLY BUSHING            :Logging Measured From (Name of Logging Elevation Reference)
APD  .F          18.000000               :Elevation of Depth Reference (LMF) above Permanent Datum
#-----------------------------------------------------------------------------
~CURVE INFORMATION
#MNEM.UNIT   API CODE                                  DESCRIPTION
#---- -----  --------                                  -----------------------
DEPT .F                                                :DEPTH (BOREHOLE) {F10.1}
CCLD .V                                                :CCL Discriminated Amplitude {F13.4}
CIRF_FIL.                                              :Capture to Inelastic Ratio Far Filtered {F13.4}
CIRN_FIL.                                              :Capture to Inelastic Ratio Near Filtered {F13.4}
FBAC .HZ                                               :Far Background Count Rate {F13.4}
GR   .GAPI                                             :Gamma Ray {F13.4}
SIBF .CU                                               :Sigma Borehole Fluid {F13.4}
SIGM .CU                                               :Formation Sigma (Neutron Capture Cross Section) {F13.4}
TPHI .CFCF                                             :Thermal Decay Porosity {F13.4}
#-----------------------------------------------------------------------------
# 
#     DEPT        CCLD       CIRF_FIL     CIRN_FIL       FBAC         GR           SIBF         SIGM         TPHI
#
~A  
# ...
    8916.5       0.0000       0.9686       0.3838    2343.8311      52.1318     136.4217      29.5397       0.2513
    8916.0       0.0000       0.9452       0.3744    2337.9744      51.5064     135.9426      29.4254       0.2511
    8915.5       0.0000       0.9162       0.3618    2358.6963      52.2150     136.2002      30.2296       0.2531
    8915.0       0.0000       0.8818       0.3463    2362.3123      52.0365     136.0840      30.0796       0.2535
    8914.5       0.0000       0.8742       0.3386    2339.5850      51.5061     136.3917      30.2585       0.2533
    8914.0       0.0000       0.8615       0.3333    2353.6223      49.9830     135.9669      29.8964       0.2583
    8913.5       0.0000       0.8762       0.3380    2358.1680      50.4344     136.1279      30.0488       0.2610
    8913.0       0.0000       0.8926       0.3416    2364.0244      49.0065     136.3250      30.0968       0.2631
    8912.5       0.0000       0.9280       0.3489    2376.7249      47.3949     136.5750      29.4519       0.2574
    8912.0       0.0000       0.9517       0.3483    2386.0894      48.2034     136.5236      28.5830       0.2531
    8911.5       0.0000       0.9886       0.3617    2404.1375      47.9356     136.4727      27.8940       0.2461
    8911.0       0.0000       1.0177       0.3795    2379.3982      47.8412     136.2042      26.9339       0.2429
    8910.5       0.0000       1.0506       0.3905    2383.0078      45.8742     136.2018      26.2062       0.2347
    8910.0       0.0000       1.0672       0.3889    2350.2539      45.9634     136.4621      25.6239       0.2291
    8909.5       0.0000       1.0592       0.3825    2338.2156      45.0657     136.6199      25.8439       0.2251
    8909.0       0.0000       1.0280       0.3744    2351.1833      44.0885     136.4137      25.9541       0.2323
    8908.5       0.0000       0.9997       0.3713    2331.7983      43.8208     136.1822      26.0565       0.2384
    8908.0       0.0000       1.0096       0.3733    2346.4792      44.5383     136.2644      25.6819       0.2471
    8907.5       0.0000       1.0314       0.3839    2339.8206      45.4356     136.2101      24.9385       0.2458
    8907.0       0.0000       1.0610       0.3923    2338.4836      44.1862     136.3172      24.4626       0.2398
    8906.5       0.0000       1.0776       0.3942    2346.4990      44.0032     136.4618      24.0764       0.2317
    8906.0       0.0000       1.0732       0.3948    2329.3867      43.6146     136.3808      24.6365       0.2303
    8905.5       0.0000       1.0586       0.3950    2326.0444      44.1501     136.1411      24.9265       0.2371
    8905.0       0.0000       1.0510       0.3968    2327.6230      43.9667     136.2672      25.3906       0.2427
    8904.5       0.0000       1.0616       0.3962    2360.9116      43.3458     136.2964      25.1108       0.2443
    8904.0       0.0000       1.0597       0.4016    2372.9438      43.8813     136.3434      24.9612       0.2407
    8903.5       0.0000       1.0662       0.4045    2372.4092      42.6635     136.3760      24.8975       0.2365
    8903.0       0.0000       1.0790       0.4071    2358.3716      42.8466     136.9226      24.8297       0.2314
    8902.5       0.0000       1.1021       0.4054    2338.4768      42.3112     136.5857      24.6117       0.2276
    8902.0       0.0000       1.1162       0.4035    2356.1240      44.0922     136.7575      24.3305       0.2218
    8901.5       0.0000       1.1279       0.4048    2332.7283      43.5612     136.7136      24.5934       0.2170
    8901.0       0.0000       1.1318       0.4063    2345.4287      42.0015     136.3531      24.6033       0.2174
    8900.5       0.0000       1.1051       0.4084    2342.7549      40.4796     136.4927      24.6811       0.2269
    8900.0       0.0000       1.0392       0.3777    2350.6169      40.7520     136.5442      25.0649       0.2431
    8899.5       0.0000       1.0052       0.3585    2341.2583      39.6810     136.6236      25.8442       0.2562
    8899.0       0.0400       1.0152       0.3475    2324.5525      39.7658     136.6628      25.9671       0.2700
    8898.5      -0.0320       1.0566       0.3727    2319.2048      40.4369     136.8659      25.7987       0.2755
    8898.0      -0.0477       1.0854       0.3843    2327.4937      42.8465     137.0570      25.3454       0.2771
    8897.5       0.0071       1.1072       0.3951    2349.0178      42.1424     137.1973      25.4501       0.2657
    8897.0       0.0000       1.1206       0.4018    2353.6970      40.6683     137.1348      25.3632       0.2529
    8896.5       0.0000       1.1277       0.4089    2338.8574      40.9808     137.4639      25.1187       0.2423
    8896.0       0.0000       1.1147       0.4114    2360.9221      42.3113     137.1672      24.8409       0.2403
    8895.5       0.0000       1.0991       0.4127    2364.2644      40.0841     137.3456      25.1801       0.2427
    8895.0       0.0000       1.0777       0.4104    2389.2388      40.3373     137.8069      25.3836       0.2459
    8894.5       0.0000       1.0705       0.4063    2383.9170      41.9007     137.9553      25.6446       0.2506
    8894.0       0.0000       1.0568       0.4054    2378.7292      41.5927     137.7361      25.6992       0.2566
    8893.5       0.0000       1.0508       0.4060    2396.7458      41.7756     137.9954      26.2701       0.2668
    8893.0       0.0000       1.0469       0.4105    2392.0669      42.7838     137.6065      26.8829       0.2670
    8892.5       0.0000       1.0693       0.4092    2372.6816      44.4921     137.4261      26.6890       0.2635
    8892.0       0.0000       1.0984       0.4106    2367.8689      46.7303     137.6979      26.4439       0.2543
    8891.5       0.0000       1.0869       0.4101    2366.2646      46.6321     138.3401      26.4518       0.2515
    8891.0       0.0000       1.0867       0.4098    2384.9812      46.1902     138.3545      26.4356       0.2533
    8890.5       0.0000       1.0586       0.4096    2381.6328      46.3383     138.9193      26.3625       0.2576
    8890.0       0.0000       1.0611       0.4094    2361.3179      43.9160     138.7756      26.2348       0.2620
    8889.5       0.0000       1.0407       0.4039    2334.7393      42.3071     139.1083      26.7021       0.2655
    8889.0       0.0000       1.0315       0.4010    2328.3223      43.0255     139.3795      27.0063       0.2645
    8888.5       0.0000       1.0385       0.3937    2339.0173      43.1313     140.1467      26.7581       0.2631
    8888.0       0.0000       1.0283       0.3853    2310.4336      42.4216     140.5247      26.5179       0.2545
    8887.5       0.0000       1.0144       0.3731    2298.1343      43.1400     140.8325      27.1390       0.2435
    8887.0       0.0000       1.0159       0.3728    2321.5298      42.4172     141.0619      27.1217       0.2351
    8886.5       0.0000       1.0460       0.3889    2297.9744      40.9933     140.6104      26.3467       0.2333
    8886.0       0.0000       1.1006       0.4030    2293.0339      40.8832     140.5688      25.4722       0.2340
    8885.5       0.0000       1.1146       0.4064    2274.9856      40.8023     141.4273      25.4307       0.2315
    8885.0       0.0000       1.1084       0.4007    2260.2798      42.1559     141.6786      25.8315       0.2296
    8884.5       0.0000       1.0930       0.4004    2237.9478      41.9867     141.4788      25.7936       0.2367
    8884.0       0.0000       1.0763       0.3999    2243.2954      42.8751     141.6242      25.9019       0.2451
    8883.5       0.0000       1.0740       0.4005    2263.2151      43.5044     141.9170      26.5843       0.2517
    8883.0       0.0000       1.0736       0.4000    2251.0493      43.4068     142.4626      26.7049       0.2526
    8882.5       0.0000       1.0866       0.4044    2277.7874      41.6875     142.5931      26.8458       0.2535
    8882.0       0.0000       1.1008       0.4044    2313.9919      43.9189     142.8715      26.3295       0.2551
