~VERSION INFORMATION
VERS.           2.0   :CWLS Log ASCII Standard - VERSION 2.0
WRAP.           NO    :One Line per depth step
PROD.  Schlumberger   :LAS Producer
PROG.  DLIS to ASCII 17C0-154                          :LAS Program name and version
CREA.        2010/09/30 15:14                          :LAS Creation date {YYYY/MM/DD hh:mm}
DLIS_CREA.  2010-Sep-07 20:46                          :DLIS Creation date and time {YYYY-MMM-DD hh:mm}
SOURCE.     CFU_31F_#1_DENBURY_ONSHORE_7-SEP-2010_10660-10934_PRES_TEMP_DL_PSP_069PUP.DLIS  :DLIS File Name
FILE-ID.     FCS_GMS_RST_PSP_069PUP                    :File Identification Number
#--------------------------------------------------
~WELL INFORMATION
#MNEM.UNIT      DATA             DESCRIPTION
#---- ------ --------------   -----------------------------
STRT .F        10666.5       :START DEPTH     
STOP .F          -41.5       :STOP DEPTH     
STEP .F           -0.5       :STEP     
NULL .          -999.25      :NULL VALUE
COMP .        DENBURY ONSHORE, LLC                     :COMPANY
WELL .        CFU 31F #1                               :WELL
FLD  .        CRANFIELD                                :FIELD
LOC  .                                                 :LOCATION
CNTY .        FRANKLIN                                 :COUNTY
STAT .        MISSISSIPPI                              :STATE
CTRY .                                                 :COUNTRY
API  .        23-037-21488-0000                        :API NUMBER
UWI  .        23-037-21488-0000                        :UNIQUE WELL ID
DATE .        07-Sep-2010                              :LOG DATE {DD-MMM-YYYY}
SRVC .        Schlumberger                             :SERVICE COMPANY
LATI .DEG                                              :LATITUDE
LONG .DEG                                              :LONGITUDE
GDAT .                                                 :GeoDetic Datum
SECT .        31                                       :Section
RANG .        1E                                       :Range
TOWN .        7N                                       :Township
#-----------------------------------------------------------------------------
~PARAMETER INFORMATION
#MNEM.UNIT    VALUE                      DESCRIPTION
#---- -----   --------------------       ------------------------
RUN  .          1                        :RUN NUMBER
PDAT .        GROUND LEVEL               :Permanent Datum
EPD  .F         315.700012               :Elevation of Permanent Datum above Mean Sea Level
LMF  .          KELLY BUSHING            :Logging Measured From (Name of Logging Elevation Reference)
APD  .F          18.000000               :Elevation of Depth Reference (LMF) above Permanent Datum
#-----------------------------------------------------------------------------
~CURVE INFORMATION
#MNEM.UNIT   API CODE                                  DESCRIPTION
#---- -----  --------                                  -----------------------
DEPT .F                                                :DEPTH (BOREHOLE) {F10.1}
GR   .GAPI                                             :Gamma Ray {F13.4}
WFDE .G/C3                                             :Well Fluid Density Corrected {F13.4}
WPRE .PSI                                              :Well Pressure {F13.4}
WTEP .DEGF                                             :Well Temperature {F13.4}
#-----------------------------------------------------------------------------
# 
#     DEPT        GR           WFDE         WPRE         WTEP
#
~A  
# ...
    2157.5      68.6284       0.7353    3002.2466     109.6823
    2157.0      64.7427       0.7341    3002.1006     109.6787
    2156.5      54.3515       0.7314    3001.9648     109.6761
    2156.0      50.4658       0.7319    3001.8271     109.6731
    2155.5      46.6287       0.7323    3001.6694     109.6713
    2155.0      46.5993       0.7310    3001.5105     109.6697
    2154.5      38.8084       0.7292    3001.3469     109.6673
    2154.0      46.6090       0.7287    3001.1855     109.6653
    2153.5      46.6090       0.7296    3001.0330     109.6637
    2153.0      46.6090       0.7322    3000.8870     109.6620
    2152.5      46.6090       0.7345    3000.6943     109.6615
    2152.0      53.0609       0.7382    3000.5503     109.6599
    2151.5      49.1752       0.7423    3000.4124     109.6589
    2151.0      53.0122       0.7442    3000.2681     109.6561
    2150.5      53.0122       0.7446    3000.1379     109.6531
    2150.0      54.3075       0.7438    3000.0078     109.6496
    2149.5      53.0561       0.7421    2999.8521     109.6463
    2149.0      58.2370       0.7399    2999.6897     109.6440
    2148.5      53.0755       0.7378    2999.5364     109.6427
    2148.0      57.0103       0.7355    2999.3621     109.6405
    2147.5      60.8961       0.7347    2999.2334     109.6377
    2147.0      59.5667       0.7336    2999.0962     109.6346
    2146.5      54.3858       0.7332    2998.9072     109.6339
    2146.0      62.1864       0.7331    2998.7412     109.6322
    2145.5      54.3659       0.7353    2998.5784     109.6306
    2145.0      54.3172       0.7373    2998.4126     109.6287
    2144.5      50.4656       0.7395    2998.3010     109.6272
    2144.0      56.9418       0.7418    2998.1611     109.6254
    2143.5      54.3513       0.7444    2997.9897     109.6241
    2143.0      59.5323       0.7444    2997.8147     109.6214
    2142.5      56.9515       0.7445    2997.6648     109.6181
    2142.0      64.7230       0.7443    2997.4836     109.6173
    2141.5      62.1325       0.7429    2997.2954     109.6173
    2141.0      56.9223       0.7409    2997.1528     109.6158
    2140.5      55.6271       0.7391    2997.0046     109.6126
    2140.0      55.6660       0.7361    2996.8213     109.6105
    2139.5      47.8945       0.7333    2996.6389     109.6091
    2139.0      42.6746       0.7324    2996.4465     109.6087
    2138.5      42.7038       0.7320    2996.2546     109.6076
    2138.0      44.0383       0.7331    2996.1411     109.6060
    2137.5      49.2193       0.7350    2996.0190     109.6031
    2137.0      51.7806       0.7389    2995.8660     109.6023
    2136.5      53.1148       0.7418    2995.7139     109.6000
    2136.0      57.0005       0.7449    2995.5808     109.5979
    2135.5      62.1422       0.7467    2995.4260     109.5952
    2135.0      46.5993       0.7484    2995.2686     109.5938
    2134.5      49.2190       0.7480    2995.1667     109.5919
    2134.0      46.6285       0.7478    2995.0376     109.5888
    2133.5      42.7428       0.7450    2994.8413     109.5856
    2133.0      41.3940       0.7422    2994.6509     109.5824
    2132.5      47.8702       0.7386    2994.4729     109.5802
    2132.0      45.3091       0.7351    2994.3223     109.5783
    2131.5      45.2751       0.7328    2994.1299     109.5740
    2131.0      51.7513       0.7330    2993.9646     109.5720
    2130.5      50.5096       0.7361    2993.8394     109.5696
    2130.0      54.3953       0.7401    2993.6819     109.5674
    2129.5      62.1374       0.7422    2993.5430     109.5650
    2129.0      67.2989       0.7409    2993.4033     109.5630
    2128.5      64.7084       0.7397    2993.2241     109.5596
    2128.0      59.5568       0.7355    2993.0837     109.5568
    2127.5      62.1473       0.7322    2992.9514     109.5554
    2127.0      60.7985       0.7316    2992.7649     109.5527
    2126.5      55.6711       0.7332    2992.5815     109.5497
    2126.0      59.5568       0.7344    2992.4109     109.5475
    2125.5      58.2322       0.7356    2992.2424     109.5468
    2125.0      47.8605       0.7345    2992.1079     109.5464
    2124.5      46.6188       0.7328    2991.9990     109.5457
    2124.0      49.2093       0.7325    2991.8521     109.5440
    2123.5      41.4086       0.7325    2991.6941     109.5410
    2123.0      43.9991       0.7328    2991.5444     109.5397
    2122.5      51.7803       0.7356    2991.3953     109.5387
    2122.0      54.3123       0.7383    2991.2539     109.5374
    2121.5      56.9028       0.7395    2991.1184     109.5334
    2121.0      65.9988       0.7411    2990.9517     109.5311
    2120.5      67.2940       0.7424    2990.7703     109.5293
    2120.0      67.2940       0.7430    2990.6182     109.5273
    2119.5      71.2382       0.7430    2990.4524     109.5270
    2119.0      75.0557       0.7433    2990.3235     109.5247
    2118.5      68.5795       0.7415    2990.1394     109.5209
    2118.0      67.2843       0.7397    2989.9531     109.5188
    2117.5      67.2453       0.7369    2989.8313     109.5162
    2117.0      59.4738       0.7345    2989.6714     109.5140
    2116.5      50.4753       0.7323    2989.4839     109.5120
    2116.0      43.9991       0.7322    2989.3135     109.5105
    2115.5      47.8361       0.7327    2989.1521     109.5065
    2115.0      51.7608       0.7350    2989.0220     109.5044
    2114.5      51.7608       0.7374    2988.9067     109.5038
    2114.0      54.3075       0.7389    2988.7839     109.5003
    2113.5      65.9647       0.7400    2988.6284     109.4985
    2113.0      56.9466       0.7404    2988.4465     109.4961
    2112.5      53.1002       0.7399    2988.2839     109.4923
    2112.0      50.4756       0.7392    2988.1426     109.4897
    2111.5      47.9289       0.7392    2987.9973     109.4876
    2111.0      41.4527       0.7390    2987.8110     109.4860
    2110.5      50.5194       0.7385    2987.6257     109.4839
    2110.0      50.4802       0.7376    2987.4202     109.4817
    2109.5      49.1898       0.7365    2987.2314     109.4811
    2109.0      53.1246       0.7351    2987.1033     109.4793
    2108.5      60.8328       0.7336    2986.9895     109.4779
    2108.0      55.6518       0.7336    2986.8442     109.4771
    2107.5      51.7660       0.7352    2986.6956     109.4754
    2107.0      50.5000       0.7370    2986.5361     109.4742
    2106.5      45.2700       0.7387    2986.3772     109.4714
    2106.0      36.2373       0.7409    2986.2183     109.4699
    2105.5      40.1231       0.7410    2986.0500     109.4664
    2105.0      51.7803       0.7397    2985.9136     109.4633
    2104.5      55.6660       0.7393    2985.7759     109.4605
    2104.0      56.9272       0.7392    2985.5830     109.4586
    2103.5      60.8863       0.7392    2985.4116     109.4558
    2103.0      62.1815       0.7408    2985.2478     109.4539
    2102.5      56.8555       0.7414    2985.0825     109.4507
    2102.0      58.1508       0.7403    2984.9587     109.4486
    2101.5      56.8896       0.7395    2984.8345     109.4468
    2101.0      51.6645       0.7384    2984.6692     109.4454
    2100.5      52.9597       0.7367    2984.5120     109.4440
    2100.0      53.0560       0.7393    2984.3616     109.4426
    2099.5      59.5323       0.7422    2984.1802     109.4413
    2099.0      67.3626       0.7424    2984.0483     109.4399
    2098.5      69.9190       0.7426    2983.9167     109.4389
    2098.0      69.9190       0.7417    2983.7405     109.4378
    2097.5      64.7867       0.7363    2983.5825     109.4374
    2097.0      59.6058       0.7322    2983.4019     109.4354
    2096.5      55.6611       0.7311    2983.2109     109.4342
    2096.0      62.1130       0.7310    2983.0652     109.4316
    2095.5      55.6368       0.7332    2982.9363     109.4291
    2095.0      58.1883       0.7357    2982.7798     109.4273
    2094.5      49.1216       0.7365    2982.6189     109.4256
