~Version Information
VERS  .          2.0                              :CWLS Log Ascii Standard - Version 2.0
WRAP  .          NO                               :One line per depth step
~Well Information Block
#MNEM.UNIT       Data Type                        Information
#---------       ---------                        -------------------------------
STRT  .F         9700.00000                       :START DEPTH
STOP  .F         10600.00000                      :STOP DEPTH
STEP  .F          0.50000                         :INCREMENT
NULL  .          -999.25                          :NULL DATA VALUE
COMP  .          DENBURY ONSHORE, LLC             :COMPANY
WELL  .          CFU 31F #1                       :WELL
FLD   .          CRANFIELD FIELD UNIT             :FIELD
LOC   .                                           :LOCATION
PROV  .                                           :PROVINCE
STAT  .                                           :STATE
CNTY  .                                           :COUNTY
CTRY  .                                           :COUNTRY
DATE  .                                           :DATE
UWI   .          CFU 31F #1                       :UNIQUE WELL UWI
LIC   .                                           :LICENSE NUMBER
API   .          23-037-21488-0000                :API NUMBER
SRVC  .                                           :SERVICE COMPANY
~Parameter Information Block
#MNEM.UNIT       Value                            Description
#---------       ---------                        -------------
PDAT  .          GROUND LEVEL                     :Permanent Datum               
EPD   .ft        315.70                           :Elevation of Permanent Datum (PDAT) above Mean Sea Level
LMF   .          KELLY BUSHING                    :Logging Measured From (Name of Working Datum)
APD   .ft        18.00                            :Elevation of Working Datum (LMF) Above Permanent Datum
EDF   .ft        332.70                           :Elevation of Derrick Floor Above Mean Sea Level
EGL   .ft        315.70                           :Elevation of Ground Level Above Mean Sea Level
EKB   .ft        333.70                           :Elevation of Kelly Bushing Above Mean Sea Level
~Curve Information Block
#MNEM.UNIT       API Code            Curve    Description
#--------        --------------      -----    -------------------
DEPT  .F                             :0       Index
SXGA  .                              :1       CO2 Saturation
GR    .GAPI                          :2       Gamma Ray                     
INFD_TDTL.CPS                        :3       Gross Inelastic Count Rate Far Detector (TDT-like)
PHIC  .V/V                           :4       TDT Count Rate Porosity       
SBNA  .CU                            :5       RST Sigma Borehole Near Apparent
SIBH_TDTL.CU                         :6       Sigma Borehole Corrected (TDT-like)
SIGM  .CU                            :7       Formation Sigma (Neutron Capture Cross Section)
SIGM_TDTL.CU                         :8       Formation Sigma (Neutron Capture Cros Section) (TDT-like)
SXWI  .V/V                           :9       Non-Clay Water Intergranular Water Saturation for the Flushed Zone
TPHI  .V/V                           :10      Thermal Decay Porosity        
TSCF_TDTL.CPS                        :11      Total Selected Count Rate Far Detector (TDT-like)
TSCN_TDTL.CPS                        :12      Total Selected Count Rate Near Detector (TDT-like)
VXGA  .V/V                           :13      Volume of Gas in Flushed Zone 
WPRE  .PSI                           :14      Well Pressure                 
WTEP  .DEGF                          :15      Well Temperature              
~Ascii Data Section
# ...
   9934.00000       0.00000      23.44171     289.54913       0.21048      95.38233     121.80117      15.53072      14.84300       1.00000       0.19333    3072.78931    5749.47314       0.00000    4464.97119     252.45935 
   9934.50000       0.00000      24.05503     296.34149       0.22508      96.17525     125.06514      17.13561      15.58436       1.00000       0.21192    2683.43530    5121.31738       0.00000    4465.23242     252.46660 
   9935.00000       0.00000      27.57352     293.62204       0.23899      89.76640     129.08028      20.40776      17.31686       1.00000       0.23900    2114.58862    4247.89453       0.00000    4465.37256     252.47751 
   9935.50000       0.00000      33.64179     292.71793       0.23606      92.09316     130.84338      24.53647      19.98398       1.00000       0.27867    1659.65796    3313.90186       0.00000    4465.70215     252.47395 
   9936.00000       0.00000      39.21108     290.20654       0.26486      87.02496     133.49942      29.14688      24.13658       1.00000       0.31192    1240.56165    2579.03809       0.00000    4465.79150     252.46539 
   9936.50000       0.00000      46.25779     283.95120       0.30393      87.23774     132.10255      32.08167      28.32611       1.00000       0.32584     934.80200    2070.25269       0.00000    4466.04590     252.45981 
   9937.00000       0.00000      51.30743     280.28122       0.27965      88.92117     129.87331      32.82874      29.70581       1.00000       0.31706     873.36298    1924.20483       0.00000    4466.27344     252.45705 
   9937.50000       0.00000      53.33035     270.46381       0.29399      84.82621     130.30936      32.01038      28.96309       1.00000       0.29609     896.88965    1975.97974       0.00000    4466.56006     252.46603 
   9938.00000       0.00000      54.62238     266.56873       0.29410      87.40276     130.63092      30.43318      27.66890       1.00000       0.28260     946.09967    2066.17505       0.00000    4466.75098     252.47382 
   9938.50000       0.00000      55.78807     263.90674       0.28138      90.62097     130.00777      29.84170      26.71551       1.00000       0.27297    1005.56232    2146.00635       0.00000    4466.93066     252.48146 
   9939.00000       0.00000      56.44001     266.16666       0.28048      90.72951     131.92162      29.51332      26.38585       1.00000       0.27221    1023.41547    2179.07275       0.00000    4467.18115     252.48811 
   9939.50000       0.00000      58.43063     270.11142       0.28434      90.21435     134.09164      29.56859      26.63461       1.00000       0.27613    1006.70258    2151.43042       0.00000    4467.39844     252.50067 
   9940.00000       0.00000      61.12600     269.13727       0.29391      89.49005     136.08018      29.87789      26.82940       1.00000       0.28518     957.88074    2082.40991       0.00000    4467.67334     252.51262 
   9940.50000       0.00000      62.55725     270.83432       0.30839      89.21410     137.32147      30.50757      27.13058       1.00000       0.30169     896.45459    2006.93372       0.00000    4467.86670     252.52486 
   9941.00000       0.00000      63.24891     268.86636       0.31906      92.24368     135.31651      31.33001      28.10149       1.00000       0.32247     837.00055    1913.53711       0.00000    4468.06055     252.53928 
   9941.50000       0.00000      64.69661     270.06781       0.32994      91.99474     131.87430      32.15423      29.09732       1.00000       0.34030     775.76892    1814.33057       0.00000    4468.28906     252.54984 
   9942.00000       0.00000      65.83275     273.33411       0.33953      87.11766     130.08751      32.98949      30.12752       1.00000       0.35082     722.85168    1719.46094       0.00000    4468.50879     252.55843 
   9942.50000       0.00000      66.02380     271.93933       0.34180      84.72592     129.39240      33.65468      31.14477       1.00000       0.35414     694.17560    1647.36145       0.00000    4468.77637     252.56825 
   9943.00000       0.00000      66.03733     269.79977       0.34424      85.00758     128.64784      33.75276      31.38893       1.00000       0.35469     678.76007    1617.95764       0.00000    4469.03125     252.57788 
   9943.50000       0.00000      65.66736     265.35480       0.34680      86.82237     129.81535      33.44447      31.11223       1.00000       0.35433     668.38354    1601.57202       0.00000    4469.24414     252.58656 
   9944.00000       0.00000      64.40404     264.31113       0.34684      87.80416     134.25558      33.20800      30.60278       1.00000       0.34962     666.09406    1586.71729       0.00000    4469.45752     252.59294 
   9944.50000       0.00000      61.96632     258.12546       0.35161      86.42175     138.38699      32.90147      29.89042       1.00000       0.34381     653.06128    1565.56506       0.00000    4469.68896     252.59926 
   9945.00000       0.00000      60.59057     246.79997       0.35328      90.43996     140.14462      32.83551      29.06051       1.00000       0.34007     643.11108    1548.15833       0.00000    4469.88965     252.60481 
   9945.50000       0.00000      60.46376     238.20294       0.34899      95.70523     140.94719      32.47747      29.25731       1.00000       0.34133     637.43201    1513.88794       0.00000    4470.07324     252.61189 
   9946.00000       0.00000      61.39774     237.53386       0.33186      94.03571     144.85254      32.27087      29.57713       1.00000       0.33291     663.50641    1501.84216       0.00000    4470.30469     252.62051 
   9946.50000       0.00000      62.58018     244.82481       0.31067      92.93003     146.77106      31.58390      28.57487       1.00000       0.30716     730.66443    1575.54858       0.00000    4470.52637     252.62738 
   9947.00000       0.00000      61.74866     251.03531       0.25627      95.34877     140.61357      30.15800      26.34088       1.00000       0.25420     926.21490    1790.08643       0.00000    4470.80127     252.63177 
   9947.50000       0.00000      58.27332     259.68839       0.20552      98.32845     135.62714      27.16092      22.65694       1.00000       0.20463    1273.31519    2244.71948       0.00000    4471.01709     252.63260 
   9948.00000       0.00000      52.79764     267.85260       0.19266      96.68825     133.86786      23.41630      19.66006       1.00000       0.16908    1572.90845    2768.89697       0.00000    4471.26318     252.63388 
   9948.50000       0.00000      45.37768     275.67630       0.17646     101.55855     130.40736      19.91648      17.93988       1.00000       0.16367    1878.95410    3221.36157       0.00000    4471.40918     252.63844 
   9949.00000       0.00000      39.41692     277.83389       0.15600     100.79437     128.58418      18.39337      17.25487       1.00000       0.16376    2224.75513    3622.86914       0.00000    4471.67529     252.64337 
   9949.50000       0.00000      35.33097     267.23404       0.16598      93.07068     133.13551      18.13185      17.19627       1.00000       0.16198    2306.08960    3869.21289       0.00000    4471.83936     252.64713 
   9950.00000       0.00000      32.83240     248.54701       0.16669      98.73552     133.23125      18.26675      17.74202       1.00000       0.15856    2309.82837    3868.07056       0.00000    4472.11426     252.65482 
   9950.50000       0.00000      32.33120     225.42000       0.17567     104.98931     133.82428      18.42908      18.51286       1.00000       0.16850    2118.49390    3615.07349       0.00000    4472.36572     252.65918 
   9951.00000       0.00000      34.07049     210.01656       0.18032      99.66046     138.24332      19.07259      18.73817       1.00000       0.18246    1958.78552    3354.62231       0.00000    4472.63184     252.66879 
   9951.50000       0.00000      36.01875     204.87213       0.18626     101.04815     141.86365      20.00119      19.04390       1.00000       0.18783    1850.80200    3198.20142       0.00000    4472.89990     252.67601 
