~Version Information
VERS  .          2.0                              :CWLS Log Ascii Standard - Version 2.0
WRAP  .          NO                               :One line per depth step
~Well Information Block
#MNEM.UNIT       Data Type                        Information
#---------       ---------                        -------------------------------
STRT  .F         9700.00000                       :START DEPTH
STOP  .F         10600.00000                      :STOP DEPTH
STEP  .F          0.50000                         :INCREMENT
NULL  .          -999.25                          :NULL DATA VALUE
COMP  .          DENBURY ONSHORE, LLC             :COMPANY
WELL  .          CFU 31F #1                       :WELL
FLD   .          CRANFIELD FIELD UNIT             :FIELD
LOC   .                                           :LOCATION
PROV  .                                           :PROVINCE
STAT  .                                           :STATE
CNTY  .                                           :COUNTY
CTRY  .                                           :COUNTRY
DATE  .                                           :DATE
UWI   .          CFU 31F #1                       :UNIQUE WELL UWI
LIC   .                                           :LICENSE NUMBER
API   .          23-037-21488-0000                :API NUMBER
SRVC  .                                           :SERVICE COMPANY
~Parameter Information Block
#MNEM.UNIT       Value                            Description
#---------       ---------                        -------------
PDAT  .          GROUND LEVEL                     :Permanent Datum               
EPD   .ft        315.70                           :Elevation of Permanent Datum (PDAT) above Mean Sea Level
LMF   .          KELLY BUSHING                    :Logging Measured From (Name of Working Datum)
APD   .ft        18.00                            :Elevation of Working Datum (LMF) Above Permanent Datum
EDF   .ft        332.70                           :Elevation of Derrick Floor Above Mean Sea Level
EGL   .ft        315.70                           :Elevation of Ground Level Above Mean Sea Level
EKB   .ft        333.70                           :Elevation of Kelly Bushing Above Mean Sea Level
~Curve Information Block
#MNEM.UNIT       API Code            Curve    Description
#--------        --------------      -----    -------------------
DEPT  .F                             :0       Index
SXGA  .                              :1       CO2 Saturation
GR    .GAPI                          :2       Gamma Ray                     
INFD_TDTL.CPS                        :3       Gross Inelastic Count Rate Far Detector (TDT-like)
PHIC  .V/V                           :4       TDT Count Rate Porosity       
QGD   .BB/D                          :5       Downhole CO2 Injection rate (Low Rate)
QTDH  .BB/D                          :6       Downhole CO2 Injection rate (High Rate)
SBNA  .CU                            :7       RST Sigma Borehole Near Apparent
SIBH_TDTL.CU                         :8       Sigma Borehole Corrected (TDT-like)
SIGM  .CU                            :9       Formation Sigma (Neutron Capture Cross Section)
SIGM_TDTL.CU                         :10      Formation Sigma (Neutron Capture Cros Section) (TDT-like)
SW    .V/V                           :11      Water Saturation Computed by Delta Sigma Method             
SXWI  .V/V                           :12      Non-Clay Water Intergranular Water Saturation for the Flushed Zone
TPHI  .V/V                           :13      Thermal Decay Porosity        
TSCF_TDTL.CPS                        :14      Total Selected Count Rate Far Detector (TDT-like)
TSCN_TDTL.CPS                        :15      Total Selected Count Rate Near Detector (TDT-like)
VXGA  .V/V                           :16      Volume of Gas in Flushed Zone 
WPRE  .PSI                           :17      Well Pressure                 
WTEP  .DEGF                          :18      Well Temperature              
~Ascii Data Section
# ...
  10405.00000       0.00000      73.03738     282.32755       0.28287    -930.78613   -1912.68921      84.17964     119.37952      33.73657      27.44826       1.00000       1.00000       0.28137     927.93518    2010.92871       0.00000    5695.05078     194.30434 
  10405.50000       0.00000      71.22955     289.15637       0.27144    -930.78613   -1912.68921      86.17558     118.65300      33.85528      26.90222       1.00000       1.00000       0.25767    1003.56067    2126.40063       0.00000    5695.12012     194.31873 
  10406.00000       0.00000      67.44244     314.00897       0.26728    -930.78613   -1912.68921      85.06136     120.95908      34.26270      26.48749       1.00000       1.00000       0.23076    1074.45129    2255.31982       0.00000    5695.12646     194.34045 
  10406.50000       0.24056      66.30108     338.49261       0.27037    -930.78613   -1912.68921      88.08538     121.60408      34.97804      26.71344       1.00000       0.85412       0.21448    1074.58801    2268.84717       0.00796    5695.26074     194.35922 
  10407.00000       0.45329      67.96872     350.99847       0.27850    -930.78613   -1912.68921      88.87170     122.42786      35.99773      27.06612       1.00000       0.73676       0.21546    1056.28979    2270.11499       0.01747    5695.25146     194.37721 
  10407.50000       0.34510      69.13847     335.67435       0.29302    -930.78613   -1912.68921      87.72553     124.36388      37.19436      27.85754       1.00000       0.78173       0.24831    1020.82007    2256.81201       0.01692    5695.39893     194.40778 
  10408.00000       0.12246      70.58818     271.19385       0.30736    -930.78613   -1912.68921      85.97674     124.09945      37.83873      29.40876       1.00000       0.91228       0.28598     956.79962    2165.41187       0.00597    5695.49463     194.47369 
  10408.50000       0.00000      68.39159     236.83244       0.36964    -930.78613   -1912.68921      85.82119     120.80913      38.78338      30.64077       1.00000       1.00000       0.32395     732.92578    1890.91370       0.00000    5695.57715     194.54883 
  10409.00000       0.00000      67.57421     194.24162       0.35122    -930.78613   -1912.68921      83.48891     118.81683      39.61780      31.96137       1.00000       1.00000       0.32458     677.36957    1671.22144       0.00000    5695.51514     194.59976 
  10409.50000       0.00000      64.77269     165.65582       0.34232    -930.78613   -1912.68921      83.51227     110.52744      40.42809      31.76694       1.00000       1.00000       0.32504     644.06097    1580.54663       0.00000    5695.58008     194.63162 
  10410.00000       0.00000      61.98177     156.95288       0.43839    -930.78613   -1912.68921      82.23893      99.42480      39.11902      31.63566       1.00000       1.00000       0.34855     651.50336    1591.51929       0.00000    5695.62500     194.63159 
  10410.50000       0.00000      58.27192     158.85902       0.44563    -930.78613   -1912.68921      73.09062      89.25089      37.23813      31.25241       1.00000       1.00000       0.40621     700.01392    1695.26807       0.00000    5695.65283     194.60411 
  10411.00000       0.00000      56.17575     172.92702       0.43807    -930.78613   -1912.68921      61.06994      76.04794      35.26017      31.22835       1.00000       1.00000       0.46071     758.96906    1865.63281       0.00000    5695.67432     194.56718 
  10411.50000       0.00000      54.96647     203.99182       0.42767    -930.78613   -1912.68921      55.90509      58.71058      34.57555      30.63273       1.00000       1.00000       0.48182     831.68616    2082.78198       0.00000    5695.75488     194.54555 
  10412.00000       0.00000      54.80872     242.42085       0.41516    -930.78613   -1912.68921      55.27268      52.89952      34.44808      30.85941       1.00000       1.00000       0.48175     894.51416    2197.08276       0.00000    5695.83594     194.53381 
  10412.50000       0.00000      55.06125     266.96875       0.41190    -930.78613   -1912.68921      55.68248      52.62987      34.14122      30.49046       1.00000       1.00000       0.46577     923.82196    2258.54956       0.00000    5695.84473     194.52267 
  10413.00000       0.00000      56.77666     286.76773       0.40162    -930.78613   -1912.68921      58.19980      52.40466      33.87943      30.72350       1.00000       1.00000       0.44540     967.63818    2298.10522       0.00000    5695.89209     194.49876 
  10413.50000       0.00000      59.39152     300.62485       0.38477    -930.78613   -1912.68921      59.42920      52.07743      33.69232      30.75554       1.00000       1.00000       0.41715    1028.25354    2324.55078       0.00000    5695.92725     194.46587 
  10414.00000       0.00000      60.27451     335.10709       0.37395    -930.78613   -1912.68921      57.62629      51.97049      33.41879      30.58107       0.89010       1.00000       0.39198    1072.60608    2349.21973       0.00000    5695.92578     194.43666 
  10414.50000       0.00000      60.85352     373.90860       0.36460    -930.78613   -1912.68921      57.20958      49.91956      33.24600      30.01182       0.97631       1.00000       0.36858    1124.41150    2413.56470       0.00000    5696.01367     194.41483 
  10415.00000       0.00000      61.11781     409.42117       0.33416    -930.78613   -1912.68921      55.76757      48.81239      33.27792      30.00406       1.00000       1.00000       0.35754    1186.42554    2469.95557       0.00000    5696.03369     194.38753 
  10415.50000       0.00000      60.52125     411.36496       0.32581    -930.78613   -1912.68921      54.05700      49.06579      33.10544      29.95692       1.00000       1.00000       0.34996    1222.40771    2522.11621       0.00000    5696.02686     194.36674 
  10416.00000       0.00000      58.93020     390.99869       0.34817    -930.78613   -1912.68921      56.55250      49.58850      33.05891      29.23462       1.00000       1.00000       0.35680    1207.30017    2521.94312       0.00000    5696.16602     194.36497 
  10416.50000       0.00000      58.99719     365.97632       0.35186    -930.78613   -1912.68921      55.64155      47.41130      32.94264      28.76760       1.00000       1.00000       0.37843    1199.84680    2511.32056       0.00000    5696.40723     194.37170 
  10417.00000       0.00000      60.81388     372.85941       0.35323    -930.78613   -1912.68921      52.10140      43.19116      33.08189      29.04212       1.00000       1.00000       0.41718    1185.43091    2509.44287       0.00000    5696.49072     194.37944 
  10417.50000       0.00000      63.76734     427.10681       0.36251    -930.78613   -1912.68921      49.15584      39.81685      33.26710      29.52396       1.00000       1.00000       0.45587    1154.63293    2530.14185       0.00000    5696.51660     194.39275 
  10418.00000       0.00000      66.57417     488.65283       0.36900    -930.78613   -1912.68921      44.48778      35.96968      33.79258      30.62429       1.00000       1.00000       0.48103    1143.99023    2563.45825       0.00000    5696.40869     194.40584 
  10418.50000       0.00000      70.89517     520.16925       0.37301    -930.78613   -1912.68921      42.79539      33.81392      34.44271      31.69799       1.00000       1.00000       0.49906    1160.29626    2629.35010       0.00000    5696.39355     194.41928 
  10419.00000       0.00000      73.04855     513.78333       0.37930    -930.78613   -1912.68921      39.11443      33.47174      35.02806      32.41359       1.00000       1.00000       0.50542    1153.74414    2657.76172       0.00000    5696.43457     194.43091 
  10419.50000       0.00000      73.30560     504.12833       0.36133    -930.78613   -1912.68921      42.45292      33.57885      35.22033      33.66357       0.93768       1.00000       0.50593    1121.10144    2592.87109       0.00000    5696.48877     194.43941 
