~Version Information
VERS  .          2.0                              :CWLS Log Ascii Standard - Version 2.0
WRAP  .          NO                               :One line per depth step
~Well Information Block
#MNEM.UNIT       Data Type                        Information
#---------       ---------                        -------------------------------
STRT  .F         9700.00000                       :START DEPTH
STOP  .F         10647.00000                      :STOP DEPTH
STEP  .F          0.50000                         :INCREMENT
NULL  .          -999.25                          :NULL DATA VALUE
COMP  .          DENBURY ONSHORE, LLC             :COMPANY
WELL  .          CFU 31F #1                       :WELL
FLD   .          CRANFIELD FIELD UNIT             :FIELD
LOC   .                                           :LOCATION
PROV  .                                           :PROVINCE
STAT  .                                           :STATE
CNTY  .                                           :COUNTY
CTRY  .                                           :COUNTRY
DATE  .                                           :DATE
UWI   .          CFU 31F #1                       :UNIQUE WELL UWI
LIC   .                                           :LICENSE NUMBER
API   .          23-037-21488-0000                :API NUMBER
SRVC  .                                           :SERVICE COMPANY
~Parameter Information Block
#MNEM.UNIT       Value                            Description
#---------       ---------                        -------------
PDAT  .          GROUND LEVEL                     :Permanent Datum               
EPD   .ft        315.70                           :Elevation of Permanent Datum (PDAT) above Mean Sea Level
LMF   .          KELLY BUSHING                    :Logging Measured From (Name of Working Datum)
APD   .ft        18.00                            :Elevation of Working Datum (LMF) Above Permanent Datum
EDF   .ft        332.70                           :Elevation of Derrick Floor Above Mean Sea Level
EGL   .ft        315.70                           :Elevation of Ground Level Above Mean Sea Level
EKB   .ft        333.70                           :Elevation of Kelly Bushing Above Mean Sea Level
~Curve Information Block
#MNEM.UNIT       API Code            Curve    Description
#--------        --------------      -----    -------------------
DEPT  .F                             :0       Index
AT10  .OHMM                          :1       Array Induction Two Foot Resistivity A10
AT20  .OHMM                          :2       Array Induction Two Foot Resistivity A20
AT30  .OHMM                          :3       Array Induction Two Foot Resistivity A30
AT60  .OHMM                          :4       Array Induction Two Foot Resistivity A60
AT90  .OHMM                          :5       Array Induction Two Foot Resistivity A90
BS    .IN                            :6       Bit Size                      
DT    .US/F                          :7       Delta-T (also called Slowness or Interval Transit Time)
GR    .GAPI                          :8       Gamma Ray                     
HCAL  .IN                            :9       HRCC Caliper Calibrated       
HTNP  .V/V                           :10      High Resolution Thermal Neutron Porosity (Ratio Method) in Sand Lithology
KINT  .MD                            :11      Intrinsic Permeability        
PHIT  .V/V                           :12      Total Porosity_ includes all forms of porosity, including that occupied by bound fluids, and is independent of rock and fluid materials and of environmental effects
PIGN  .V/V                           :13      Effective Porosity, VISO, VPAR, and Bound Water Removed
SUWI  .V/V                           :14      Non-Clay Water Intergranular Water Saturation for Undisturbed Zone
VCHL  .V/V                           :15      Volume of Chlorite Relative to Total Volume
VCLC  .V/V                           :16      Volume of Calcite Relative to Total Volume
VILL  .V/V                           :17      Volume of Illite (dry) Relative to Total Volume
VKAO  .V/V                           :18      Volume of Kaolinite (dry) Relative to Total Volume
VQUA  .V/V                           :19      Volume of Quartz Relative to Total Volume
VUIW  .V/V                           :20      Volume of Irreducible Water In Undisturbed Zone
VUWA  .V/V                           :21      Volume of Water in Undisturbed Zone
VXBW  .V/V                           :22      Volume of Bound Water in Flushed Zone
~Ascii Data Section
# ...
   9812.50000       4.39920       4.76071       5.50184       5.19201       4.67172       8.75000      72.89172     109.08185       9.56218       0.23302       0.01062       0.09337       0.05806       1.00000       0.06503       0.00000       0.22476       0.06169       0.55515       0.04192       0.01614       0.03530 
   9813.00000       4.53409       4.97356       5.74101       5.41071       5.33928       8.75000      73.48075     101.21493       9.52787       0.21978       0.01548       0.09603       0.06121       1.00000       0.06971       0.00000       0.23623       0.02525       0.57278       0.04681       0.01440       0.03482 
   9813.50000       3.75494       4.48987       4.84959       4.74443       4.84947       8.75000      73.05953      95.73118       9.63080       0.21941       0.01905       0.09106       0.05887       1.00000       0.07270       0.00000       0.19289       0.05286       0.59049       0.03558       0.02329       0.03219 
   9814.00000       3.58001       4.00054       4.14314       4.06509       4.32451       8.75000      74.52215     100.53378       9.97389       0.22141       0.03072       0.10003       0.06840       1.00000       0.06344       0.00000       0.18622       0.07239       0.57792       0.03968       0.02872       0.03163 
   9814.50000       3.48561       4.00995       4.17557       4.05926       4.09960       8.75000      72.72530      95.73742       9.69947       0.21071       0.03300       0.08991       0.06113       1.00000       0.07231       0.00000       0.14233       0.08650       0.60896       0.02554       0.03560       0.02877 
   9815.00000       3.55582       4.09361       4.28035       4.25898       4.08229       8.75000      72.86777      84.53150      10.54567       0.19060       0.03523       0.08698       0.05876       1.00000       0.08124       0.00000       0.14261       0.06074       0.62843       0.02463       0.03413       0.02822 
   9815.50000       3.05561       3.47600       3.59234       3.56561       3.53753       8.75000      74.23045      75.34963       9.61936       0.18944       0.07654       0.09589       0.06864       1.00000       0.09206       0.00000       0.13832       0.03269       0.64105       0.02774       0.04090       0.02725 
   9816.00000       2.83393       3.11451       3.24609       3.27316       3.22450       8.75000      73.07758      77.80502       9.56219       0.20190       0.08147       0.09731       0.07004       1.00000       0.09483       0.00000       0.13469       0.03433       0.63885       0.02736       0.04268       0.02727 
   9816.50000       3.02606       3.35196       3.38468       3.38651       3.47982       8.75000      73.63275      97.96531       9.58506       0.21313       0.03545       0.10064       0.06906       1.00000       0.07808       0.00000       0.18272       0.05096       0.58760       0.03922       0.02984       0.03158 
   9817.00000       3.38736       3.72868       3.80253       4.05706       4.05953       8.75000      73.60448     105.24183       9.72232       0.23105       0.04253       0.10773       0.07581       1.00000       0.06992       0.00000       0.18776       0.06255       0.57203       0.04447       0.03134       0.03192 
   9817.50000       3.87688       4.28484       4.45468       4.43203       4.35898       8.75000      75.53367     103.09602       9.92822       0.22383       0.04197       0.10880       0.07694       1.00000       0.06574       0.00000       0.18172       0.07982       0.56393       0.04342       0.03352       0.03186 
   9818.00000       4.66469       5.21290       5.27033       5.14622       4.78874       8.75000      72.32195      89.33257      10.84317       0.18744       0.02820       0.08479       0.05638       1.00000       0.07966       0.00000       0.13642       0.07749       0.62165       0.02235       0.03403       0.02841 
   9818.50000       4.89971       5.91061       6.08492       5.16213       4.96377       8.75000      69.38550      84.09286       9.42493       0.15934       0.01000       0.06001       0.03241       1.00000       0.09460       0.00000       0.11840       0.06856       0.65843       0.01066       0.02175       0.02760 
   9819.00000       4.76915       5.89678       6.07693       5.67658       5.84339       8.75000      69.28146      87.32841       9.33344       0.14441       0.01000       0.05842       0.02872       1.00000       0.09184       0.00000       0.16506       0.02622       0.65846       0.01440       0.01432       0.02970 
   9819.50000       4.71623       5.83920       5.94586       5.61437       5.64516       8.75000      66.44626      89.75323       9.28769       0.14575       0.01000       0.04964       0.02261       1.00000       0.09209       0.00000       0.13002       0.04355       0.68470       0.00838       0.01423       0.02703 
   9820.00000       4.61583       5.53864       5.62334       5.42032       5.32038       8.75000      65.57011      96.26646       9.33344       0.15403       0.01000       0.05147       0.02476       1.00000       0.08610       0.00000       0.13178       0.04611       0.68454       0.00932       0.01544       0.02670 
   9820.50000       4.42278       5.36952       5.60325       5.54114       4.99490       8.75000      66.60255     103.52155       9.51645       0.16210       0.01000       0.05949       0.03186       1.00000       0.07647       0.00000       0.14616       0.05368       0.66420       0.01370       0.01815       0.02763 
   9821.00000       4.05438       4.74887       5.02947       5.09119       4.59738       8.75000      67.94073     106.93576       9.69942       0.18894       0.01078       0.07050       0.04203       1.00000       0.07090       0.00000       0.14860       0.07317       0.63682       0.01846       0.02357       0.02847 
   9821.50000       3.57484       4.03197       4.28300       4.43668       4.14254       8.75000      70.01565     112.33099      10.27132       0.22704       0.01000       0.08109       0.04810       1.00000       0.06324       0.00000       0.18883       0.09033       0.57651       0.02828       0.01982       0.03300 
   9822.00000       3.29894       3.68584       3.86149       3.89813       3.86670       8.75000      70.92477     113.28469      10.77455       0.27281       0.01000       0.08626       0.05027       1.00000       0.06316       0.00000       0.19682       0.12515       0.52860       0.03099       0.01928       0.03599 
   9822.50000       3.21522       3.55927       3.74702       3.72872       3.89685       8.75000      72.86689     117.03835      11.23198       0.30979       0.01000       0.09958       0.05902       1.00000       0.05906       0.00000       0.24165       0.12851       0.47119       0.04623       0.01279       0.04056 
   9823.00000       3.19692       3.55456       3.68529       3.74656       3.95265       8.75000      76.56177     119.70380      10.86604       0.33480       0.01000       0.12217       0.07821       1.00000       0.05408       0.00000       0.28485       0.11722       0.42168       0.07383       0.00438       0.04396 
   9823.50000       3.32136       3.60389       3.70468       3.75469       3.96880       8.75000      77.44781     120.87920      11.33487       0.33267       0.01000       0.12414       0.07778       1.00000       0.05094       0.00000       0.31743       0.10489       0.40261       0.07778       0.00000       0.04636 
   9824.00000       3.37709       3.65160       3.74653       3.79431       4.06412       8.75000      77.73744     131.30449      10.93468       0.31113       0.01000       0.12963       0.08364       1.00000       0.04094       0.00000       0.33513       0.08614       0.40817       0.08364       0.00000       0.04598 
   9824.50000       3.58300       3.84248       3.89775       3.93305       4.10244       8.75000      75.63677     126.16333      11.16335       0.26649       0.01000       0.11577       0.07522       1.00000       0.04438       0.00000       0.27970       0.08844       0.47172       0.06960       0.00562       0.04054 
