~Version Information
VERS  .          2.0                              :CWLS Log Ascii Standard - Version 2.0
WRAP  .          NO                               :One line per depth step
~Well Information Block
#MNEM.UNIT       Data Type                        Information
#---------       ---------                        -------------------------------
STRT  .F         9700.00000                       :START DEPTH
STOP  .F         10600.00000                      :STOP DEPTH
STEP  .F          0.50000                         :INCREMENT
NULL  .          -999.25                          :NULL DATA VALUE
COMP  .          DENBURY ONSHORE, LLC             :COMPANY
WELL  .          CFU 31F #1                       :WELL
FLD   .          CRANFIELD FIELD UNIT             :FIELD
LOC   .                                           :LOCATION
PROV  .                                           :PROVINCE
STAT  .                                           :STATE
CNTY  .                                           :COUNTY
CTRY  .                                           :COUNTRY
DATE  .                                           :DATE
UWI   .          CFU 31F #1                       :UNIQUE WELL UWI
LIC   .                                           :LICENSE NUMBER
API   .          23-037-21488-0000                :API NUMBER
SRVC  .                                           :SERVICE COMPANY
~Parameter Information Block
#MNEM.UNIT       Value                            Description
#---------       ---------                        -------------
PDAT  .          GROUND LEVEL                     :Permanent Datum               
EPD   .ft        315.70                           :Elevation of Permanent Datum (PDAT) above Mean Sea Level
LMF   .          KELLY BUSHING                    :Logging Measured From (Name of Working Datum)
APD   .ft        18.00                            :Elevation of Working Datum (LMF) Above Permanent Datum
EDF   .ft        332.70                           :Elevation of Derrick Floor Above Mean Sea Level
EGL   .ft        315.70                           :Elevation of Ground Level Above Mean Sea Level
EKB   .ft        333.70                           :Elevation of Kelly Bushing Above Mean Sea Level
~Curve Information Block
#MNEM.UNIT       API Code            Curve    Description
#--------        --------------      -----    -------------------
DEPT  .F                             :0       Index
SXGA  .                              :1       CO2 Saturation
GR    .GAPI                          :2       Gamma Ray                     
INFD_TDTL.CPS                        :3       Gross Inelastic Count Rate Far Detector (TDT-like)
PHIC  .V/V                           :4       TDT Count Rate Porosity       
QGD   .BB/D                          :5       Downhole CO2 Injection rate (Low Rate)
QTDH  .BB/D                          :6       Downhole CO2 Injection rate (High Rate)
SBNA  .CU                            :7       RST Sigma Borehole Near Apparent
SIBH_TDTL.CU                         :8       Sigma Borehole Corrected (TDT-like)
SIGM  .CU                            :9       Formation Sigma (Neutron Capture Cross Section)
SIGM_TDTL.CU                         :10      Formation Sigma (Neutron Capture Cros Section) (TDT-like)
SW    .V/V                           :11      Water Saturation Computed by Delta Sigma Method             
SXWI  .V/V                           :12      Non-Clay Water Intergranular Water Saturation for the Flushed Zone
TPHI  .V/V                           :13      Thermal Decay Porosity        
TSCF_TDTL.CPS                        :14      Total Selected Count Rate Far Detector (TDT-like)
TSCN_TDTL.CPS                        :15      Total Selected Count Rate Near Detector (TDT-like)
VXGA  .V/V                           :16      Volume of Gas in Flushed Zone 
WPRE  .PSI                           :17      Well Pressure                 
WTEP  .DEGF                          :18      Well Temperature              
~Ascii Data Section
# ...
   9820.00000       0.00000      53.09403     310.82574       0.20891    -999.25000    -999.25000      89.59073     126.63442      24.72724      22.57232       1.00000       1.00000       0.17821    1400.68018    2548.50244       0.00000    5540.06445     184.52547 
   9820.50000       0.00000      53.27896     303.73843       0.22819    -999.25000    -999.25000      96.35989     129.72612      25.06208      22.77474       0.97453       1.00000       0.19603    1264.17798    2415.77295       0.00000    5540.19043     184.52144 
   9821.00000       0.00000      56.07550     295.30130       0.24031    -999.25000    -999.25000      92.96027     130.09218      26.11993      23.78491       0.76198       1.00000       0.22558    1130.19629    2206.63257       0.00000    5540.26611     184.52464 
   9821.50000       0.00000      58.46229     284.87296       0.26923    -999.25000    -999.25000      90.59342     134.63107      28.05841      25.44580       0.58933       1.00000       0.26930     946.24805    1945.30273       0.00000    5540.39404     184.52710 
   9822.00000       0.00000      58.80692     285.10690       0.31885    -999.25000    -999.25000      84.85511     134.29782      31.21349      27.78409       0.56753       1.00000       0.32249     736.96515    1677.56226       0.00000    5540.56689     184.53185 
   9822.50000       0.00000      61.97663     272.50006       0.34755    -999.25000    -999.25000      86.77368     132.55498      33.55501      30.22923       0.56689       1.00000       0.36965     613.38538    1464.69446       0.00000    5540.76465     184.54117 
   9823.00000       0.00000      63.11945     276.69745       0.38377    -999.25000    -999.25000      81.77641     125.31882      36.14797      33.03759       0.83830       1.00000       0.39606     499.18106    1279.30261       0.00000    5540.96631     184.55093 
   9823.50000       0.00000      63.21598     272.81256       0.39203    -999.25000    -999.25000      78.90932     123.24014      36.78563      35.24752       0.85018       1.00000       0.39373     453.74985    1167.95044       0.00000    5541.07666     184.55956 
   9824.00000       0.00000      64.88966     282.51401       0.33338    -999.25000    -999.25000      80.14233     122.56799      37.98059      35.49307       1.00000       1.00000       0.37196     467.32956    1158.58728       0.00000    5541.18213     184.56953 
   9824.50000       0.00000      64.02448     289.84351       0.29306    -999.25000    -999.25000      82.59550     120.19443      36.60585      33.77645       1.00000       1.00000       0.33597     554.97699    1271.85571       0.00000    5541.40283     184.58415 
   9825.00000       0.00000      61.36102     297.57458       0.31085    -999.25000    -999.25000      83.40517     120.86461      34.00754      30.14475       1.00000       1.00000       0.30749     671.26111    1504.93579       0.00000    5541.45166     184.59798 
   9825.50000       0.00000      59.30643     294.68311       0.27094    -999.25000    -999.25000      83.16180     126.12096      30.76132      27.36852       1.00000       1.00000       0.27359     864.39685    1780.15601       0.00000    5541.60400     184.61554 
   9826.00000       0.00000      55.72292     297.07361       0.24747    -999.25000    -999.25000      90.85717     127.49664      27.68553      25.01401       1.00000       1.00000       0.24453    1100.64087    2181.66748       0.00000    5541.85107     184.63753 
   9826.50000       0.00000      51.57896     297.18304       0.24871    -999.25000    -999.25000      94.43496     129.42606      25.27114      22.27734       1.00000       1.00000       0.22271    1268.85193    2575.63574       0.00000    5541.94922     184.66148 
   9827.00000       0.00000      50.09804     296.46808       0.23639    -999.25000    -999.25000      92.23627     131.66545      23.32352      21.99490       0.98851       1.00000       0.22033    1389.74988    2737.71973       0.00000    5542.09863     184.68269 
   9827.50000       0.00000      51.01163     294.74655       0.23793    -999.25000    -999.25000      92.61004     134.20107      23.04563      21.41443       0.74624       1.00000       0.23024    1368.56445    2700.56494       0.00000    5542.31250     184.70900 
   9828.00000       0.00000      54.03766     295.55875       0.24340    -999.25000    -999.25000      89.87704     132.47421      24.08152      21.53138       0.70051       1.00000       0.22867    1330.03503    2663.90991       0.00000    5542.45605     184.73221 
   9828.50000       0.00000      55.89879     292.22849       0.24695    -999.25000    -999.25000      94.11232     131.43166      25.17636      22.59800       0.93747       1.00000       0.22428    1280.50171    2577.82739       0.00000    5542.60986     184.75473 
   9829.00000       0.00000      56.55573     283.35791       0.24130    -999.25000    -999.25000      92.18850     132.01675      25.19927      23.11717       1.00000       1.00000       0.21896    1286.53552    2541.59741       0.00000    5542.83252     184.77333 
   9829.50000       0.00000      55.06762     269.15289       0.24796    -999.25000    -999.25000      91.84109     134.38919      24.14685      22.50586       1.00000       1.00000       0.22248    1327.49646    2674.44312       0.00000    5542.93066     184.78516 
   9830.00000       0.00000      52.24752     251.60652       0.25365    -999.25000    -999.25000      95.89558     135.86067      23.20509      22.10140       1.00000       1.00000       0.22884    1355.56067    2773.62402       0.00000    5543.04492     184.79108 
   9830.50000       0.00000      49.10878     235.88480       0.25077    -999.25000    -999.25000      97.09788     135.50919      23.37251      22.31002       0.93798       1.00000       0.23252    1313.68469    2662.64136       0.00000    5543.24854     184.79469 
   9831.00000       0.00000      48.96658     224.35284       0.25006    -999.25000    -999.25000      94.85998     133.82741      24.54631      22.12691       0.82705       1.00000       0.23020    1253.86157    2537.80688       0.00000    5543.29248     184.79961 
   9831.50000       0.00000      50.26155     235.11942       0.25195    -999.25000    -999.25000      91.54054     132.54411      25.44132      21.91129       0.92538       1.00000       0.22565    1245.69897    2538.91431       0.00000    5543.41504     184.80066 
   9832.00000       0.00000      51.96977     262.48993       0.24318    -999.25000    -999.25000      89.62140     130.22441      24.69814      21.67914       1.00000       1.00000       0.22759    1331.74402    2667.73853       0.00000    5543.56250     184.79688 
   9832.50000       0.00000      52.24481     294.01334       0.22665    -999.25000    -999.25000      91.38820     127.19641      22.86306      21.15402       1.00000       1.00000       0.22596    1472.30103    2861.51904       0.00000    5543.76953     184.79147 
   9833.00000       0.00000      51.86796     310.52246       0.22521    -999.25000    -999.25000      92.22515     128.70236      21.66766      20.41782       1.00000       1.00000       0.21325    1581.90088    3074.59961       0.00000    5543.94434     184.78442 
   9833.50000       0.00000      51.61032     313.77103       0.22209    -999.25000    -999.25000      91.60299     130.32712      22.29884      20.50208       0.97619       1.00000       0.19196    1625.93799    3129.51807       0.00000    5544.07373     184.78030 
   9834.00000       0.00000      51.58754     313.86499       0.21394    -999.25000    -999.25000      94.11381     129.29784      24.08812      21.45971       0.98207       1.00000       0.17409    1563.64124    2923.40869       0.00000    5544.22656     184.78154 
   9834.50000       0.00000      52.76682     311.76898       0.21750    -999.25000    -999.25000      93.45763     128.39610      25.92708      23.04288       1.00000       1.00000       0.16447    1397.02551    2592.89258       0.00000    5544.36035     184.78027 
