~Version Information
VERS  .          2.0                              :CWLS Log Ascii Standard - Version 2.0
WRAP  .          NO                               :One line per depth step
~Well Information Block
#MNEM.UNIT       Data Type                        Information
#---------       ---------                        -------------------------------
STRT  .F         9700.00000                       :START DEPTH
STOP  .F         10600.00000                      :STOP DEPTH
STEP  .F          0.50000                         :INCREMENT
NULL  .          -999.25                          :NULL DATA VALUE
COMP  .          DENBURY ONSHORE, LLC             :COMPANY
WELL  .          CFU 31F #1                       :WELL
FLD   .          CRANFIELD FIELD UNIT             :FIELD
LOC   .                                           :LOCATION
PROV  .                                           :PROVINCE
STAT  .                                           :STATE
CNTY  .                                           :COUNTY
CTRY  .                                           :COUNTRY
DATE  .                                           :DATE
UWI   .          CFU 31F #1                       :UNIQUE WELL UWI
LIC   .                                           :LICENSE NUMBER
API   .          23-037-21488-0000                :API NUMBER
SRVC  .                                           :SERVICE COMPANY
~Parameter Information Block
#MNEM.UNIT       Value                            Description
#---------       ---------                        -------------
PDAT  .          GROUND LEVEL                     :Permanent Datum               
EPD   .ft        315.70                           :Elevation of Permanent Datum (PDAT) above Mean Sea Level
LMF   .          KELLY BUSHING                    :Logging Measured From (Name of Working Datum)
APD   .ft        18.00                            :Elevation of Working Datum (LMF) Above Permanent Datum
EDF   .ft        332.70                           :Elevation of Derrick Floor Above Mean Sea Level
EGL   .ft        315.70                           :Elevation of Ground Level Above Mean Sea Level
EKB   .ft        333.70                           :Elevation of Kelly Bushing Above Mean Sea Level
~Curve Information Block
#MNEM.UNIT       API Code            Curve    Description
#--------        --------------      -----    -------------------
DEPT  .F                             :0       Index
SXGA  .                              :1       CO2 Saturation
GR    .GAPI                          :2       Gamma Ray                     
INFD_TDTL.CPS                        :3       Gross Inelastic Count Rate Far Detector (TDT-like)
PHIC  .V/V                           :4       TDT Count Rate Porosity       
QGD   .BB/D                          :5       Downhole CO2 Injection rate (Low Rate)
QTDH  .BB/D                          :6       Downhole CO2 Injection rate (High Rate)
SBNA  .CU                            :7       RST Sigma Borehole Near Apparent
SIBH_TDTL.CU                         :8       Sigma Borehole Corrected (TDT-like)
SIGM  .CU                            :9       Formation Sigma (Neutron Capture Cross Section)
SIGM_TDTL.CU                         :10      Formation Sigma (Neutron Capture Cros Section) (TDT-like)
SW    .V/V                           :11      Water Saturation Computed by Delta Sigma Method             
SXWI  .V/V                           :12      Non-Clay Water Intergranular Water Saturation for the Flushed Zone
TPHI  .V/V                           :13      Thermal Decay Porosity        
TSCF_TDTL.CPS                        :14      Total Selected Count Rate Far Detector (TDT-like)
TSCN_TDTL.CPS                        :15      Total Selected Count Rate Near Detector (TDT-like)
VXGA  .V/V                           :16      Volume of Gas in Flushed Zone 
WPRE  .PSI                           :17      Well Pressure                 
WTEP  .DEGF                          :18      Well Temperature              
~Ascii Data Section
# ...
  10285.00000       0.00000      52.15070     317.37491       0.30066    -999.25000    -999.25000      91.11896     125.42519      31.89769      29.21778       0.90573       1.00000       0.25893     788.83856    1734.08203       0.00000    5679.62695     192.66771 
  10285.50000       0.00000      50.93659     320.30975       0.29682    -999.25000    -999.25000      88.73753     128.28500      31.24641      29.08763       0.85077       1.00000       0.25926     813.84070    1764.65967       0.00000    5679.79541     192.66673 
  10286.00000       0.00000      49.20265     312.92493       0.29263    -999.25000    -999.25000      89.39748     129.96027      31.62896      28.83655       0.98343       1.00000       0.26427     819.93085    1755.99109       0.00000    5679.76953     192.64067 
  10286.50000       0.00000      48.56167     306.38910       0.29646    -999.25000    -999.25000      90.41890     129.69368      32.85480      29.31913       0.95147       1.00000       0.26663     782.58447    1683.53796       0.00000    5679.98584     192.60832 
  10287.00000       0.00000      49.89619     303.37335       0.31162    -999.25000    -999.25000      91.19555     133.58055      33.16277      29.27512       0.93144       1.00000       0.26612     749.02454    1662.03015       0.00000    5680.16650     192.58722 
  10287.50000       0.00000      50.60045     302.53986       0.30383    -999.25000    -999.25000      88.14945     135.91638      32.71176      29.01958       0.93251       1.00000       0.26855     775.47583    1684.25598       0.00000    5680.19482     192.57104 
  10288.00000       0.00000      52.50801     309.30383       0.29827    -999.25000    -999.25000      91.67429     134.93198      31.60327      28.87142       0.91701       1.00000       0.26932     793.38507    1705.04907       0.00000    5680.36914     192.56789 
  10288.50000       0.00000      53.90028     313.40448       0.29866    -999.25000    -999.25000      93.52451     133.59631      31.07480      28.69209       0.85215       1.00000       0.26619     799.13617    1727.17957       0.00000    5680.49121     192.54796 
  10289.00000       0.00000      53.26217     320.41425       0.29605    -999.25000    -999.25000      92.70410     134.07628      31.35663      28.31169       0.85728       1.00000       0.26147     837.56927    1805.83813       0.00000    5680.57031     192.51895 
  10289.50000       0.00000      55.43103     320.12473       0.28800    -999.25000    -999.25000      90.22172     132.69853      31.78001      27.98120       0.92722       1.00000       0.25600     856.47638    1818.46533       0.00000    5680.71533     192.48381 
  10290.00000       0.00000      55.49543     319.68619       0.27150    -999.25000    -999.25000      91.93105     128.23788      31.34585      27.93637       0.97351       1.00000       0.24676     899.20660    1842.98975       0.00000    5680.83350     192.45999 
  10290.50000       0.00000      52.77655     322.26202       0.23166    -999.25000    -999.25000      91.76456     125.79175      30.29033      27.24531       0.93179       1.00000       0.22876     986.70483    1973.53503       0.00000    5681.00586     192.43916 
  10291.00000       0.00000      50.60681     321.84564       0.25228    -999.25000    -999.25000      88.82797     123.28991      28.89899      26.41100       0.80488       1.00000       0.21513    1070.47729    2143.11084       0.00000    5681.13916     192.42470 
  10291.50000       0.00000      49.54896     322.76852       0.24523    -999.25000    -999.25000      90.52907     122.81864      28.36015      25.71432       0.78477       1.00000       0.21306    1103.32483    2178.70898       0.00000    5681.35059     192.41377 
  10292.00000       0.00000      46.88405     316.01608       0.25304    -999.25000    -999.25000      88.85987     126.66676      28.38853      26.34253       0.77039       1.00000       0.22498    1056.88708    2104.61743       0.00000    5681.41113     192.40836 
  10292.50000       0.00000      45.90532     308.11041       0.26166    -999.25000    -999.25000      90.29343     130.09012      29.57381      26.00039       0.86245       1.00000       0.23930    1020.55927    2074.17529       0.00000    5681.54102     192.40378 
  10293.00000       0.00000      48.03264     302.07938       0.26882    -999.25000    -999.25000      94.51484     130.86340      30.04535      25.71152       0.89819       1.00000       0.24687     972.37787    2013.33545       0.00000    5681.70947     192.40002 
  10293.50000       0.00000      49.94103     300.20148       0.27718    -999.25000    -999.25000      89.08349     132.24437      30.15203      26.02353       0.98142       1.00000       0.24915     922.72113    1940.12720       0.00000    5681.76758     192.39758 
  10294.00000       0.00000      50.11636     294.75241       0.28380    -999.25000    -999.25000      87.37796     131.45990      29.37501      26.97561       0.93136       1.00000       0.25645     906.62097    1928.68152       0.00000    5681.84961     192.39906 
  10294.50000       0.00000      50.21827     299.97845       0.29139    -999.25000    -999.25000      87.27136     126.38158      29.66888      27.13436       0.82639       1.00000       0.27888     898.60004    1966.94458       0.00000    5681.96924     192.40094 
  10295.00000       0.00000      52.18110     287.45654       0.30004    -999.25000    -999.25000      85.22138     124.56745      29.81011      28.02229       0.59124       1.00000       0.30579     903.56287    2019.29663       0.00000    5682.12646     192.40419 
  10295.50000       0.00000      50.31007     290.38693       0.29106    -999.25000    -999.25000      83.63728     121.38806      29.85231      27.75600       0.68842       1.00000       0.31653     998.37042    2207.92993       0.00000    5682.23145     192.40938 
  10296.00000       0.04729      47.42487     284.99368       0.28505    -999.25000    -999.25000      82.75922     117.89785      28.15702      25.41276       0.85238       0.95738       0.30468    1172.41187    2628.05957       0.00529    5682.35693     192.42339 
  10296.50000       0.12956      43.24673     290.63559       0.26332    -999.25000    -999.25000      81.37164     115.32237      25.16771      22.71671       0.91919       0.88033       0.28384    1473.33252    3203.97827       0.01778    5682.40869     192.44620 
  10297.00000       0.09795      38.24241     303.78897       0.24937    -999.25000    -999.25000      80.79329     116.26662      22.42240      21.15405       0.89158       0.90750       0.26012    1810.07178    3845.94141       0.01406    5682.72803     192.47774 
  10297.50000       0.04551      30.97538     312.25143       0.24961    -999.25000    -999.25000      85.18251     118.20886      20.61887      20.45274       0.84961       0.95683       0.24845    2072.64258    4428.69482       0.00629    5682.77344     192.51935 
  10298.00000       0.06965      27.03452     323.64111       0.24521    -999.25000    -999.25000      87.78571     118.36463      20.08080      19.58807       0.81799       0.93432       0.24048    2294.09546    4868.15918       0.00907    5682.91016     192.56995 
  10298.50000       0.16401      25.47831     325.76315       0.24275    -999.25000    -999.25000      86.65295     116.78930      19.99804      19.26723       0.82623       0.84785       0.24364    2393.28857    5066.20996       0.02060    5683.04004     192.63185 
  10299.00000       0.26032      26.08179     335.42569       0.23588    -999.25000    -999.25000      80.66154     114.55441      19.81043      19.20665       0.83296       0.75762       0.24399    2442.22534    5106.10156       0.03572    5683.16016     192.70764 
  10299.50000       0.29538      26.59856     336.46704       0.23720    -999.25000    -999.25000      81.21049     111.42361      19.79286      19.22312       0.84055       0.72299       0.24475    2415.35449    5082.75439       0.04442    5683.37012     192.78268 
