~Version Information
VERS  .          2.0                              :CWLS Log Ascii Standard - Version 2.0
WRAP  .          NO                               :One line per depth step
~Well Information Block
#MNEM.UNIT       Data Type                        Information
#---------       ---------                        -------------------------------
STRT  .F         9700.00000                       :START DEPTH
STOP  .F         10647.00000                      :STOP DEPTH
STEP  .F          0.50000                         :INCREMENT
NULL  .          -999.25                          :NULL DATA VALUE
COMP  .          DENBURY ONSHORE, LLC             :COMPANY
WELL  .          CFU 31F #1                       :WELL
FLD   .          CRANFIELD FIELD UNIT             :FIELD
LOC   .                                           :LOCATION
PROV  .                                           :PROVINCE
STAT  .                                           :STATE
CNTY  .                                           :COUNTY
CTRY  .                                           :COUNTRY
DATE  .                                           :DATE
UWI   .          CFU 31F #1                       :UNIQUE WELL UWI
LIC   .                                           :LICENSE NUMBER
API   .          23-037-21488-0000                :API NUMBER
SRVC  .                                           :SERVICE COMPANY
~Parameter Information Block
#MNEM.UNIT       Value                            Description
#---------       ---------                        -------------
PDAT  .          GROUND LEVEL                     :Permanent Datum               
EPD   .ft        315.70                           :Elevation of Permanent Datum (PDAT) above Mean Sea Level
LMF   .          KELLY BUSHING                    :Logging Measured From (Name of Working Datum)
APD   .ft        18.00                            :Elevation of Working Datum (LMF) Above Permanent Datum
EDF   .ft        332.70                           :Elevation of Derrick Floor Above Mean Sea Level
EGL   .ft        315.70                           :Elevation of Ground Level Above Mean Sea Level
EKB   .ft        333.70                           :Elevation of Kelly Bushing Above Mean Sea Level
~Curve Information Block
#MNEM.UNIT       API Code            Curve    Description
#--------        --------------      -----    -------------------
DEPT  .F                             :0       Index
AT10  .OHMM                          :1       Array Induction Two Foot Resistivity A10
AT20  .OHMM                          :2       Array Induction Two Foot Resistivity A20
AT30  .OHMM                          :3       Array Induction Two Foot Resistivity A30
AT60  .OHMM                          :4       Array Induction Two Foot Resistivity A60
AT90  .OHMM                          :5       Array Induction Two Foot Resistivity A90
BS    .IN                            :6       Bit Size                      
DT    .US/F                          :7       Delta-T (also called Slowness or Interval Transit Time)
GR    .GAPI                          :8       Gamma Ray                     
HCAL  .IN                            :9       HRCC Caliper Calibrated       
HTNP  .V/V                           :10      High Resolution Thermal Neutron Porosity (Ratio Method) in Sand Lithology
KINT  .MD                            :11      Intrinsic Permeability        
PHIT  .V/V                           :12      Total Porosity_ includes all forms of porosity, including that occupied by bound fluids, and is independent of rock and fluid materials and of environmental effects
PIGN  .V/V                           :13      Effective Porosity, VISO, VPAR, and Bound Water Removed
SUWI  .V/V                           :14      Non-Clay Water Intergranular Water Saturation for Undisturbed Zone
VCHL  .V/V                           :15      Volume of Chlorite Relative to Total Volume
VCLC  .V/V                           :16      Volume of Calcite Relative to Total Volume
VILL  .V/V                           :17      Volume of Illite (dry) Relative to Total Volume
VKAO  .V/V                           :18      Volume of Kaolinite (dry) Relative to Total Volume
VQUA  .V/V                           :19      Volume of Quartz Relative to Total Volume
VUIW  .V/V                           :20      Volume of Irreducible Water In Undisturbed Zone
VUWA  .V/V                           :21      Volume of Water in Undisturbed Zone
VXBW  .V/V                           :22      Volume of Bound Water in Flushed Zone
~Ascii Data Section
# ...
  10350.00000       1.61635       1.99679       2.06629       2.23031       2.32629       8.75000      86.18423     157.82416      11.86107       0.41619       0.01000       0.19350       0.13423       1.00000       0.00000       0.00000       0.51459       0.06286       0.22904       0.13423       0.00000       0.05927 
  10350.50000       1.66970       1.95174       2.08421       2.23664       2.31062       8.75000      89.26550     151.38982      12.10125       0.44473       0.01000       0.21658       0.15672       1.00000       0.00000       0.00000       0.52911       0.04698       0.20733       0.15672       0.00000       0.05986 
  10351.00000       1.88338       2.22262       2.40031       2.55826       2.64492       8.75000      90.63219     144.71394      11.80388       0.42687       0.01000       0.21620       0.15849       1.00000       0.00000       0.00000       0.51180       0.04230       0.22971       0.15849       0.00000       0.05770 
  10351.50000       2.08372       2.58259       2.83526       3.07176       3.19535       8.75000      87.36246     134.07855      11.52939       0.38174       0.01000       0.18844       0.13620       1.00000       0.00731       0.00000       0.44514       0.05685       0.30226       0.13620       0.00000       0.05224 
  10352.00000       2.31790       2.97074       3.23545       3.37990       3.70912       8.75000      83.25754     127.68799      11.41502       0.34528       0.01000       0.16190       0.11376       1.00000       0.02317       0.00000       0.38604       0.06453       0.36436       0.11376       0.00000       0.04814 
  10352.50000       2.20545       2.86001       3.01515       3.27025       3.33288       8.75000      77.39398     123.97535      11.26634       0.33022       0.01000       0.12653       0.08116       1.00000       0.04299       0.00000       0.31942       0.09984       0.41121       0.08116       0.00000       0.04537 
  10353.00000       2.08964       2.54031       2.69141       2.85862       2.90146       8.75000      76.78181     117.36655      11.27778       0.32219       0.01000       0.12295       0.07983       1.00000       0.05316       0.00000       0.28331       0.10790       0.43268       0.07492       0.00492       0.04312 
  10353.50000       1.95518       2.30551       2.39885       2.57951       2.56964       8.75000      79.08697     121.89661      11.54085       0.32116       0.01000       0.13258       0.08674       1.00000       0.04554       0.00000       0.32177       0.09879       0.40132       0.08674       0.00000       0.04584 
  10354.00000       2.01030       2.25622       2.34791       2.45608       2.44071       8.75000      80.24344     114.59781      11.66663       0.32387       0.01000       0.13781       0.09287       1.00000       0.04969       0.00000       0.31042       0.09633       0.40574       0.09287       0.00000       0.04493 
  10354.50000       2.13363       2.40112       2.44748       2.53438       2.48777       8.75000      81.15888     119.36118      11.55223       0.32739       0.01000       0.13967       0.09149       1.00000       0.04489       0.00000       0.35339       0.08277       0.37927       0.09149       0.00000       0.04819 
  10355.00000       2.18859       2.54127       2.64020       2.72207       2.66975       8.75000      79.34399     116.60358      10.47716       0.32912       0.01000       0.13021       0.08379       1.00000       0.05503       0.00000       0.32261       0.08943       0.40271       0.08379       0.00000       0.04642 
  10355.50000       2.22117       2.61283       2.68273       2.72782       2.70203       8.75000      77.48756     122.13126      10.29417       0.32376       0.01000       0.12130       0.07534       1.00000       0.05376       0.00000       0.31449       0.09841       0.41204       0.07534       0.00000       0.04596 
  10356.00000       2.30175       2.65815       2.69789       2.73519       2.67085       8.75000      75.62759     120.43155      10.06542       0.31172       0.01000       0.10458       0.06031       1.00000       0.05856       0.00000       0.28096       0.12097       0.43492       0.05605       0.00426       0.04428 
  10356.50000       2.43605       2.64291       2.68561       2.71402       2.66440       8.75000      72.77786     116.51328      10.29417       0.30625       0.01000       0.07741       0.03326       1.00000       0.06561       0.00000       0.25828       0.14577       0.45293       0.02801       0.00525       0.04415 
  10357.00000       2.32161       2.55154       2.52347       2.52990       2.44477       8.75000      70.53159     102.43558       9.65367       0.27505       0.01000       0.05905       0.01922       1.00000       0.08248       0.00000       0.20750       0.13345       0.51753       0.01241       0.00682       0.03982 
  10357.50000       2.39021       2.57770       2.65755       2.64521       2.57632       8.75000      69.09272      94.84670       9.49356       0.23516       0.01000       0.05445       0.01834       1.00000       0.08998       0.00000       0.18435       0.09999       0.57124       0.01039       0.00795       0.03611 
  10358.00000       2.87874       3.19022       3.23448       3.15293       3.02862       8.75000      69.11678      88.75519       9.58506       0.19847       0.01000       0.05795       0.02494       1.00000       0.09502       0.00000       0.16729       0.07016       0.60958       0.01269       0.01225       0.03301 
  10358.50000       3.89142       4.38104       4.33976       4.28140       4.01444       8.75000      68.25130     102.83289       9.47069       0.19867       0.01000       0.05323       0.01626       1.00000       0.08951       0.00000       0.20794       0.07349       0.57584       0.01073       0.00553       0.03697 
  10359.00000       3.73443       4.58340       4.56201       4.52879       4.14713       8.75000      70.34904     102.86803       9.51644       0.22989       0.01000       0.06944       0.02892       1.00000       0.08130       0.06203       0.25917       0.05666       0.47139       0.02532       0.00359       0.04053 
  10359.50000       3.63600       4.05087       4.16755       4.18919       3.84187       8.75000      70.62025     110.37537       9.58506       0.26316       0.01000       0.07436       0.03038       1.00000       0.05815       0.17905       0.30271       0.07887       0.30685       0.03038       0.00000       0.04398 
  10360.00000       3.60719       3.77380       3.90646       4.06369       3.54098       8.75000      73.17205     101.99590       9.90530       0.27335       0.01000       0.08477       0.03928       1.00000       0.06246       0.18300       0.31697       0.07063       0.28216       0.03928       0.00000       0.04549 
  10360.50000       3.98091       3.90934       4.08041       4.19875       3.74338       8.75000      72.20767     109.75817       9.95103       0.25239       0.01000       0.07237       0.02515       1.00000       0.05984       0.16381       0.33341       0.07477       0.29580       0.02515       0.00000       0.04722 
  10361.00000       4.35792       4.64086       4.87040       4.79582       4.41426       8.75000      73.14751     109.53446       9.42494       0.23438       0.01000       0.06718       0.01798       1.00000       0.07997       0.04980       0.34421       0.05129       0.40756       0.01798       0.00000       0.04920 
  10361.50000       5.12749       6.03556       6.38094       5.86293       5.68223       8.75000      72.61369     107.86728       9.61937       0.22917       0.01000       0.06272       0.01334       1.00000       0.08739       0.00000       0.34883       0.03258       0.46848       0.01334       0.00000       0.04938 
  10362.00000       5.37270       7.39344       7.56813       7.33855       6.63059       8.75000      71.01354     100.15141       9.44780       0.21482       0.01000       0.05984       0.01513       1.00000       0.09318       0.00000       0.30821       0.01710       0.52169       0.01513       0.00000       0.04470 
