~Version Information
VERS  .          2.0                              :CWLS Log Ascii Standard - Version 2.0
WRAP  .          NO                               :One line per depth step
~Well Information Block
#MNEM.UNIT       Data Type                        Information
#---------       ---------                        -------------------------------
STRT  .F         9700.00000                       :START DEPTH
STOP  .F         10600.00000                      :STOP DEPTH
STEP  .F          0.50000                         :INCREMENT
NULL  .          -999.25                          :NULL DATA VALUE
COMP  .          DENBURY ONSHORE, LLC             :COMPANY
WELL  .          CFU 31F #1                       :WELL
FLD   .          CRANFIELD FIELD UNIT             :FIELD
LOC   .                                           :LOCATION
PROV  .                                           :PROVINCE
STAT  .                                           :STATE
CNTY  .                                           :COUNTY
CTRY  .                                           :COUNTRY
DATE  .                                           :DATE
UWI   .          CFU 31F #1                       :UNIQUE WELL UWI
LIC   .                                           :LICENSE NUMBER
API   .          23-037-21488-0000                :API NUMBER
SRVC  .                                           :SERVICE COMPANY
~Parameter Information Block
#MNEM.UNIT       Value                            Description
#---------       ---------                        -------------
PDAT  .          GROUND LEVEL                     :Permanent Datum               
EPD   .ft        315.70                           :Elevation of Permanent Datum (PDAT) above Mean Sea Level
LMF   .          KELLY BUSHING                    :Logging Measured From (Name of Working Datum)
APD   .ft        18.00                            :Elevation of Working Datum (LMF) Above Permanent Datum
EDF   .ft        332.70                           :Elevation of Derrick Floor Above Mean Sea Level
EGL   .ft        315.70                           :Elevation of Ground Level Above Mean Sea Level
EKB   .ft        333.70                           :Elevation of Kelly Bushing Above Mean Sea Level
~Curve Information Block
#MNEM.UNIT       API Code            Curve    Description
#--------        --------------      -----    -------------------
DEPT  .F                             :0       Index
SXGA  .                              :1       CO2 Saturation
GR    .GAPI                          :2       Gamma Ray                     
INFD_TDTL.CPS                        :3       Gross Inelastic Count Rate Far Detector (TDT-like)
PHIC  .V/V                           :4       TDT Count Rate Porosity       
SBNA  .CU                            :5       RST Sigma Borehole Near Apparent
SIBH_TDTL.CU                         :6       Sigma Borehole Corrected (TDT-like)
SIGM  .CU                            :7       Formation Sigma (Neutron Capture Cross Section)
SIGM_TDTL.CU                         :8       Formation Sigma (Neutron Capture Cros Section) (TDT-like)
SXWI  .V/V                           :9       Non-Clay Water Intergranular Water Saturation for the Flushed Zone
TPHI  .V/V                           :10      Thermal Decay Porosity        
TSCF_TDTL.CPS                        :11      Total Selected Count Rate Far Detector (TDT-like)
TSCN_TDTL.CPS                        :12      Total Selected Count Rate Near Detector (TDT-like)
VXGA  .V/V                           :13      Volume of Gas in Flushed Zone 
WPRE  .PSI                           :14      Well Pressure                 
WTEP  .DEGF                          :15      Well Temperature              
~Ascii Data Section
# ...
   9880.00000       0.00000      65.36041     249.08330       0.34704      92.84956     144.72581      32.23688      29.56337       1.00000       0.32405     715.99310    1689.42029       0.00000    4439.94824     251.57573 
   9880.50000       0.00000      62.18208     257.87796       0.34724      95.29084     142.32611      32.65535      29.64301       1.00000       0.33242     735.39471    1746.33545       0.00000    4440.20654     251.58575 
   9881.00000       0.00000      59.04639     262.99930       0.35743      93.05079     136.56610      32.93837      30.32232       1.00000       0.34512     725.08002    1775.17126       0.00000    4440.42139     251.58678 
   9881.50000       0.00000      58.59057     267.36594       0.35236      90.11614     132.58516      32.96278      30.52330       1.00000       0.33848     766.47906    1872.62390       0.00000    4440.66016     251.59758 
   9882.00000       0.00000      57.38460     271.89200       0.34312      84.23315     127.34833      32.52770      30.28023       1.00000       0.32477     816.66980    1983.02954       0.00000    4440.85254     251.60780 
   9882.50000       0.00000      57.79128     298.78333       0.33000      84.11586     124.30690      31.88333      30.14911       1.00000       0.30693     869.79663    2065.56567       0.00000    4441.15088     251.61703 
   9883.00000       0.00000      57.78329     315.90408       0.32484      82.62507     122.40837      31.34137      29.63140       1.00000       0.30540     898.12579    2125.73804       0.00000    4441.38770     251.62402 
   9883.50000       0.00000      59.09344     318.65616       0.33083      81.93207     122.57301      31.69548      29.52910       1.00000       0.31188     898.62555    2160.43604       0.00000    4441.51611     251.63026 
   9884.00000       0.00000      58.31140     308.36349       0.34170      83.61155     124.31950      33.29228      30.19184       1.00000       0.32852     859.93872    2101.49170       0.00000    4441.79639     251.64331 
   9884.50000       0.00000      59.67699     290.33096       0.35868      81.97293     128.94716      34.27293      30.86084       1.00000       0.34942     786.28198    1963.31738       0.00000    4441.99023     251.65440 
   9885.00000       0.00000      58.14427     266.45645       0.37429      86.57642     132.82050      34.91650      31.25916       1.00000       0.36705     724.59216    1847.94092       0.00000    4442.28223     251.66125 
   9885.50000       0.00000      60.86991     257.43466       0.38456      93.62533     134.64311      34.31371      31.47211       1.00000       0.37335     690.37579    1788.22888       0.00000    4442.48828     251.66859 
   9886.00000       0.00000      65.29667     267.29028       0.37814      91.50114     136.18279      33.87871      31.59875       1.00000       0.36956     683.55457    1737.00964       0.00000    4442.70166     251.67754 
   9886.50000       0.00000      69.33161     282.53595       0.37023      87.91808     136.91350      33.92348      31.18210       1.00000       0.35410     691.03900    1727.38123       0.00000    4442.89648     251.68700 
   9887.00000       0.00000      68.35658     283.09900       0.35579      86.75523     132.72607      33.54207      31.01415       1.00000       0.34149     718.99768    1758.12085       0.00000    4443.17090     251.69649 
   9887.50000       0.00000      68.11851     280.05811       0.34579      89.14116     128.30965      33.60575      30.65480       1.00000       0.33274     739.20563    1788.26282       0.00000    4443.41455     251.70593 
   9888.00000       0.00000      67.62524     273.58090       0.33787      86.47186     128.12883      33.37316      30.48359       1.00000       0.33532     753.47638    1792.24915       0.00000    4443.65723     251.71591 
   9888.50000       0.00000      63.80742     267.40744       0.33554      84.50778     127.83402      33.27513      30.00533       1.00000       0.34794     755.44598    1793.96411       0.00000    4443.87988     251.72539 
   9889.00000       0.00000      59.96011     249.08003       0.33292      88.56613     126.14562      32.95358      30.30511       1.00000       0.36459     747.15509    1764.13086       0.00000    4444.07764     251.73843 
   9889.50000       0.00000      59.63663     236.37715       0.34185      87.13065     126.41613      32.43140      30.24519       1.00000       0.38916     720.13928    1734.26758       0.00000    4444.33350     251.75011 
   9890.00000       0.00000      58.75135     224.97246       0.35724      87.20621     129.17363      32.89127      30.37168       1.00000       0.41267     680.63776    1683.84058       0.00000    4444.56250     251.75804 
   9890.50000       0.00000      56.56825     217.46471       0.36515      86.40093     128.99217      33.70905      30.75293       1.00000       0.42390     648.16998    1625.88904       0.00000    4444.80420     251.76534 
   9891.00000       0.00000      54.78716     223.17279       0.36337      87.20546     130.54446      34.52118      31.25568       1.00000       0.41665     642.19659    1593.49548       0.00000    4445.00342     251.76933 
   9891.50000       0.00000      56.60646     240.21632       0.36371      90.04128     130.72935      34.65348      31.02495       1.00000       0.39305     641.77899    1595.35315       0.00000    4445.24023     251.77246 
   9892.00000       0.00000      57.86684     268.16965       0.35746      88.85766     130.83177      34.38354      31.22740       1.00000       0.37540     648.43365    1586.79773       0.00000    4445.42578     251.78078 
   9892.50000       0.00000      59.36715     279.16330       0.34723      86.98046     130.39534      34.32184      31.08327       1.00000       0.36806     666.51514    1596.73218       0.00000    4445.64795     251.78598 
   9893.00000       0.00000      58.58226     273.88342       0.35127      87.16526     129.02315      34.29157      31.35636       1.00000       0.37253     655.34875    1585.60608       0.00000    4445.93359     251.78641 
   9893.50000       0.00000      59.60694     268.35785       0.35996      88.04369     126.51251      34.65848      31.81079       1.00000       0.37902     625.01465    1543.38672       0.00000    4446.20068     251.79196 
   9894.00000       0.00000      58.55347     271.03122       0.36285      85.84674     127.05761      34.96527      32.57495       1.00000       0.38571     604.90234    1491.56409       0.00000    4446.41162     251.79646 
   9894.50000       0.00000      59.44781     276.14624       0.36206      84.77518     129.27959      35.37189      32.43061       1.00000       0.38006     600.74939    1472.39136       0.00000    4446.67432     251.80307 
   9895.00000       0.00000      59.57794     284.25424       0.34559      86.13634     127.71394      35.45564      32.15450       1.00000       0.36367     624.93262    1481.95947       0.00000    4446.86865     251.80476 
   9895.50000       0.00000      60.26982     283.05075       0.28483      89.01529     130.32591      34.49831      30.61558       1.00000       0.33047     705.62372    1557.89050       0.00000    4447.11035     251.81161 
   9896.00000       0.00000      59.87227     279.83047       0.26278      84.34774     134.00082      33.02254      29.65033       1.00000       0.30168     766.93182    1623.22791       0.00000    4447.37402     251.80972 
   9896.50000       0.00000      60.43250     276.52457       0.28519      89.88444     132.30585      31.82533      28.98406       1.00000       0.28333     788.62616    1659.48022       0.00000    4447.57422     251.81744 
   9897.00000       0.00000      60.52132     280.22281       0.29538      91.02266     133.91725      31.95934      29.01161       1.00000       0.29402     781.71643    1666.76611       0.00000    4447.83057     251.82430 
   9897.50000       0.00000      60.51596     280.93701       0.31135      90.78582     139.32263      32.49391      29.45704       1.00000       0.32237     729.08704    1592.97058       0.00000    4448.09863     251.83037 
