~Version Information
VERS  .          2.0                              :CWLS Log Ascii Standard - Version 2.0
WRAP  .          NO                               :One line per depth step
~Well Information Block
#MNEM.UNIT       Data Type                        Information
#---------       ---------                        -------------------------------
STRT  .F         9700.00000                       :START DEPTH
STOP  .F         10600.00000                      :STOP DEPTH
STEP  .F          0.50000                         :INCREMENT
NULL  .          -999.25                          :NULL DATA VALUE
COMP  .          DENBURY ONSHORE, LLC             :COMPANY
WELL  .          CFU 31F #1                       :WELL
FLD   .          CRANFIELD FIELD UNIT             :FIELD
LOC   .                                           :LOCATION
PROV  .                                           :PROVINCE
STAT  .                                           :STATE
CNTY  .                                           :COUNTY
CTRY  .                                           :COUNTRY
DATE  .                                           :DATE
UWI   .          CFU 31F #1                       :UNIQUE WELL UWI
LIC   .                                           :LICENSE NUMBER
API   .          23-037-21488-0000                :API NUMBER
SRVC  .                                           :SERVICE COMPANY
~Parameter Information Block
#MNEM.UNIT       Value                            Description
#---------       ---------                        -------------
PDAT  .          GROUND LEVEL                     :Permanent Datum               
EPD   .ft        315.70                           :Elevation of Permanent Datum (PDAT) above Mean Sea Level
LMF   .          KELLY BUSHING                    :Logging Measured From (Name of Working Datum)
APD   .ft        18.00                            :Elevation of Working Datum (LMF) Above Permanent Datum
EDF   .ft        332.70                           :Elevation of Derrick Floor Above Mean Sea Level
EGL   .ft        315.70                           :Elevation of Ground Level Above Mean Sea Level
EKB   .ft        333.70                           :Elevation of Kelly Bushing Above Mean Sea Level
~Curve Information Block
#MNEM.UNIT       API Code            Curve    Description
#--------        --------------      -----    -------------------
DEPT  .F                             :0       Index
SXGA  .                              :1       CO2 Saturation
GR    .GAPI                          :2       Gamma Ray                     
INFD_TDTL.CPS                        :3       Gross Inelastic Count Rate Far Detector (TDT-like)
PHIC  .V/V                           :4       TDT Count Rate Porosity       
SBNA  .CU                            :5       RST Sigma Borehole Near Apparent
SIBH_TDTL.CU                         :6       Sigma Borehole Corrected (TDT-like)
SIGM  .CU                            :7       Formation Sigma (Neutron Capture Cross Section)
SIGM_TDTL.CU                         :8       Formation Sigma (Neutron Capture Cros Section) (TDT-like)
SXWI  .V/V                           :9       Non-Clay Water Intergranular Water Saturation for the Flushed Zone
TPHI  .V/V                           :10      Thermal Decay Porosity        
TSCF_TDTL.CPS                        :11      Total Selected Count Rate Far Detector (TDT-like)
TSCN_TDTL.CPS                        :12      Total Selected Count Rate Near Detector (TDT-like)
VXGA  .V/V                           :13      Volume of Gas in Flushed Zone 
WPRE  .PSI                           :14      Well Pressure                 
WTEP  .DEGF                          :15      Well Temperature              
~Ascii Data Section
# ...
   9754.00000       0.00000      55.68928     244.17548       0.32913      86.33458     127.95810      31.11335      29.23664       1.00000       0.36739     804.34045    1895.85107       0.00000    4381.38574     249.78218 
   9754.50000       0.00000      56.20895     243.08867       0.32923      83.91518     127.23298      31.40906      29.24716       1.00000       0.37010     800.98724    1890.59509       0.00000    4381.58203     249.76147 
   9755.00000       0.00000      57.77228     243.22911       0.33023      83.62559     127.16926      31.67509      29.02551       1.00000       0.36930     801.69806    1899.83386       0.00000    4381.91162     249.77100 
   9755.50000       0.00000      59.15084     250.03549       0.32923      86.23759     126.71013      31.48416      28.64037       1.00000       0.36625     808.54755    1918.22607       0.00000    4382.12793     249.78374 
   9756.00000       0.00000      59.69905     258.01138       0.32589      84.08103     127.35641      31.11332      27.99431       1.00000       0.35873     829.41266    1958.75623       0.00000    4382.41602     249.79710 
   9756.50000       0.00000      59.98634     263.89609       0.32213      85.81387     128.04926      30.46863      27.05141       1.00000       0.34673     862.18347    2027.73059       0.00000    4382.64258     249.80945 
   9757.00000       0.00000      59.04303     267.82269       0.31554      87.85340     129.17552      30.05881      26.21588       1.00000       0.33230     907.86688    2110.81323       0.00000    4382.87891     249.81691 
   9757.50000       0.00000      56.93697     270.43698       0.31357      87.32147     130.80772      29.62251      25.99606       1.00000       0.32479     933.62225    2159.66821       0.00000    4383.08789     249.82417 
   9758.00000       0.00000      55.44323     270.47974       0.31077      87.26961     130.65688      29.57945      26.24580       1.00000       0.32712     941.81757    2163.97461       0.00000    4383.31543     249.83449 
   9758.50000       0.00000      54.37517     271.23038       0.31153      87.86658     129.70178      29.94321      26.65478       1.00000       0.33628     933.99805    2148.86743       0.00000    4383.58984     249.84830 
   9759.00000       0.00000      54.75697     272.55344       0.32024      86.13510     128.31267      30.47650      27.42247       1.00000       0.34599     897.90149    2103.44312       0.00000    4383.81445     249.86337 
   9759.50000       0.00000      54.85117     271.04883       0.33026      84.92688     126.91225      30.87973      28.18229       1.00000       0.35462     853.59155    2040.14160       0.00000    4384.04834     249.87668 
   9760.00000       0.00000      54.04691     265.55505       0.33555      84.16689     125.24521      30.97954      28.60707       1.00000       0.36230     821.92712    1988.23364       0.00000    4384.31055     249.88895 
   9760.50000       0.00000      53.56455     260.93726       0.33743      85.90268     123.91640      31.17294      28.61094       1.00000       0.36716     812.52753    1977.59692       0.00000    4384.54199     249.89793 
   9761.00000       0.00000      55.22245     259.99930       0.34611      85.68652     124.69949      31.05513      28.51164       1.00000       0.37172     796.76263    1974.94067       0.00000    4384.74902     249.90814 
   9761.50000       0.00000      55.90018     263.84714       0.35095      82.77681     126.89694      31.05735      28.47068       1.00000       0.37377     788.21399    1966.01770       0.00000    4384.98242     249.92160 
   9762.00000       0.00000      56.65596     267.23776       0.34736      84.38050     127.24109      31.07566      28.60096       1.00000       0.37534     787.89233    1946.26013       0.00000    4385.17920     249.93396 
   9762.50000       0.00000      59.14154     267.83856       0.34232      87.63563     128.99835      31.38347      28.72663       1.00000       0.37147     793.67133    1931.32117       0.00000    4385.45215     249.94554 
   9763.00000       0.00000      62.19259     263.74588       0.34331      87.99153     131.87544      31.60555      28.93052       1.00000       0.36438     783.38049    1896.41760       0.00000    4385.71680     249.95290 
   9763.50000       0.00000      63.34119     258.50046       0.70986      86.69186     131.85487      31.86161      29.81287       1.00000       0.41656     519.91559    1545.77124       0.00000    4385.91162     249.96080 
   9764.00000       0.00000      63.90530     178.40283       1.20280      85.21397     131.09700      32.30139      31.36082       1.00000       0.55291     181.39195    1127.93384       0.00000    4386.16162     249.97145 
   9764.50000       0.00000      64.30890      70.59708       1.23430      84.08727     129.91283      32.70911      33.17139       1.00000       0.69342     174.35565    1115.72729       0.00000    4386.39111     249.98039 
   9765.00000       0.00000      63.54447    -999.25000       0.82671    -999.25000    -999.25000      32.87098    -999.25000       1.00000       0.77487     417.05276    1342.73376       0.00000    4386.60205     249.98746 
   9765.50000       0.00000      62.06713    -999.25000       0.26863    -999.25000    -999.25000      32.77711    -999.25000       1.00000       0.58389     487.84436    1414.81763       0.00000    4386.84961     249.99471 
   9766.00000       0.00000      61.09203    -999.25000       0.26863    -999.25000    -999.25000      32.80895    -999.25000       1.00000       0.33925     413.29904    1315.47644       0.00000    4387.09717     249.99948 
   9766.50000       0.00000      61.43254     274.31677       0.30509      87.84346     129.87947      32.77783      30.49591       1.00000       0.34018     707.44421    1620.69690       0.00000    4387.27197     250.00420 
   9767.00000       0.00000      62.78029     274.68774       0.33119      84.27071     124.98140      32.60482      29.18075       1.00000       0.32612     746.42334    1762.65674       0.00000    4387.50391     250.01001 
   9767.50000       0.00000      63.93354     277.26395       0.30546      85.90313     124.63901      31.87218      28.40809       1.00000       0.29741     832.83087    1873.84448       0.00000    4387.73291     250.01863 
   9768.00000       0.00000      63.21591     278.16049       0.29516      86.70578     123.97069      30.91425      27.59352       1.00000       0.26668     870.09686    1921.87024       0.00000    4387.94336     250.03125 
   9768.50000       0.00000      61.97123     274.88812       0.28184      89.28647     123.95846      30.46776      27.48967       1.00000       0.25766     897.87305    1919.00916       0.00000    4388.17188     250.03816 
   9769.00000       0.00000      60.42929     270.87021       0.28434      91.80514     126.91369      30.79723      27.76995       1.00000       0.27720     885.08173    1887.70227       0.00000    4388.44434     250.04207 
   9769.50000       0.00000      59.61229     255.98961       0.30446      86.51152     130.21416      31.61487      28.55806       1.00000       0.31177     813.62726    1797.09241       0.00000    4388.68164     250.05043 
   9770.00000       0.00000      59.53942     232.20174       0.32401      86.27605     129.30321      32.39757      29.55435       1.00000       0.34667     731.97198    1685.56641       0.00000    4388.89209     250.05983 
   9770.50000       0.00000      60.03030     211.31570       0.32694      87.14977     127.05710      33.09064      30.46843       1.00000       0.36827     703.38483    1625.22070       0.00000    4389.11768     250.06517 
   9771.00000       0.00000      61.12680     206.56720       0.32391      86.12827     129.11011      33.23214      30.41146       1.00000       0.37055     714.02917    1631.80884       0.00000    4389.32959     250.07246 
   9771.50000       0.00000      62.58287     224.82730       0.31358      87.72690     131.52911      32.63336      29.57877       1.00000       0.35338     749.80530    1674.60059       0.00000    4389.54199     250.08408 
