~Version Information
VERS  .          2.0                              :CWLS Log Ascii Standard - Version 2.0
WRAP  .          NO                               :One line per depth step
~Well Information Block
#MNEM.UNIT       Data Type                        Information
#---------       ---------                        -------------------------------
STRT  .F         9700.00000                       :START DEPTH
STOP  .F         10600.00000                      :STOP DEPTH
STEP  .F          0.50000                         :INCREMENT
NULL  .          -999.25                          :NULL DATA VALUE
COMP  .          DENBURY ONSHORE, LLC             :COMPANY
WELL  .          CFU 31F #1                       :WELL
FLD   .          CRANFIELD FIELD UNIT             :FIELD
LOC   .                                           :LOCATION
PROV  .                                           :PROVINCE
STAT  .                                           :STATE
CNTY  .                                           :COUNTY
CTRY  .                                           :COUNTRY
DATE  .                                           :DATE
UWI   .          CFU 31F #1                       :UNIQUE WELL UWI
LIC   .                                           :LICENSE NUMBER
API   .          23-037-21488-0000                :API NUMBER
SRVC  .                                           :SERVICE COMPANY
~Parameter Information Block
#MNEM.UNIT       Value                            Description
#---------       ---------                        -------------
PDAT  .          GROUND LEVEL                     :Permanent Datum               
EPD   .ft        315.70                           :Elevation of Permanent Datum (PDAT) above Mean Sea Level
LMF   .          KELLY BUSHING                    :Logging Measured From (Name of Working Datum)
APD   .ft        18.00                            :Elevation of Working Datum (LMF) Above Permanent Datum
EDF   .ft        332.70                           :Elevation of Derrick Floor Above Mean Sea Level
EGL   .ft        315.70                           :Elevation of Ground Level Above Mean Sea Level
EKB   .ft        333.70                           :Elevation of Kelly Bushing Above Mean Sea Level
~Curve Information Block
#MNEM.UNIT       API Code            Curve    Description
#--------        --------------      -----    -------------------
DEPT  .F                             :0       Index
SXGA  .                              :1       CO2 Saturation
GR    .GAPI                          :2       Gamma Ray                     
INFD_TDTL.CPS                        :3       Gross Inelastic Count Rate Far Detector (TDT-like)
PHIC  .V/V                           :4       TDT Count Rate Porosity       
SBNA  .CU                            :5       RST Sigma Borehole Near Apparent
SIBH_TDTL.CU                         :6       Sigma Borehole Corrected (TDT-like)
SIGM  .CU                            :7       Formation Sigma (Neutron Capture Cross Section)
SIGM_TDTL.CU                         :8       Formation Sigma (Neutron Capture Cros Section) (TDT-like)
SXWI  .V/V                           :9       Non-Clay Water Intergranular Water Saturation for the Flushed Zone
TPHI  .V/V                           :10      Thermal Decay Porosity        
TSCF_TDTL.CPS                        :11      Total Selected Count Rate Far Detector (TDT-like)
TSCN_TDTL.CPS                        :12      Total Selected Count Rate Near Detector (TDT-like)
VXGA  .V/V                           :13      Volume of Gas in Flushed Zone 
WPRE  .PSI                           :14      Well Pressure                 
WTEP  .DEGF                          :15      Well Temperature              
~Ascii Data Section
# ...
  10456.00000       0.00000      25.45947     368.45392       0.26965      70.55008      88.99065      26.21225      24.42736       1.00000       0.20248    1611.99243    3227.30835       0.00000    4710.97754     239.14577 
  10456.50000       0.00000      26.04621     366.41742       0.27701      76.32450      89.86297      26.07000      24.74187       1.00000       0.20003    1538.71252    3135.14453       0.00000    4711.19678     238.95090 
  10457.00000       0.00000      29.06522     367.31500       0.28084      68.93771      92.44155      26.20817      24.86709       1.00000       0.20268    1498.08362    3067.47290       0.00000    4711.47607     238.87364 
  10457.50000       0.00000      30.53205     370.33618       0.28065      73.09642      94.32396      26.90091      25.31626       1.00000       0.20628    1467.19604    2977.47632       0.00000    4711.69775     238.94469 
  10458.00000       0.00000      31.24681     374.28751       0.28448      78.02535      92.37109      27.53127      25.17837       1.00000       0.21200    1403.16614    2890.20020       0.00000    4711.96533     238.97537 
  10458.50000       0.00000      32.34111     374.06357       0.28394      76.90462      92.69436      27.95271      25.46637       1.00000       0.20931    1372.23059    2810.46777       0.00000    4712.14258     239.13298 
  10459.00000       0.00000      34.08406     378.78561       0.27995      73.87840      92.27085      27.90087      25.65884       1.00000       0.20193    1366.32935    2759.88257       0.00000    4712.43164     239.31308 
  10459.50000       0.00000      34.17034     386.17978       0.27623      71.33713      91.39085      27.98473      26.13787       1.00000       0.19246    1369.29126    2724.96558       0.00000    4712.70898     239.66528 
  10460.00000       0.00000      35.55572     384.30920       0.27296      75.53801      91.09359      27.89139      25.71214       1.00000       0.18476    1387.28516    2744.92358       0.00000    4712.87354     240.03285 
  10460.50000       0.00000      37.45446     382.51111       0.27357      79.02291      91.92365      27.99387      26.06110       1.00000       0.18346    1408.07446    2779.56616       0.00000    4713.16113     240.49442 
  10461.00000       0.00000      38.40359     368.80765       0.27867      78.07262      94.46493      28.12489      25.73933       1.00000       0.18484    1403.03235    2811.22217       0.00000    4713.33008     240.88618 
  10461.50000       0.00000      38.74873     370.12201       0.28412      75.57660      96.33879      28.05288      25.75676       1.00000       0.19340    1366.42065    2772.52295       0.00000    4713.66113     241.27904 
  10462.00000       0.00000      38.31730     351.70428       0.28571      78.99348      98.85408      28.72355      26.15864       1.00000       0.20079    1326.95374    2678.91650       0.00000    4713.86475     242.00111 
  10462.50000       0.00000      36.41422     338.01651       0.29969      81.33675     101.05047      29.19208      26.90585       1.00000       0.21300    1215.25354    2525.48901       0.00000    4714.10645     242.48828 
  10463.00000       0.00000      34.68640     323.75214       0.30196      80.49448     103.57816      30.51370      27.74323       1.00000       0.22422    1143.46936    2355.11743       0.00000    4714.30371     242.92329 
  10463.50000       0.00000      31.58015     321.53796       0.28566      81.32856     103.16495      30.92936      28.72687       1.00000       0.23337    1055.57898    2223.02783       0.00000    4714.55811     243.26193 
  10464.00000       0.00000      28.82535     339.99588       0.27932      78.41267     100.95630      31.61617      29.34025       1.00000       0.23124    1044.97119    2176.80713       0.00000    4714.83594     243.84259 
  10464.50000       0.00000      28.04879     362.20413       0.27432      74.58823      97.12957      31.68660      29.44536       1.00000       0.21999    1070.42859    2216.91455       0.00000    4715.08887     244.30602 
  10465.00000       0.00000      26.32409     374.04092       0.27168      73.15099      94.73733      31.99236      29.57561       1.00000       0.20874    1116.16577    2310.34766       0.00000    4715.28516     244.60187 
  10465.50000       0.00000      25.37351     376.55890       0.27680      72.34145      92.71846      32.01049      28.94852       1.00000       0.20731    1150.88867    2420.89673       0.00000    4715.53516     245.15797 
  10466.00000       0.00000      26.49521     378.37469       0.26663      75.81112      90.03085      31.85764      28.82672       1.00000       0.21054    1204.96777    2483.01294       0.00000    4715.76465     245.85632 
  10466.50000       0.00000      28.64602     394.64496       0.26626      73.54356      89.27538      31.29509      28.32072       1.00000       0.21304    1231.62793    2536.41211       0.00000    4716.05469     246.35573 
  10467.00000       0.00000      29.38177     398.98676       0.26647      68.46955      89.80080      30.36907      27.91445       1.00000       0.20776    1260.91687    2595.35425       0.00000    4716.29834     246.92308 
  10467.50000       0.00000      31.36532     401.12253       0.26167      71.84019      89.19901      29.80574      27.68974       1.00000       0.20320    1288.17444    2621.19238       0.00000    4716.54395     247.28545 
  10468.00000       0.00000      31.19420     394.74652       0.25115      74.06602      89.44830      29.62814      27.66177       1.00000       0.19864    1331.75891    2637.68237       0.00000    4716.79980     247.53658 
  10468.50000       0.00000      31.36677     400.71738       0.25283      75.68534      90.79818      29.38333      27.45974       1.00000       0.19818    1336.94067    2654.42114       0.00000    4717.05762     248.20839 
  10469.00000       0.00000      30.24507     402.37363       0.24839      71.29809      91.58944      29.23348      27.41595       1.00000       0.19479    1364.26538    2675.24976       0.00000    4717.23975     248.92340 
  10469.50000       0.00000      29.85446     395.73087       0.24501      71.32333      90.63749      28.89418      27.11879       1.00000       0.19415    1396.90405    2717.86890       0.00000    4717.45508     249.35542 
  10470.00000       0.00000      30.02703     381.38614       0.24106      74.36328      91.82405      28.34019      26.36936       1.00000       0.19010    1467.17383    2819.81348       0.00000    4717.71240     249.84575 
  10470.50000       0.00000      30.97616     375.18076       0.27138      75.67704      91.22873      27.42008      25.91496       1.00000       0.19074    1466.93982    2887.96533       0.00000    4717.97949     250.41232 
  10471.00000       0.00000      32.44300     385.42435       0.27211      78.78056      91.09318      27.43843      25.80930       1.00000       0.19172    1467.32434    2899.89648       0.00000    4718.22266     250.90251 
  10471.50000       0.00000      33.83577     388.02658       0.27854      71.69911      90.27319      28.40569      25.95462       1.00000       0.19692    1441.13904    2909.32544       0.00000    4718.48730     251.29280 
  10472.00000       0.00000      33.75098     393.18341       0.28462      71.85656      90.40607      29.33291      26.40708       1.00000       0.20163    1395.87939    2858.21680       0.00000    4718.71729     251.83949 
  10472.50000       0.00000      32.36924     383.07724       0.29260      71.47565      88.27252      29.75756      27.02097       1.00000       0.20583    1320.47961    2764.74878       0.00000    4718.93066     252.38309 
  10473.00000       0.00000      31.67896     385.55295       0.29303      77.20009      89.39523      29.77146      27.81273       1.00000       0.20974    1303.64355    2705.06006       0.00000    4719.24023     253.31229 
  10473.50000       0.00000      31.33382     383.79770       0.27144      70.96446      89.37669      30.46325      28.30499       1.00000       0.21487    1282.69214    2684.57544       0.00000    4719.45020     254.22862 
