~Version Information
VERS  .          2.0                              :CWLS Log Ascii Standard - Version 2.0
WRAP  .          NO                               :One line per depth step
~Well Information Block
#MNEM.UNIT       Data Type                        Information
#---------       ---------                        -------------------------------
STRT  .F         9700.00000                       :START DEPTH
STOP  .F         10600.00000                      :STOP DEPTH
STEP  .F          0.50000                         :INCREMENT
NULL  .          -999.25                          :NULL DATA VALUE
COMP  .          DENBURY ONSHORE, LLC             :COMPANY
WELL  .          CFU 31F #1                       :WELL
FLD   .          CRANFIELD FIELD UNIT             :FIELD
LOC   .                                           :LOCATION
PROV  .                                           :PROVINCE
STAT  .                                           :STATE
CNTY  .                                           :COUNTY
CTRY  .                                           :COUNTRY
DATE  .                                           :DATE
UWI   .          CFU 31F #1                       :UNIQUE WELL UWI
LIC   .                                           :LICENSE NUMBER
API   .          23-037-21488-0000                :API NUMBER
SRVC  .                                           :SERVICE COMPANY
~Parameter Information Block
#MNEM.UNIT       Value                            Description
#---------       ---------                        -------------
PDAT  .          GROUND LEVEL                     :Permanent Datum               
EPD   .ft        315.70                           :Elevation of Permanent Datum (PDAT) above Mean Sea Level
LMF   .          KELLY BUSHING                    :Logging Measured From (Name of Working Datum)
APD   .ft        18.00                            :Elevation of Working Datum (LMF) Above Permanent Datum
EDF   .ft        332.70                           :Elevation of Derrick Floor Above Mean Sea Level
EGL   .ft        315.70                           :Elevation of Ground Level Above Mean Sea Level
EKB   .ft        333.70                           :Elevation of Kelly Bushing Above Mean Sea Level
~Curve Information Block
#MNEM.UNIT       API Code            Curve    Description
#--------        --------------      -----    -------------------
DEPT  .F                             :0       Index
SXGA  .                              :1       CO2 Saturation
GR    .GAPI                          :2       Gamma Ray                     
INFD_TDTL.CPS                        :3       Gross Inelastic Count Rate Far Detector (TDT-like)
PHIC  .V/V                           :4       TDT Count Rate Porosity       
SBNA  .CU                            :5       RST Sigma Borehole Near Apparent
SIBH_TDTL.CU                         :6       Sigma Borehole Corrected (TDT-like)
SIGM  .CU                            :7       Formation Sigma (Neutron Capture Cross Section)
SIGM_TDTL.CU                         :8       Formation Sigma (Neutron Capture Cros Section) (TDT-like)
SXWI  .V/V                           :9       Non-Clay Water Intergranular Water Saturation for the Flushed Zone
TPHI  .V/V                           :10      Thermal Decay Porosity        
TSCF_TDTL.CPS                        :11      Total Selected Count Rate Far Detector (TDT-like)
TSCN_TDTL.CPS                        :12      Total Selected Count Rate Near Detector (TDT-like)
VXGA  .V/V                           :13      Volume of Gas in Flushed Zone 
WPRE  .PSI                           :14      Well Pressure                 
WTEP  .DEGF                          :15      Well Temperature              
~Ascii Data Section
# ...
  10402.00000       0.00000      67.64657     229.86839       0.42096      88.56515     134.52638      36.54006      34.82394       1.00000       0.40512     482.75787    1298.74353       0.00000    4684.68262     261.50247 
  10402.50000       0.00000      66.34183     237.08757       0.39824      87.35993     131.31071      36.17818      33.81322       1.00000       0.38980     524.33594    1367.31726       0.00000    4685.00391     261.50018 
  10403.00000       0.00000      63.75329     243.70692       0.37219      86.25317     129.81502      35.43288      32.59720       1.00000       0.38288     574.67120    1435.77881       0.00000    4685.23047     261.50400 
  10403.50000       0.00000      62.45902     245.00424       0.34882      86.30931     131.39339      33.80748      32.05049       1.00000       0.37682     644.43811    1532.43079       0.00000    4685.46973     261.49869 
  10404.00000       0.00000      59.78696     248.29700       0.35140      87.72529     131.90166      32.25903      30.41225       1.00000       0.36729     692.61725    1682.29370       0.00000    4685.66650     261.49994 
  10404.50000       0.00000      59.43898     247.22580       0.32066      91.44273     134.96175      31.70364      29.41191       1.00000       0.34664     812.37158    1846.28589       0.00000    4685.93945     261.49786 
  10405.00000       0.00000      59.02142     260.11282       0.31414      86.74610     138.11864      30.91837      28.12258       1.00000       0.32110     884.90405    1993.82764       0.00000    4686.20361     261.49652 
  10405.50000       0.00000      56.34660     261.23895       0.30906      91.41030     138.40602      30.56628      27.47693       1.00000       0.29505     925.86731    2072.54443       0.00000    4686.45605     261.49881 
  10406.00000       0.00000      56.43288     271.62341       0.30186      90.84124     135.99644      30.05932      27.25418       1.00000       0.28373     939.21143    2078.07764       0.00000    4686.71338     261.49628 
  10406.50000       0.00000      61.08949     277.20209       0.30899      87.69748     137.26234      30.81035      27.83622       1.00000       0.29545     914.34827    2044.36279       0.00000    4686.84082     261.50244 
  10407.00000       0.00000      62.90147     273.62653       0.33814      88.76672     135.60101      31.91932      28.87026       1.00000       0.32941     825.33118    1965.92590       0.00000    4687.20068     261.50269 
  10407.50000       0.00000      63.07404     262.08673       0.35375      85.41404     131.27574      33.03286      30.57653       1.00000       0.37123     764.51074    1878.55237       0.00000    4687.43799     261.51346 
  10408.00000       0.00000      61.86605     229.69870       0.36885      85.49500     127.24842      33.73474      31.95046       1.00000       0.39791     698.84540    1769.62756       0.00000    4687.58643     261.51071 
  10408.50000       0.00000      59.70893     202.21596       0.39287      83.35495     123.33634      34.48783      32.90019       1.00000       0.40615     609.78644    1623.03650       0.00000    4687.88330     261.51468 
  10409.00000       0.00000      51.94332     157.97075       0.40306      80.60293     122.22501      35.87093      34.60543       1.00000       0.41226     553.61786    1486.37488       0.00000    4688.14941     261.51071 
  10409.50000       0.00000      47.97424     149.20744       0.41957      85.34050     119.69778      37.26473      35.74739       1.00000       0.43684     491.74249    1357.73413       0.00000    4688.32861     261.50705 
  10410.00000       0.00000      41.93431     140.77945       0.46277      85.22662     112.37556      37.38999      36.33785       1.00000       0.47904     422.46359    1283.47974       0.00000    4688.57178     261.50110 
  10410.50000       0.00000      38.48447     134.68356       0.50441      79.24421     108.51374      36.43477      36.54388       1.00000       0.51804     385.38330    1271.80212       0.00000    4688.82471     261.49414 
  10411.00000       0.00000      35.03309     129.58383       0.53724      70.76131     103.62419      34.45298      35.99781       1.00000       0.54412     368.67947    1302.55066       0.00000    4689.07812     261.49164 
  10411.50000       0.00000      34.86052     131.11095       0.53238      72.95422      97.63560      33.76390      34.96531       1.00000       0.54408     379.45541    1350.68433       0.00000    4689.36279     261.47845 
  10412.00000       0.00000      35.11938     138.87486       0.50324      76.04456      97.96905      32.95831      34.20783       1.00000       0.53356     414.77515    1411.60986       0.00000    4689.50391     261.47458 
  10412.50000       0.00000      35.98222     144.06038       0.46655      80.56252     104.60035      32.74407      34.02508       1.00000       0.51747     450.84033    1422.16528       0.00000    4689.81445     261.45316 
  10413.00000       0.00000      37.18866     149.71660       0.44446      76.78598     107.27803      33.09247      33.86139       1.00000       0.50570     471.45734    1420.81323       0.00000    4690.10059     261.43271 
  10413.50000       0.00000      39.26925     150.64337       0.42593      80.40326     109.43913      33.44960      33.41693       1.00000       0.49659     497.92242    1445.43115       0.00000    4690.23486     261.40375 
  10414.00000       0.00000      40.21838     154.73091       0.39560      78.62766     114.80614      33.97636      33.14988       1.00000       0.48045     549.10413    1486.95068       0.00000    4690.48096     261.40247 
  10414.50000       0.00000      40.64981     160.19502       0.38489      78.96304     116.25413      33.34157      32.25902       1.00000       0.44979     583.56262    1550.81213       0.00000    4690.81445     261.39542 
  10415.00000       0.00000      43.41091     177.54199       0.35626      82.84918     118.37940      32.82765      31.80203       1.00000       0.40748     642.90234    1604.41882       0.00000    4691.08740     261.38684 
  10415.50000       0.00000      45.22289     181.49579       0.34654      82.19206     121.58578      32.37542      30.54424       1.00000       0.36795     693.36993    1699.43384       0.00000    4691.26758     261.37366 
  10416.00000       0.00000      44.86799     173.69202       0.34165      82.90961     124.24097      31.89097      30.26917       1.00000       0.35201     724.08710    1751.40393       0.00000    4691.44629     261.35916 
  10416.50000       0.00000      43.66000     166.57016       0.35939      85.21117     125.15005      31.06624      29.45517       1.00000       0.36771     706.44952    1783.20032       0.00000    4691.71191     261.34961 
  10417.00000       0.00000      43.91886     180.93535       0.37694      84.25540     125.29977      31.29058      29.89918       1.00000       0.39993     685.65979    1792.85791       0.00000    4692.02002     261.32541 
  10417.50000       0.00000      43.05601     210.72781       0.40316      85.33740     121.70634      32.00177      30.10391       1.00000       0.43614     648.80896    1798.66638       0.00000    4692.22314     261.30853 
  10418.00000       0.00000      46.85253     245.86130       0.42063      77.71706     116.82937      33.21854      31.74426       1.00000       0.45783     613.77704    1768.66772       0.00000    4692.55859     261.29669 
  10418.50000       0.00000      52.46103     255.97928       0.44466      75.67478     113.42604      33.64124      33.42670       1.00000       0.47153     583.71509    1764.74487       0.00000    4692.69141     261.28094 
  10419.00000       0.00000      56.31486     259.51483       0.45299      74.12852     110.12770      34.23738      34.83287       1.00000       0.47848     562.59082    1729.31628       0.00000    4692.93164     261.25104 
  10419.50000       0.00000      56.40115     252.85548       0.45725      73.56133     109.09161      35.53806      35.39819       1.00000       0.47962     536.13531    1656.84009       0.00000    4693.17725     261.21860 
