~Version Information
VERS  .          2.0                              :CWLS Log Ascii Standard - Version 2.0
WRAP  .          NO                               :One line per depth step
~Well Information Block
#MNEM.UNIT       Data Type                        Information
#---------       ---------                        -------------------------------
STRT  .F         9700.00000                       :START DEPTH
STOP  .F         10600.00000                      :STOP DEPTH
STEP  .F          0.50000                         :INCREMENT
NULL  .          -999.25                          :NULL DATA VALUE
COMP  .          DENBURY ONSHORE, LLC             :COMPANY
WELL  .          CFU 31F #1                       :WELL
FLD   .          CRANFIELD FIELD UNIT             :FIELD
LOC   .                                           :LOCATION
PROV  .                                           :PROVINCE
STAT  .                                           :STATE
CNTY  .                                           :COUNTY
CTRY  .                                           :COUNTRY
DATE  .                                           :DATE
UWI   .          CFU 31F #1                       :UNIQUE WELL UWI
LIC   .                                           :LICENSE NUMBER
API   .          23-037-21488-0000                :API NUMBER
SRVC  .                                           :SERVICE COMPANY
~Parameter Information Block
#MNEM.UNIT       Value                            Description
#---------       ---------                        -------------
PDAT  .          GROUND LEVEL                     :Permanent Datum               
EPD   .ft        315.70                           :Elevation of Permanent Datum (PDAT) above Mean Sea Level
LMF   .          KELLY BUSHING                    :Logging Measured From (Name of Working Datum)
APD   .ft        18.00                            :Elevation of Working Datum (LMF) Above Permanent Datum
EDF   .ft        332.70                           :Elevation of Derrick Floor Above Mean Sea Level
EGL   .ft        315.70                           :Elevation of Ground Level Above Mean Sea Level
EKB   .ft        333.70                           :Elevation of Kelly Bushing Above Mean Sea Level
~Curve Information Block
#MNEM.UNIT       API Code            Curve    Description
#--------        --------------      -----    -------------------
DEPT  .F                             :0       Index
SXGA  .                              :1       CO2 Saturation
GR    .GAPI                          :2       Gamma Ray                     
INFD_TDTL.CPS                        :3       Gross Inelastic Count Rate Far Detector (TDT-like)
PHIC  .V/V                           :4       TDT Count Rate Porosity       
QGD   .BB/D                          :5       Downhole CO2 Injection rate (Low Rate)
QTDH  .BB/D                          :6       Downhole CO2 Injection rate (High Rate)
SBNA  .CU                            :7       RST Sigma Borehole Near Apparent
SIBH_TDTL.CU                         :8       Sigma Borehole Corrected (TDT-like)
SIGM  .CU                            :9       Formation Sigma (Neutron Capture Cross Section)
SIGM_TDTL.CU                         :10      Formation Sigma (Neutron Capture Cros Section) (TDT-like)
SW    .V/V                           :11      Water Saturation Computed by Delta Sigma Method             
SXWI  .V/V                           :12      Non-Clay Water Intergranular Water Saturation for the Flushed Zone
TPHI  .V/V                           :13      Thermal Decay Porosity        
TSCF_TDTL.CPS                        :14      Total Selected Count Rate Far Detector (TDT-like)
TSCN_TDTL.CPS                        :15      Total Selected Count Rate Near Detector (TDT-like)
VXGA  .V/V                           :16      Volume of Gas in Flushed Zone 
WPRE  .PSI                           :17      Well Pressure                 
WTEP  .DEGF                          :18      Well Temperature              
~Ascii Data Section
# ...
  10525.00000       0.00000      70.69218     686.89838       0.23424    -127.92967    -382.23267      48.09512      39.29775      28.63442      25.35543       1.00000       1.00000       0.24581    2126.64868    3599.59131       0.00000    5726.61523     233.03783 
  10525.50000       0.00000      75.27736     680.53333       0.23652    -127.92967    -382.23267      47.45122      39.76186      29.31170      26.27924       1.00000       1.00000       0.25377    2030.27930    3397.21118       0.00000    5726.73242     233.74725 
  10526.00000       0.00000      79.12653     684.25739       0.23754    -127.92967    -382.23267      49.83782      39.78661      28.30533      26.42890       1.00000       1.00000       0.24182    2013.25037    3356.24609       0.00000    5726.86182     234.58400 
  10526.50000       0.00000      82.23751     703.08234       0.23617    -127.92967    -382.23267      51.57570      40.02344      27.80604      26.15615       1.00000       1.00000       0.22591    2118.71240    3461.10620       0.00000    5726.99561     235.55234 
  10527.00000       0.00000      81.80154     717.12714       0.22756    -127.92967    -382.23267      50.11210      40.13385      27.73244      25.26268       1.00000       1.00000       0.21132    2344.47192    3721.11304       0.00000    5727.02637     236.37950 
  10527.50000       0.00000      76.43430     719.49561       0.22015    -127.92967    -382.23267      49.43461      40.52056      27.36473      23.97519       1.00000       1.00000       0.20732    2571.90112    4080.31470       0.00000    5727.10059     237.02240 
  10528.00000       0.00000      72.15387     712.30078       0.21189    -127.92967    -382.23267      47.66780      40.47382      26.25704      22.96490       1.00000       1.00000       0.20148    2764.70142    4378.58545       0.00000    5727.22217     237.45543 
  10528.50000       0.00000      68.12760     712.66486       0.20738    -127.92967    -382.23267      49.56365      40.34395      25.04509      22.08208       1.00000       1.00000       0.20653    2861.07910    4557.41113       0.00000    5727.35352     237.78741 
  10529.00000       0.00000      65.83641     705.97510       0.21111    -127.92967    -382.23267      49.84178      41.91381      25.32957      21.68782       1.00000       1.00000       0.21518    2744.69263    4510.42578       0.00000    5727.47803     238.12558 
  10529.50000       0.00000      68.48936     691.37183       0.22732    -127.92967    -382.23267      51.41403      44.03998      26.97909      22.99301       1.00000       1.00000       0.24227    2382.46021    4109.79785       0.00000    5727.62891     238.44000 
  10530.00000       0.00000      72.94727     674.02429       0.24434    -127.92967    -382.23267      54.15315      45.20573      29.71466      25.48094       1.00000       1.00000       0.28294    2015.55005    3535.20581       0.00000    5727.74902     238.78050 
  10530.50000       0.00000      77.01761     670.67804       0.27433    -127.92967    -382.23267      53.54404      44.94791      32.35549      28.26912       1.00000       1.00000       0.33519    1626.16882    3010.69775       0.00000    5727.83789     239.22249 
  10531.00000       0.00000      79.63631     677.84509       0.30691    -127.92967    -382.23267      48.91609      43.67970      34.13977      31.19628       1.00000       1.00000       0.37986    1350.42188    2644.01660       0.00000    5727.93848     239.85393 
  10531.50000       0.00000      81.47347     686.96417       0.32349    -127.92967    -382.23267      46.42821      41.18235      35.01992      33.09128       0.94252       1.00000       0.39482    1253.82959    2492.27808       0.00000    5728.09033     240.65903 
  10532.00000       0.00000      83.65501     704.51038       0.33201    -127.92967    -382.23267      49.83704      38.97909      35.17570      33.59531       0.83865       1.00000       0.39724    1261.21423    2526.25269       0.00000    5728.18262     241.42513 
  10532.50000       0.00000      85.38104     724.16339       0.33592    -127.92967    -382.23267      47.37360      37.69894      35.04839      33.38640       0.72759       1.00000       0.39729    1323.56677    2657.03613       0.00000    5728.26270     242.10538 
  10533.00000       0.00000      84.82451     736.80646       0.33735    -127.92967    -382.23267      44.90337      37.04077      34.44264      33.01966       0.72385       1.00000       0.40232    1413.16699    2845.63306       0.00000    5728.37500     242.60995 
  10533.50000       0.00000      85.34180     741.96472       0.32717    -127.92967    -382.23267      44.78360      36.16421      33.74377      32.24978       0.78459       1.00000       0.39222    1549.16003    3057.14722       0.00000    5728.50439     243.12079 
  10534.00000       0.00000      83.94061     739.78790       0.31495    -127.92967    -382.23267      45.43245      35.74612      33.12128      31.60600       0.88551       1.00000       0.37003    1665.43982    3210.14111       0.00000    5728.61133     243.72174 
  10534.50000       0.00000      79.06245     725.54486       0.30553    -127.92967    -382.23267      45.66359      37.01589      32.79379      31.33339       0.89323       1.00000       0.34901    1714.65967    3245.83276       0.00000    5728.73340     244.29651 
  10535.00000       0.00000      76.43451     697.70764       0.29255    -127.92967    -382.23267      46.33978      39.36544      32.75163      30.79589       0.87917       1.00000       0.33000    1700.59265    3168.84595       0.00000    5728.85205     244.78128 
  10535.50000       0.00000      73.98776     670.13849       0.28347    -127.92967    -382.23267      51.02982      41.20063      32.88520      30.11607       0.86536       1.00000       0.31603    1638.30029    3065.89282       0.00000    5728.94922     245.17165 
  10536.00000       0.00000      70.37606     655.02026       0.28522    -127.92967    -382.23267      54.56310      42.36738      32.93842      29.71469       0.92784       1.00000       0.32246    1565.78442    3019.40283       0.00000    5729.12891     245.53830 
  10536.50000       0.00000      69.52470     662.40210       0.29679    -127.92967    -382.23267      51.60540      42.47084      32.87364      29.76821       0.90947       1.00000       0.35919    1511.75464    3021.52588       0.00000    5729.22803     245.78444 
  10537.00000       0.00000      71.07772     680.64233       0.31249    -127.92967    -382.23267      47.74064      40.65487      32.91455      30.58725       0.89521       1.00000       0.41337    1496.47778    3069.11743       0.00000    5729.30859     245.96902 
  10537.50000       0.00000      71.11739     690.63617       0.32507    -127.92967    -382.23267      44.00161      36.94674      33.25145      31.65588       0.89371       1.00000       0.45043    1498.89880    3147.85034       0.00000    5729.41406     246.24107 
  10538.00000       0.00000      72.60383     685.82294       0.33077    -127.92967    -382.23267      45.11090      34.65798      33.75213      32.43516       1.00000       1.00000       0.46823    1486.20532    3173.78735       0.00000    5729.56396     246.60243 
  10538.50000       0.00000      75.28307     678.10065       0.33047    -127.92967    -382.23267      42.53085      34.78034      33.93810      32.72049       1.00000       1.00000       0.46770    1450.57324    3099.78613       0.00000    5729.69531     247.08885 
  10539.00000       0.00000      77.34599     673.49072       0.32751    -127.92967    -382.23267      44.51165      34.83884      34.30426      32.68008       0.98042       1.00000       0.46210    1409.83167    2997.02124       0.00000    5729.77539     247.72601 
  10539.50000       0.00000      78.89303     671.47180       0.32260    -127.92967    -382.23267      46.79679      34.42432      34.70657      32.41145       0.95097       1.00000       0.45588    1377.48181    2903.51636       0.00000    5729.90527     248.30602 
