~Version Information
VERS  .          2.0                              :CWLS Log Ascii Standard - Version 2.0
WRAP  .          NO                               :One line per depth step
~Well Information Block
#MNEM.UNIT       Data Type                        Information
#---------       ---------                        -------------------------------
STRT  .F         9700.00000                       :START DEPTH
STOP  .F         10600.00000                      :STOP DEPTH
STEP  .F          0.50000                         :INCREMENT
NULL  .          -999.25                          :NULL DATA VALUE
COMP  .          DENBURY ONSHORE, LLC             :COMPANY
WELL  .          CFU 31F #1                       :WELL
FLD   .          CRANFIELD FIELD UNIT             :FIELD
LOC   .                                           :LOCATION
PROV  .                                           :PROVINCE
STAT  .                                           :STATE
CNTY  .                                           :COUNTY
CTRY  .                                           :COUNTRY
DATE  .                                           :DATE
UWI   .          CFU 31F #1                       :UNIQUE WELL UWI
LIC   .                                           :LICENSE NUMBER
API   .          23-037-21488-0000                :API NUMBER
SRVC  .                                           :SERVICE COMPANY
~Parameter Information Block
#MNEM.UNIT       Value                            Description
#---------       ---------                        -------------
PDAT  .          GROUND LEVEL                     :Permanent Datum               
EPD   .ft        315.70                           :Elevation of Permanent Datum (PDAT) above Mean Sea Level
LMF   .          KELLY BUSHING                    :Logging Measured From (Name of Working Datum)
APD   .ft        18.00                            :Elevation of Working Datum (LMF) Above Permanent Datum
EDF   .ft        332.70                           :Elevation of Derrick Floor Above Mean Sea Level
EGL   .ft        315.70                           :Elevation of Ground Level Above Mean Sea Level
EKB   .ft        333.70                           :Elevation of Kelly Bushing Above Mean Sea Level
~Curve Information Block
#MNEM.UNIT       API Code            Curve    Description
#--------        --------------      -----    -------------------
DEPT  .F                             :0       Index
SXGA  .                              :1       CO2 Saturation
GR    .GAPI                          :2       Gamma Ray                     
INFD_TDTL.CPS                        :3       Gross Inelastic Count Rate Far Detector (TDT-like)
PHIC  .V/V                           :4       TDT Count Rate Porosity       
SBNA  .CU                            :5       RST Sigma Borehole Near Apparent
SIBH_TDTL.CU                         :6       Sigma Borehole Corrected (TDT-like)
SIGM  .CU                            :7       Formation Sigma (Neutron Capture Cross Section)
SIGM_TDTL.CU                         :8       Formation Sigma (Neutron Capture Cros Section) (TDT-like)
SXWI  .V/V                           :9       Non-Clay Water Intergranular Water Saturation for the Flushed Zone
TPHI  .V/V                           :10      Thermal Decay Porosity        
TSCF_TDTL.CPS                        :11      Total Selected Count Rate Far Detector (TDT-like)
TSCN_TDTL.CPS                        :12      Total Selected Count Rate Near Detector (TDT-like)
VXGA  .V/V                           :13      Volume of Gas in Flushed Zone 
WPRE  .PSI                           :14      Well Pressure                 
WTEP  .DEGF                          :15      Well Temperature              
~Ascii Data Section
# ...
  10222.00000       0.00000      46.65183     259.91095       0.33935      88.30615     129.43831      28.76420      27.24244       1.00000       0.36329     924.11420    2265.80933       0.00000    4599.90381     258.23502 
  10222.50000       0.00000      50.70441     275.75290       0.33992      85.90801     126.67236      29.81494      28.05141       1.00000       0.36327     885.83008    2174.25977       0.00000    4600.14453     258.24359 
  10223.00000       0.00000      54.05333     279.51160       0.35008      86.39557     125.81721      30.88823      28.99916       1.00000       0.36680     844.32629    2110.52954       0.00000    4600.40039     258.25537 
  10223.50000       0.00000      55.11039     279.97943       0.36040      87.59830     127.71511      31.51784      29.65629       1.00000       0.37361     817.22241    2074.12231       0.00000    4600.63184     258.27121 
  10224.00000       0.00000      53.46719     279.39590       0.34842      88.56313     130.25534      31.71919      29.45562       1.00000       0.37055     862.84491    2124.07886       0.00000    4600.87500     258.28552 
  10224.50000       0.00000      52.12470     275.00165       0.32969      88.70774     132.87408      31.03579      27.98259       1.00000       0.34908     964.79816    2294.57886       0.00000    4601.10693     258.29709 
  10225.00000       0.00000      49.41639     272.76770       0.31607      86.76817     134.24858      29.49190      26.09365       1.00000       0.31401    1079.22852    2516.24365       0.00000    4601.34033     258.30792 
  10225.50000       0.00000      46.30887     270.57455       0.29875      90.96546     132.09801      27.51472      24.98044       1.00000       0.29008    1184.57385    2684.39697       0.00000    4601.53857     258.31879 
  10226.00000       0.00000      45.61762     276.48816       0.28979      92.93860     129.72229      26.13175      24.45396       1.00000       0.29356    1238.89404    2771.80005       0.00000    4601.81250     258.33035 
  10226.50000       0.00000      45.61836     280.99124       0.29947      89.48648     130.26656      26.43267      24.30030       1.00000       0.31324    1214.60400    2775.32837       0.00000    4602.03125     258.34055 
  10227.00000       0.00000      45.04686     280.84003       0.31686      87.62727     129.75443      27.75780      24.90645       1.00000       0.33675    1124.20532    2660.82861       0.00000    4602.28369     258.34967 
  10227.50000       0.00000      45.99120     273.55112       0.33194      86.53457     129.13060      29.23316      26.30936       1.00000       0.35613    1018.82153    2477.50806       0.00000    4602.51465     258.35831 
  10228.00000       0.00000      48.02272     266.01596       0.35529      86.87718     129.98441      30.03584      27.96115       1.00000       0.37713     916.64117    2318.62500       0.00000    4602.71826     258.37155 
  10228.50000       0.00000      50.68256     265.49063       0.36689      87.80715     129.48512      30.40591      29.32228       1.00000       0.39965     860.28632    2218.60669       0.00000    4602.98145     258.38412 
  10229.00000       0.00000      52.93272     260.93719       0.36561      85.90359     129.91138      30.81217      30.01270       1.00000       0.41216     846.17767    2164.73169       0.00000    4603.19092     258.39999 
  10229.50000       0.00000      54.34512     261.03024       0.34590      83.58474     129.92009      30.87483      29.71160       1.00000       0.40281     904.14459    2216.34204       0.00000    4603.47510     258.41446 
  10230.00000       0.00366      53.66870     270.98749       0.31837      85.28613     130.68851      29.89654      27.84702       0.99682       0.37065    1039.72754    2424.73853       0.00039    4603.68164     258.42743 
  10230.50000       0.00052      50.51788     278.93585       0.30779      86.13272     133.76759      27.83052      25.51055       0.99956       0.33778    1154.13721    2656.95288       0.00004    4603.87305     258.43918 
  10231.00000       0.00000      46.00249     279.95648       0.30644      91.05879     135.44516      25.82994      24.09451       1.00000       0.32594    1211.77686    2791.65601       0.00000    4604.10693     258.44614 
  10231.50000       0.00000      42.74766     273.15567       0.31157      94.22932     136.21826      25.53532      23.75148       1.00000       0.34097    1213.40527    2825.05884       0.00000    4604.33936     258.45148 
  10232.00000       0.00000      41.73565     271.85474       0.33328      89.43758     136.60069      27.10377      24.46842       1.00000       0.36938    1131.81970    2745.93970       0.00000    4604.58789     258.45349 
  10232.50000       0.00000      43.90113     273.51596       0.35815      88.07149     133.50890      29.11108      26.26141       1.00000       0.39906     997.42834    2543.26196       0.00000    4604.85986     258.45776 
  10233.00000       0.00000      47.29421     264.75793       0.36933      88.93049     128.37173      30.24580      28.40779       1.00000       0.42217     888.89294    2320.97852       0.00000    4605.07568     258.46252 
  10233.50000       0.00000      49.97809     249.84831       0.37370      85.20395     128.09062      30.46741      29.85927       1.00000       0.43149     846.27155    2214.99805       0.00000    4605.25977     258.47272 
  10234.00000       0.00000      51.14046     240.26361       0.37478      84.27550     127.02967      30.39123      30.36461       1.00000       0.43052     837.72974    2196.51636       0.00000    4605.50488     258.48563 
  10234.50000       0.00000      50.63949     242.36194       0.36365      86.91461     124.02159      30.71839      30.39399       1.00000       0.41692     848.27740    2182.35913       0.00000    4605.74121     258.49695 
  10235.00000       0.00000      48.76366     247.38515       0.36071      85.65926     123.26756      30.98427      30.75900       1.00000       0.40537     829.11926    2114.55176       0.00000    4605.92090     258.50739 
  10235.50000       0.00000      49.12954     249.01581       0.36418      84.35493     123.79761      31.71479      31.12574       1.00000       0.39478     801.53638    2049.96045       0.00000    4606.14502     258.51926 
  10236.00000       0.00000      51.78090     254.39514       0.37350      84.80042     122.39403      32.47819      31.21697       1.00000       0.39416     760.21967    1984.80823       0.00000    4606.48145     258.53360 
  10236.50000       0.00000      53.58736     257.52802       0.38503      85.86420     121.06674      33.44356      31.48211       1.00000       0.40414     717.92981    1920.65771       0.00000    4606.71631     258.54330 
  10237.00000       0.00000      54.55361     262.01611       0.39673      85.01832     123.71265      33.90270      31.85923       1.00000       0.41999     695.58716    1891.99072       0.00000    4606.93701     258.56036 
  10237.50000       0.00000      55.95205     263.68039       0.40973      83.43865     126.62254      33.43571      31.70640       1.00000       0.43898     689.25702    1916.52051       0.00000    4607.14160     258.57889 
  10238.00000       0.00000      55.06151     265.11826       0.41201      85.68958     128.74411      33.08606      31.48358       1.00000       0.44506     707.55731    1973.43506       0.00000    4607.39648     258.60028 
  10238.50000       0.00000      53.55905     269.72433       0.39967      87.24718     130.25578      32.57201      31.00848       1.00000       0.43815     759.38770    2069.12451       0.00000    4607.62500     258.61572 
  10239.00000       0.00000      51.38185     269.86093       0.38308      87.66030     131.77075      31.99086      30.28894       1.00000       0.41721     820.33130    2166.67090       0.00000    4607.85156     258.62967 
  10239.50000       0.00000      50.12107     274.40469       0.38249      87.27788     131.39214      31.09099      29.36134       1.00000       0.39722     832.24933    2207.82788       0.00000    4608.09180     258.63986 
