~Version Information
VERS  .          2.0                              :CWLS Log Ascii Standard - Version 2.0
WRAP  .          NO                               :One line per depth step
~Well Information Block
#MNEM.UNIT       Data Type                        Information
#---------       ---------                        -------------------------------
STRT  .F         9700.00000                       :START DEPTH
STOP  .F         10600.00000                      :STOP DEPTH
STEP  .F          0.50000                         :INCREMENT
NULL  .          -999.25                          :NULL DATA VALUE
COMP  .          DENBURY ONSHORE, LLC             :COMPANY
WELL  .          CFU 31F #1                       :WELL
FLD   .          CRANFIELD FIELD UNIT             :FIELD
LOC   .                                           :LOCATION
PROV  .                                           :PROVINCE
STAT  .                                           :STATE
CNTY  .                                           :COUNTY
CTRY  .                                           :COUNTRY
DATE  .                                           :DATE
UWI   .          CFU 31F #1                       :UNIQUE WELL UWI
LIC   .                                           :LICENSE NUMBER
API   .          23-037-21488-0000                :API NUMBER
SRVC  .                                           :SERVICE COMPANY
~Parameter Information Block
#MNEM.UNIT       Value                            Description
#---------       ---------                        -------------
PDAT  .          GROUND LEVEL                     :Permanent Datum               
EPD   .ft        315.70                           :Elevation of Permanent Datum (PDAT) above Mean Sea Level
LMF   .          KELLY BUSHING                    :Logging Measured From (Name of Working Datum)
APD   .ft        18.00                            :Elevation of Working Datum (LMF) Above Permanent Datum
EDF   .ft        332.70                           :Elevation of Derrick Floor Above Mean Sea Level
EGL   .ft        315.70                           :Elevation of Ground Level Above Mean Sea Level
EKB   .ft        333.70                           :Elevation of Kelly Bushing Above Mean Sea Level
~Curve Information Block
#MNEM.UNIT       API Code            Curve    Description
#--------        --------------      -----    -------------------
DEPT  .F                             :0       Index
SXGA  .                              :1       CO2 Saturation
GR    .GAPI                          :2       Gamma Ray                     
INFD_TDTL.CPS                        :3       Gross Inelastic Count Rate Far Detector (TDT-like)
PHIC  .V/V                           :4       TDT Count Rate Porosity       
SBNA  .CU                            :5       RST Sigma Borehole Near Apparent
SIBH_TDTL.CU                         :6       Sigma Borehole Corrected (TDT-like)
SIGM  .CU                            :7       Formation Sigma (Neutron Capture Cross Section)
SIGM_TDTL.CU                         :8       Formation Sigma (Neutron Capture Cros Section) (TDT-like)
SXWI  .V/V                           :9       Non-Clay Water Intergranular Water Saturation for the Flushed Zone
TPHI  .V/V                           :10      Thermal Decay Porosity        
TSCF_TDTL.CPS                        :11      Total Selected Count Rate Far Detector (TDT-like)
TSCN_TDTL.CPS                        :12      Total Selected Count Rate Near Detector (TDT-like)
VXGA  .V/V                           :13      Volume of Gas in Flushed Zone 
WPRE  .PSI                           :14      Well Pressure                 
WTEP  .DEGF                          :15      Well Temperature              
~Ascii Data Section
# ...
  10060.00000       0.00000      53.49568     275.54846       0.38069      82.89825     118.34464      33.03224      32.02230       1.00000       0.41907     740.05219    1970.46082       0.00000    4523.58398     254.40585 
  10060.50000       0.00000      54.25189     278.95987       0.38764      83.56807     118.42338      33.06380      32.07977       1.00000       0.42044     724.64136    1956.88611       0.00000    4523.89209     254.41666 
  10061.00000       0.00000      54.02743     277.57785       0.38459      83.81204     120.63216      33.31876      32.20861       1.00000       0.42823     732.71930    1955.23999       0.00000    4524.08984     254.42583 
  10061.50000       0.00000      54.29425     281.62170       0.38744      80.90434     120.38028      33.12510      32.49988       1.00000       0.43925     727.00385    1949.43201       0.00000    4524.31689     254.43831 
  10062.00000       0.00000      55.62849     280.76044       0.38751      86.54127     119.91269      33.01425      32.06789       1.00000       0.43704     734.32880    1977.62183       0.00000    4524.51562     254.44850 
  10062.50000       0.00000      53.68649     281.70670       0.37729      82.75046     121.01834      32.76423      31.27878       1.00000       0.42066     771.84375    2039.60767       0.00000    4524.77637     254.46060 
  10063.00000       0.00000      52.20569     277.19254       0.34779      84.09956     122.81499      32.52706      30.25345       1.00000       0.38699     853.49243    2121.99365       0.00000    4524.97607     254.47246 
  10063.50000       0.00000      49.31990     273.83606       0.33261      84.58181     124.44308      31.05734      29.12446       1.00000       0.35240     904.86182    2183.11401       0.00000    4525.27295     254.48364 
  10064.00000       0.00000      46.29452     271.81332       0.33258      87.19472     127.12254      29.72429      28.06353       1.00000       0.33264     916.91150    2214.82935       0.00000    4525.54980     254.49039 
  10064.50000       0.00000      43.78954     273.89673       0.33450      88.52960     128.34438      29.25051      27.79145       1.00000       0.34455     912.59735    2211.15649       0.00000    4525.78662     254.49808 
  10065.00000       0.00000      44.11428     274.87991       0.34473      86.66998     127.83891      29.91150      28.46963       1.00000       0.38073     873.05219    2155.60278       0.00000    4526.00488     254.50536 
  10065.50000       0.01122      44.23864     270.08560       0.36997      84.48858     128.99332      30.99040      29.56508       0.98990       0.41829     797.27661    2059.95337       0.00166    4526.16162     254.51198 
  10066.00000       0.00000      47.89984     266.75208       0.38324      84.14629     127.24689      31.92711      30.28591       1.00000       0.43558     749.49554    1988.07471       0.00000    4526.47412     254.51735 
  10066.50000       0.00000      50.10548     269.29834       0.37787      87.08714     128.83652      32.63535      30.79206       1.00000       0.42594     747.68866    1947.09912       0.00000    4526.71680     254.52536 
  10067.00000       0.00000      51.35342     282.07846       0.34605      86.08256     126.59810      32.96132      30.40590       1.00000       0.39230     812.92743    1984.12646       0.00000    4526.87842     254.53416 
  10067.50000       0.00000      51.39654     292.48523       0.29821      88.29453     126.70943      32.02627      28.62900       1.00000       0.33653     973.30988    2146.00146       0.00000    4527.12988     254.54309 
  10068.00000       0.00000      50.97421     310.39209       0.24887      79.37505     122.22112      30.29909      26.54930       1.00000       0.27108    1201.65320    2419.04761       0.00000    4527.37305     254.55157 
  10068.50000       0.00000      49.40918     325.93625       0.19392      85.61052     118.70617      27.65714      24.91872       1.00000       0.21512    1463.61133    2718.78955       0.00000    4527.65186     254.55498 
  10069.00000       0.00000      47.85713     333.00476       0.16693      88.70518     115.10506      25.39632      22.41883       1.00000       0.17816    1772.75732    3065.30737       0.00000    4527.88037     254.56358 
  10069.50000       0.00000      44.97263     321.87552       0.18367      93.03323     119.69875      23.55774      20.63387       1.00000       0.16372    1868.45740    3262.88110       0.00000    4528.12598     254.57240 
  10070.00000       0.00000      41.72821     295.26236       0.19043      91.62984     122.41283      22.73438      20.47738       1.00000       0.17465    1816.84570    3231.68530       0.00000    4528.31152     254.58153 
  10070.50000       0.00000      40.52543     269.14072       0.20938      96.95001     127.53353      23.33686      20.87367       1.00000       0.22466    1624.59106    3013.00049       0.00000    4528.54053     254.58832 
  10071.00000       0.07533      39.63958     255.78168       0.25108      88.71861     132.63213      25.99990      23.05723       0.93912       0.30165    1320.47217    2669.08691       0.00473    4528.76465     254.59714 
  10071.50000       0.02803      40.05461     238.05478       0.30476      86.22240     130.93253      29.34091      26.34348       0.97645       0.38558    1008.01324    2280.93115       0.00246    4528.97461     254.60814 
  10072.00000       0.00000      42.17961     224.39258       0.35197      83.21993     123.27598      31.99160      29.65100       1.00000       0.43958     797.71265    1994.95374       0.00000    4529.26367     254.61650 
  10072.50000       0.00000      46.91427     227.80847       0.38842      78.90301     120.20226      33.09251      31.50126       1.00000       0.46553     690.63855    1860.84155       0.00000    4529.49268     254.62811 
  10073.00000       0.00000      50.25206     248.35254       0.38657      81.83886     119.23814      33.10512      31.80618       1.00000       0.46404     687.24707    1844.56616       0.00000    4529.69775     254.64139 
  10073.50000       0.00000      52.48582     266.45300       0.39061      82.97678     119.21513      32.70488      31.36959       1.00000       0.45411     697.42627    1894.60095       0.00000    4529.97119     254.65147 
  10074.00000       0.00000      53.53759     277.55420       0.38826      83.88137     120.77890      32.14054      30.88011       1.00000       0.44035     728.50793    1971.52783       0.00000    4530.21045     254.66180 
  10074.50000       0.00000      54.46256     280.46951       0.37950      84.56933     120.83435      31.84453      30.80815       1.00000       0.43384     767.93164    2045.89722       0.00000    4530.43311     254.67010 
  10075.00000       0.00000      54.41344     281.43369       0.37623      81.58714     120.24967      31.82656      30.47309       1.00000       0.43395     794.72095    2112.31348       0.00000    4530.69678     254.67805 
  10075.50000       0.00130      53.05204     281.32025       0.37931      82.46671     119.73806      31.70511      29.98187       0.99883       0.43613     813.16199    2186.16797       0.00019    4530.90527     254.68581 
  10076.00000       0.00000      52.59548     281.08826       0.37712      81.83898     120.04884      31.30125      29.73316       1.00000       0.43237     832.36310    2230.78564       0.00000    4531.10645     254.69196 
  10076.50000       0.00000      53.61185     281.23883       0.37229      83.42174     121.62754      30.99553      29.64611       1.00000       0.42281     840.92505    2224.73291       0.00000    4531.32861     254.70294 
  10077.00000       0.00000      53.72564     281.79416       0.37357      83.47819     123.38263      30.89330      29.67278       1.00000       0.41051     829.14954    2189.69019       0.00000    4531.61670     254.71236 
  10077.50000       0.00000      53.46995     283.45456       0.37289      83.91361     125.21339      31.57037      30.12466       1.00000       0.40032     813.70923    2130.94580       0.00000    4531.82764     254.72284 
