~Version Information
VERS  .          2.0                              :CWLS Log Ascii Standard - Version 2.0
WRAP  .          NO                               :One line per depth step
~Well Information Block
#MNEM.UNIT       Data Type                        Information
#---------       ---------                        -------------------------------
STRT  .F         9700.00000                       :START DEPTH
STOP  .F         10600.00000                      :STOP DEPTH
STEP  .F          0.50000                         :INCREMENT
NULL  .          -999.25                          :NULL DATA VALUE
COMP  .          DENBURY ONSHORE, LLC             :COMPANY
WELL  .          CFU 31F #1                       :WELL
FLD   .          CRANFIELD FIELD UNIT             :FIELD
LOC   .                                           :LOCATION
PROV  .                                           :PROVINCE
STAT  .                                           :STATE
CNTY  .                                           :COUNTY
CTRY  .                                           :COUNTRY
DATE  .                                           :DATE
UWI   .          CFU 31F #1                       :UNIQUE WELL UWI
LIC   .                                           :LICENSE NUMBER
API   .          23-037-21488-0000                :API NUMBER
SRVC  .                                           :SERVICE COMPANY
~Parameter Information Block
#MNEM.UNIT       Value                            Description
#---------       ---------                        -------------
PDAT  .          GROUND LEVEL                     :Permanent Datum               
EPD   .ft        315.70                           :Elevation of Permanent Datum (PDAT) above Mean Sea Level
LMF   .          KELLY BUSHING                    :Logging Measured From (Name of Working Datum)
APD   .ft        18.00                            :Elevation of Working Datum (LMF) Above Permanent Datum
EDF   .ft        332.70                           :Elevation of Derrick Floor Above Mean Sea Level
EGL   .ft        315.70                           :Elevation of Ground Level Above Mean Sea Level
EKB   .ft        333.70                           :Elevation of Kelly Bushing Above Mean Sea Level
~Curve Information Block
#MNEM.UNIT       API Code            Curve    Description
#--------        --------------      -----    -------------------
DEPT  .F                             :0       Index
SXGA  .                              :1       CO2 Saturation
GR    .GAPI                          :2       Gamma Ray                     
INFD_TDTL.CPS                        :3       Gross Inelastic Count Rate Far Detector (TDT-like)
PHIC  .V/V                           :4       TDT Count Rate Porosity       
SBNA  .CU                            :5       RST Sigma Borehole Near Apparent
SIBH_TDTL.CU                         :6       Sigma Borehole Corrected (TDT-like)
SIGM  .CU                            :7       Formation Sigma (Neutron Capture Cross Section)
SIGM_TDTL.CU                         :8       Formation Sigma (Neutron Capture Cros Section) (TDT-like)
SXWI  .V/V                           :9       Non-Clay Water Intergranular Water Saturation for the Flushed Zone
TPHI  .V/V                           :10      Thermal Decay Porosity        
TSCF_TDTL.CPS                        :11      Total Selected Count Rate Far Detector (TDT-like)
TSCN_TDTL.CPS                        :12      Total Selected Count Rate Near Detector (TDT-like)
VXGA  .V/V                           :13      Volume of Gas in Flushed Zone 
WPRE  .PSI                           :14      Well Pressure                 
WTEP  .DEGF                          :15      Well Temperature              
~Ascii Data Section
# ...
  10168.00000       0.00000      49.96250     266.58298       0.37238      85.12491     118.28388      31.18854      31.03683       1.00000       0.39719     825.66730    2183.71558       0.00000    4574.43994     256.90842 
  10168.50000       0.00000      53.60897     275.38046       0.36550      82.49786     118.63889      31.69519      30.68478       1.00000       0.39621     842.34796    2197.63916       0.00000    4574.58984     256.92239 
  10169.00000       0.00000      54.89160     285.26096       0.36186      80.70126     118.41657      31.92730      30.56798       1.00000       0.39410     856.41986    2219.99243       0.00000    4574.92871     256.94058 
  10169.50000       0.00000      54.94117     287.35379       0.35501      83.18707     115.64382      31.50130      30.36147       1.00000       0.38226     865.42072    2224.13184       0.00000    4575.07031     256.95514 
  10170.00000       0.00000      54.79561     281.57626       0.35717      81.46155     117.77943      31.31694      29.58052       1.00000       0.37178     865.36292    2233.99731       0.00000    4575.36035     256.98035 
  10170.50000       0.00000      54.47033     267.88596       0.35064      84.49947     118.71234      31.14724      29.33593       1.00000       0.36827     870.39453    2211.77100       0.00000    4575.62158     256.99722 
  10171.00000       0.00000      52.47168     259.87851       0.35522      84.62749     119.05257      31.46967      29.96144       1.00000       0.38009     848.02271    2166.39941       0.00000    4575.81152     257.01776 
  10171.50000       0.00000      51.90726     256.59747       0.36810      83.64745     121.84803      31.43628      30.47836       1.00000       0.39774     809.58514    2107.49072       0.00000    4576.05176     257.03458 
  10172.00000       0.00000      51.51038     257.69672       0.37430      83.78715     124.05999      31.87490      30.97362       1.00000       0.41311     786.53223    2057.78101       0.00000    4576.31641     257.05627 
  10172.50000       0.00000      51.07484     257.96378       0.38585      86.06196     125.50169      31.79349      31.43364       1.00000       0.42445     755.08752    2011.95374       0.00000    4576.59277     257.07291 
  10173.00000       0.00000      51.72511     255.69392       0.39226      85.24359     126.80725      32.17500      31.51144       1.00000       0.42987     745.47388    2006.92896       0.00000    4576.76758     257.08673 
  10173.50000       0.00000      50.21090     253.27937       0.39919      86.09281     128.43666      32.21804      31.31727       1.00000       0.43528     743.79968    2027.78979       0.00000    4577.01172     257.10217 
  10174.00000       0.00000      50.28111     244.16423       0.39425      84.97710     128.08220      32.11730      30.93375       1.00000       0.43279     756.24182    2046.94641       0.00000    4577.19238     257.11533 
  10174.50000       0.00000      49.16233     230.51495       0.38693      86.72430     127.71120      31.18014      30.48700       1.00000       0.42463     783.21619    2096.19971       0.00000    4577.48828     257.12756 
  10175.00000       0.00000      48.30915     231.26607       0.37003      86.66995     126.19789      30.12626      29.85724       1.00000       0.40964     832.49292    2166.94019       0.00000    4577.65869     257.14468 
  10175.50000       0.00000      47.01900     230.90015       0.35476      84.44453     127.67762      29.15285      29.19876       1.00000       0.39412     876.96021    2211.30322       0.00000    4577.97119     257.16406 
  10176.00000       0.00000      46.64951     240.06827       0.33888      85.18286     127.17339      28.88683      28.60974       1.00000       0.37958     916.58099    2241.28687       0.00000    4578.12891     257.16864 
  10176.50000       0.00000      47.05110     240.86566       0.33284      87.50116     128.48541      28.70970      27.80902       1.00000       0.36743     952.02899    2303.06226       0.00000    4578.45801     257.19113 
  10177.00000       0.00000      46.85136     249.24284       0.33194      85.45098     131.23369      28.91366      27.33870       1.00000       0.35943     974.83716    2349.12134       0.00000    4578.64160     257.21341 
  10177.50000       0.00000      47.54413     251.95357       0.33319      89.75988     132.33383      28.91923      27.28711       1.00000       0.35979     979.85388    2364.57983       0.00000    4578.84521     257.23541 
  10178.00000       0.00000      48.68656     255.58656       0.33522      92.01271     133.11975      28.76572      27.50478       1.00000       0.36617     981.87079    2375.36108       0.00000    4579.15527     257.25299 
  10178.50000       0.00534      50.34103     246.80931       0.34012      88.54684     139.50453      28.88275      27.80811       0.99534       0.36835     970.21338    2340.73486       0.00057    4579.37158     257.26443 
  10179.00000       0.00242      49.25058     229.99765       0.34213      89.61165     141.68193      29.32030      28.19293       0.99790       0.36178     929.64203    2233.70874       0.00026    4579.64551     257.28198 
  10179.50000       0.00000      49.06943     215.06799       0.34351      97.74694     142.93059      29.70914      28.48222       1.00000       0.35111     892.16290    2136.70190       0.00000    4579.84473     257.29953 
  10180.00000       0.00000      47.69510     218.45099       0.34115      93.14478     143.25697      29.81792      28.43993       1.00000       0.35191     881.39453    2096.70435       0.00000    4580.09180     257.31100 
  10180.50000       0.00000      46.59114     232.84666       0.34590      94.21994     142.18753      29.54009      28.13713       1.00000       0.36318     878.10571    2119.22754       0.00000    4580.37891     257.32297 
  10181.00000       0.00000      47.71101     245.35216       0.35823      90.79337     136.54150      29.38635      27.86012       1.00000       0.38245     870.18677    2185.12866       0.00000    4580.58838     257.33575 
  10181.50000       0.00741      50.89573     254.49162       0.36509      88.10747     130.22780      29.70525      28.14776       0.99329       0.40236     886.68469    2288.64746       0.00108    4580.80322     257.34723 
  10182.00000       0.04888      56.16861     255.37616       0.36977      85.82801     125.88360      29.86013      28.66211       0.95497       0.42134     896.42987    2355.93506       0.00891    4580.98438     257.36154 
  10182.50000       0.00561      60.17792     259.56638       0.37308      82.34243     123.26659      30.29245      29.02914       0.99481       0.42754     891.64423    2369.33862       0.00104    4581.21680     257.37128 
  10183.00000       0.00000      61.61950     260.76318       0.37338      84.57713     120.03452      30.51049      29.46495       1.00000       0.42097     873.87421    2332.34863       0.00000    4581.45312     257.38126 
  10183.50000       0.00000      61.63420     267.07379       0.36699      84.06828     118.89146      31.12603      30.06112       1.00000       0.40494     868.29382    2283.55469       0.00000    4581.72168     257.38892 
  10184.00000       0.00000      60.42997     271.75125       0.36550      81.55822     121.97137      31.42426      30.27366       1.00000       0.39309     855.62164    2223.23364       0.00000    4581.93457     257.39923 
  10184.50000       0.00000      56.53081     275.90912       0.35307      83.78416     122.52342      31.69405      30.14485       1.00000       0.37678     869.77692    2195.98877       0.00000    4582.21924     257.40875 
  10185.00000       0.00000      54.10537     279.68616       0.34311      85.89972     125.32404      31.48210      29.52620       1.00000       0.35358     897.56274    2210.94971       0.00000    4582.45996     257.41888 
  10185.50000       0.00000      51.48046     285.03592       0.32648      84.94917     129.46649      30.96794      28.46032       1.00000       0.32403     961.12146    2276.44019       0.00000    4582.71484     257.43301 
