~Version Information
VERS  .          2.0                              :CWLS Log Ascii Standard - Version 2.0
WRAP  .          NO                               :One line per depth step
~Well Information Block
#MNEM.UNIT       Data Type                        Information
#---------       ---------                        -------------------------------
STRT  .F         9700.00000                       :START DEPTH
STOP  .F         10600.00000                      :STOP DEPTH
STEP  .F          0.50000                         :INCREMENT
NULL  .          -999.25                          :NULL DATA VALUE
COMP  .          DENBURY ONSHORE, LLC             :COMPANY
WELL  .          CFU 31F #1                       :WELL
FLD   .          CRANFIELD FIELD UNIT             :FIELD
LOC   .                                           :LOCATION
PROV  .                                           :PROVINCE
STAT  .                                           :STATE
CNTY  .                                           :COUNTY
CTRY  .                                           :COUNTRY
DATE  .                                           :DATE
UWI   .          CFU 31F #1                       :UNIQUE WELL UWI
LIC   .                                           :LICENSE NUMBER
API   .          23-037-21488-0000                :API NUMBER
SRVC  .                                           :SERVICE COMPANY
~Parameter Information Block
#MNEM.UNIT       Value                            Description
#---------       ---------                        -------------
PDAT  .          GROUND LEVEL                     :Permanent Datum               
EPD   .ft        315.70                           :Elevation of Permanent Datum (PDAT) above Mean Sea Level
LMF   .          KELLY BUSHING                    :Logging Measured From (Name of Working Datum)
APD   .ft        18.00                            :Elevation of Working Datum (LMF) Above Permanent Datum
EDF   .ft        332.70                           :Elevation of Derrick Floor Above Mean Sea Level
EGL   .ft        315.70                           :Elevation of Ground Level Above Mean Sea Level
EKB   .ft        333.70                           :Elevation of Kelly Bushing Above Mean Sea Level
~Curve Information Block
#MNEM.UNIT       API Code            Curve    Description
#--------        --------------      -----    -------------------
DEPT  .F                             :0       Index
SXGA  .                              :1       CO2 Saturation
GR    .GAPI                          :2       Gamma Ray                     
INFD_TDTL.CPS                        :3       Gross Inelastic Count Rate Far Detector (TDT-like)
PHIC  .V/V                           :4       TDT Count Rate Porosity       
QGD   .BB/D                          :5       Downhole CO2 Injection rate (Low Rate)
QTDH  .BB/D                          :6       Downhole CO2 Injection rate (High Rate)
SBNA  .CU                            :7       RST Sigma Borehole Near Apparent
SIBH_TDTL.CU                         :8       Sigma Borehole Corrected (TDT-like)
SIGM  .CU                            :9       Formation Sigma (Neutron Capture Cross Section)
SIGM_TDTL.CU                         :10      Formation Sigma (Neutron Capture Cros Section) (TDT-like)
SW    .V/V                           :11      Water Saturation Computed by Delta Sigma Method             
SXWI  .V/V                           :12      Non-Clay Water Intergranular Water Saturation for the Flushed Zone
TPHI  .V/V                           :13      Thermal Decay Porosity        
TSCF_TDTL.CPS                        :14      Total Selected Count Rate Far Detector (TDT-like)
TSCN_TDTL.CPS                        :15      Total Selected Count Rate Near Detector (TDT-like)
VXGA  .V/V                           :16      Volume of Gas in Flushed Zone 
WPRE  .PSI                           :17      Well Pressure                 
WTEP  .DEGF                          :18      Well Temperature              
~Ascii Data Section
# ...
  10120.00000       0.00000      49.78685     302.48370       0.37490    -999.25000    -999.25000      74.17873     108.64491      30.94165      30.03946       1.00000       1.00000       0.42002     809.83362    2205.21216       0.00000    5636.78076     189.67992 
  10120.50000       0.00000      48.69638     303.43347       0.37083    -999.25000    -999.25000      77.42340     108.86901      30.63797      29.76375       1.00000       1.00000       0.41428     825.79297    2231.96997       0.00000    5636.93555     189.68797 
  10121.00000       0.00000      48.18414     299.27100       0.36633    -999.25000    -999.25000      77.92113     111.48846      30.65013      29.50437       1.00000       1.00000       0.40244     851.82098    2272.85352       0.00000    5637.01807     189.69687 
  10121.50000       0.00000      46.96946     290.16953       0.35811    -999.25000    -999.25000      78.69141     114.01942      30.46477      29.26612       1.00000       1.00000       0.38856     885.51843    2314.98560       0.00000    5637.16064     189.70630 
  10122.00000       0.00000      46.54553     289.37021       0.35076    -999.25000    -999.25000      78.37080     113.34029      30.20927      28.86974       1.00000       1.00000       0.37763     905.84937    2338.22119       0.00000    5637.31982     189.72112 
  10122.50000       0.00000      47.79693     292.31610       0.34545    -999.25000    -999.25000      79.62132     111.74780      29.74576      28.34658       1.00000       1.00000       0.37304     922.59485    2366.26416       0.00000    5637.52051     189.73561 
  10123.00000       0.00000      49.33105     302.00726       0.34319    -999.25000    -999.25000      78.20917     112.17258      29.38029      27.60563       0.96466       1.00000       0.37506     948.21149    2425.93530       0.00000    5637.60547     189.74550 
  10123.50000       0.00000      49.18533     307.04358       0.34416    -999.25000    -999.25000      76.90488     111.85393      28.97890      27.10326       0.90808       1.00000       0.37833     962.96344    2474.55542       0.00000    5637.72852     189.75705 
  10124.00000       0.00000      48.13646     304.79501       0.34517    -999.25000    -999.25000      78.67752     111.10256      28.48836      26.95377       0.84276       1.00000       0.38269     962.93842    2483.69116       0.00000    5637.91553     189.77112 
  10124.50000       0.00000      46.49644     302.46667       0.34740    -999.25000    -999.25000      77.71459     111.82917      28.52199      27.20414       0.82931       1.00000       0.38506     956.59326    2474.78442       0.00000    5638.04785     189.78566 
  10125.00000       0.00000      46.66092     298.38068       0.35099    -999.25000    -999.25000      77.14371     112.62268      29.15211      27.56472       0.86951       1.00000       0.38621     945.30823    2458.85449       0.00000    5638.18799     189.80038 
  10125.50000       0.00000      46.73989     295.78140       0.34757    -999.25000    -999.25000      77.65101     111.30201      29.89808      27.95271       0.94443       1.00000       0.38555     937.58344    2423.69531       0.00000    5638.25879     189.80560 
  10126.00000       0.00000      46.58419     291.59109       0.34668    -999.25000    -999.25000      79.69202     110.45865      29.92627      28.14995       0.97001       1.00000       0.38548     919.84613    2372.91846       0.00000    5638.42041     189.80371 
  10126.50000       0.00000      47.43746     291.51706       0.34678    -999.25000    -999.25000      76.76001     110.57677      29.57205      28.18563       0.92915       1.00000       0.38463     910.42969    2346.61865       0.00000    5638.59229     189.80421 
  10127.00000       0.00000      47.75307     293.71204       0.34922    -999.25000    -999.25000      76.97261     109.72624      29.50888      28.29292       0.93251       1.00000       0.38685     899.31512    2332.45312       0.00000    5638.73193     189.80682 
  10127.50000       0.00000      47.12474     292.77948       0.35057    -999.25000    -999.25000      77.58714     106.94148      30.07126      28.61583       0.95164       1.00000       0.39184     877.75909    2290.24707       0.00000    5638.82129     189.81027 
  10128.00000       0.00000      45.53957     291.15955       0.36096    -999.25000    -999.25000      75.79436     107.58041      30.85608      29.35271       0.99213       1.00000       0.40457     837.63757    2224.10791       0.00000    5638.94971     189.81696 
  10128.50000       0.00000      45.80614     292.99130       0.37118    -999.25000    -999.25000      73.26872     109.95525      31.51612      30.25373       1.00000       1.00000       0.41493     801.13861    2153.86670       0.00000    5639.14941     189.82410 
  10129.00000       0.00000      48.16759     291.80661       0.37845    -999.25000    -999.25000      78.91930     110.31193      32.14123      31.02351       1.00000       1.00000       0.42143     766.51550    2081.59204       0.00000    5639.31348     189.83234 
  10129.50000       0.00000      50.31133     279.26636       0.38583    -999.25000    -999.25000      79.53566     109.36471      32.49594      31.46429       1.00000       1.00000       0.42410     734.64191    2022.43958       0.00000    5639.40088     189.83553 
  10130.00000       0.00000      50.59984     259.01797       0.40022    -999.25000    -999.25000      76.99768     110.93166      32.65605      31.58954       1.00000       1.00000       0.43677     703.03613    1984.77502       0.00000    5639.53906     189.83371 
  10130.50000       0.00000      50.88096     236.70914       0.40713    -999.25000    -999.25000      74.37496     109.56694      32.36963      31.70175       0.96593       1.00000       0.45686     681.42444    1953.47815       0.00000    5639.65430     189.83658 
  10131.00000       0.00000      50.23504     222.68935       0.41497    -999.25000    -999.25000      73.04990     107.82429      31.88483      31.74115       0.89914       1.00000       0.47648     660.15857    1926.45520       0.00000    5639.77539     189.84285 
  10131.50000       0.00000      48.83542     222.33228       0.42380    -999.25000    -999.25000      74.58505     107.29017      31.76774      31.62119       0.90485       1.00000       0.48299     648.05035    1926.47461       0.00000    5639.90820     189.84639 
  10132.00000       0.00000      48.63372     238.11081       0.42211    -999.25000    -999.25000      77.46481     107.31060      32.21824      31.61837       0.99461       1.00000       0.47690     655.91266    1944.51697       0.00000    5640.05518     189.84865 
  10132.50000       0.00000      49.43405     264.82605       0.41381    -999.25000    -999.25000      78.50172     106.75038      32.69654      31.96084       1.00000       1.00000       0.46438     666.83569    1946.37268       0.00000    5640.19873     189.85170 
  10133.00000       0.00000      50.23085     283.50211       0.40872    -999.25000    -999.25000      77.79285     107.75409      32.81705      32.07307       1.00000       1.00000       0.45206     682.67725    1969.62268       0.00000    5640.38818     189.85320 
  10133.50000       0.00000      51.16650     291.56638       0.40399    -999.25000    -999.25000      75.70838     107.91106      32.70831      32.00914       1.00000       1.00000       0.44508     700.04584    2002.37207       0.00000    5640.56885     189.85666 
  10134.00000       0.00000      51.18246     288.79150       0.39941    -999.25000    -999.25000      76.83282     106.41483      32.57663      32.02548       1.00000       1.00000       0.44363     712.69104    2027.60156       0.00000    5640.72852     189.86250 
  10134.50000       0.00000      49.58410     285.77011       0.40385    -999.25000    -999.25000      79.00227     107.09967      32.51210      31.81059       1.00000       1.00000       0.44631     717.73450    2061.06934       0.00000    5640.88184     189.87083 
