~Version Information
VERS  .          2.0                              :CWLS Log Ascii Standard - Version 2.0
WRAP  .          NO                               :One line per depth step
~Well Information Block
#MNEM.UNIT       Data Type                        Information
#---------       ---------                        -------------------------------
STRT  .F         9700.00000                       :START DEPTH
STOP  .F         10600.00000                      :STOP DEPTH
STEP  .F          0.50000                         :INCREMENT
NULL  .          -999.25                          :NULL DATA VALUE
COMP  .          DENBURY ONSHORE, LLC             :COMPANY
WELL  .          CFU 31F #1                       :WELL
FLD   .          CRANFIELD FIELD UNIT             :FIELD
LOC   .                                           :LOCATION
PROV  .                                           :PROVINCE
STAT  .                                           :STATE
CNTY  .                                           :COUNTY
CTRY  .                                           :COUNTRY
DATE  .                                           :DATE
UWI   .          CFU 31F #1                       :UNIQUE WELL UWI
LIC   .                                           :LICENSE NUMBER
API   .          23-037-21488-0000                :API NUMBER
SRVC  .                                           :SERVICE COMPANY
~Parameter Information Block
#MNEM.UNIT       Value                            Description
#---------       ---------                        -------------
PDAT  .          GROUND LEVEL                     :Permanent Datum               
EPD   .ft        315.70                           :Elevation of Permanent Datum (PDAT) above Mean Sea Level
LMF   .          KELLY BUSHING                    :Logging Measured From (Name of Working Datum)
APD   .ft        18.00                            :Elevation of Working Datum (LMF) Above Permanent Datum
EDF   .ft        332.70                           :Elevation of Derrick Floor Above Mean Sea Level
EGL   .ft        315.70                           :Elevation of Ground Level Above Mean Sea Level
EKB   .ft        333.70                           :Elevation of Kelly Bushing Above Mean Sea Level
~Curve Information Block
#MNEM.UNIT       API Code            Curve    Description
#--------        --------------      -----    -------------------
DEPT  .F                             :0       Index
SXGA  .                              :1       CO2 Saturation
GR    .GAPI                          :2       Gamma Ray                     
INFD_TDTL.CPS                        :3       Gross Inelastic Count Rate Far Detector (TDT-like)
PHIC  .V/V                           :4       TDT Count Rate Porosity       
SBNA  .CU                            :5       RST Sigma Borehole Near Apparent
SIBH_TDTL.CU                         :6       Sigma Borehole Corrected (TDT-like)
SIGM  .CU                            :7       Formation Sigma (Neutron Capture Cross Section)
SIGM_TDTL.CU                         :8       Formation Sigma (Neutron Capture Cros Section) (TDT-like)
SXWI  .V/V                           :9       Non-Clay Water Intergranular Water Saturation for the Flushed Zone
TPHI  .V/V                           :10      Thermal Decay Porosity        
TSCF_TDTL.CPS                        :11      Total Selected Count Rate Far Detector (TDT-like)
TSCN_TDTL.CPS                        :12      Total Selected Count Rate Near Detector (TDT-like)
VXGA  .V/V                           :13      Volume of Gas in Flushed Zone 
WPRE  .PSI                           :14      Well Pressure                 
WTEP  .DEGF                          :15      Well Temperature              
~Ascii Data Section
   9700.00000       0.00000      50.30270     263.21848       0.25537     101.08846     150.06828      27.93143      25.26087       1.00000       0.22812    1034.70618    2005.43494       0.00000    4356.48340     249.22173 
   9700.50000       0.00000      51.84686     254.90114       0.25054     101.48826     150.14166      28.31201      25.93011       1.00000       0.22777     964.33606    1857.94104       0.00000    4356.75732     249.22849 
   9701.00000       0.00000      51.83094     237.11902       0.22425     101.61966     149.90262      28.69586      26.28165       1.00000       0.22125     923.71277    1750.89636       0.00000    4356.98193     249.23247 
   9701.50000       0.00000      51.08523     233.78227       0.21160     101.39435     148.59709      28.96692      25.96997       1.00000       0.21001     933.18396    1716.94592       0.00000    4357.17090     249.23434 
   9702.00000       0.00000      52.25846     237.50145       0.21649     102.68519     150.43016      28.51683      25.14420       1.00000       0.21269     940.33063    1743.15430       0.00000    4357.42578     249.23875 
   9702.50000       0.00000      53.07379     253.62930       0.21656     100.48681     152.32188      27.51234      24.48532       1.00000       0.21968     956.92920    1750.04639       0.00000    4357.68994     249.24197 
   9703.00000       0.00000      53.63652     261.70700       0.24405     101.87516     152.82475      27.26113      24.12727       1.00000       0.23087     944.93048    1774.99170       0.00000    4357.91455     249.24625 
   9703.50000       0.00000      54.41582     262.00723       0.25021     101.69238     152.44983      27.99301      24.92292       1.00000       0.23447     931.57556    1767.52002       0.00000    4358.13916     249.24962 
   9704.00000       0.00000      55.83597     262.86514       0.25248     100.10298     153.21182      29.29480      26.42473       1.00000       0.24018     875.18939    1679.63367       0.00000    4358.35449     249.25121 
   9704.50000       0.00000      56.92863     262.16086       0.22257     101.42937     152.45396      30.31280      27.57725       1.00000       0.23775     848.99768    1595.10327       0.00000    4358.55273     249.25381 
   9705.00000       0.00000      58.22382     259.78162       0.21984      99.30887     151.16409      30.25946      27.61607       1.00000       0.23021     870.99738    1628.92834       0.00000    4358.76807     249.25858 
   9705.50000       0.00000      58.66483     252.51802       0.21088      98.52174     149.33118      29.50378      26.54431       1.00000       0.21151     981.69086    1807.95837       0.00000    4359.05566     249.26237 
   9706.00000       0.00000      56.70711     257.41708       0.21442     100.10036     147.52777      27.69371      24.43519       1.00000       0.19800    1138.46021    2096.87354       0.00000    4359.27344     249.26555 
   9706.50000       0.00000      54.13276     271.94861       0.20890     101.99905     143.26947      25.76382      22.55482       1.00000       0.18890    1374.86450    2426.84644       0.00000    4359.48730     249.26717 
   9707.00000       0.00000      50.72144     284.43335       0.19332     102.25101     141.26746      23.63547      21.03494       1.00000       0.18461    1656.88525    2863.12500       0.00000    4359.70557     249.26974 
   9707.50000       0.00000      45.70955     293.83301       0.19103      96.42637     136.37854      21.61058      19.87062       1.00000       0.18175    1898.91248    3335.16919       0.00000    4359.91748     249.27213 
   9708.00000       0.00000      39.47680     301.93872       0.17708      99.64611     133.53755      20.07611      18.37502       1.00000       0.17668    2214.08398    3809.11670       0.00000    4360.18018     249.27444 
   9708.50000       0.00000      34.96263     303.57034       0.17704      93.52039     130.81740      18.92580      17.38098       1.00000       0.17243    2407.38818    4195.62061       0.00000    4360.44580     249.27933 
   9709.00000       0.00000      31.44191     295.93015       0.18540      95.49924     130.78352      18.20646      16.77654       1.00000       0.17287    2390.15063    4273.21143       0.00000    4360.64404     249.28262 
   9709.50000       0.00000      29.45330     280.96115       0.19161      97.87122     129.65352      18.81299      17.00233       1.00000       0.18468    2206.20532    3987.68799       0.00000    4360.82861     249.28687 
   9710.00000       0.00000      29.89686     261.14557       0.21119      94.48678     132.29939      21.12588      17.63800       1.00000       0.21447    1816.23438    3409.17529       0.00000    4361.06836     249.29265 
   9710.50000       0.00000      34.67827     242.29639       0.22691      91.86577     134.48257      25.17255      19.51431       1.00000       0.23602    1430.06714    2735.25659       0.00000    4361.33105     249.29988 
   9711.00000       0.00000      41.69415     248.41368       0.25789      91.30996     134.57460      28.68720      23.04961       1.00000       0.25386    1005.98566    2040.41650       0.00000    4361.56201     249.30968 
   9711.50000       0.00000      47.36717     266.57181       0.24348      91.30587     134.30170      31.12868      26.17345       1.00000       0.25211     850.66852    1642.98999       0.00000    4361.82178     249.32249 
   9712.00000       0.00000      52.38683     291.79889       0.22673      90.88915     132.79843      31.55038      27.46008       1.00000       0.24755     805.70496    1560.09424       0.00000    4362.02197     249.32675 
   9712.50000       0.00000      54.82438     307.65460       0.21187      91.85678     129.20720      31.17651      27.62874       1.00000       0.23162     867.43054    1634.76917       0.00000    4362.25488     249.32726 
   9713.00000       0.00000      54.73454     311.20822       0.20591      90.79724     125.08996      30.84890      27.54227       1.00000       0.21669     917.91479    1716.49304       0.00000    4362.52002     249.32829 
   9713.50000       0.00000      51.93784     311.49323       0.19746      86.00723     123.96809      31.12564      27.37599       1.00000       0.20448     981.12903    1800.42456       0.00000    4362.72754     249.32860 
   9714.00000       0.00000      51.60450     313.38333       0.18714      88.44501     122.53031      31.43008      27.26389       1.00000       0.19343    1027.24597    1836.74084       0.00000    4362.95459     249.32822 
   9714.50000       0.00000      50.76338     320.37509       0.18179      91.71589     122.99238      31.25335      27.10756       1.00000       0.17863    1057.75159    1861.88220       0.00000    4363.16553     249.33009 
   9715.00000       0.00000      51.24634     319.25427       0.17861      90.92555     124.51621      30.90365      27.05151       1.00000       0.16433    1095.15857    1907.40076       0.00000    4363.46924     249.33272 
   9715.50000       0.00000      51.00606     312.16946       0.17754      92.39456     127.20873      30.74404      27.13150       1.00000       0.15951    1095.72852    1893.71741       0.00000    4363.69385     249.33206 
   9716.00000       0.00000      51.66772     303.84503       0.18657      94.38310     128.67860      30.84970      27.15937       1.00000       0.17191    1030.66858    1822.73877       0.00000    4363.89600     249.33354 
   9716.50000       0.00000      52.00723     293.03806       0.20305      96.23322     129.69295      31.78089      27.79610       1.00000       0.19960     950.87402    1756.67896       0.00000    4364.10791     249.33632 
   9717.00000       0.00000      52.31524     290.73523       0.22131      93.89925     132.39729      32.43484      28.32229       1.00000       0.23118     892.90411    1718.67456       0.00000    4364.31152     249.33972 
   9717.50000       0.00000      52.04974     290.28479       0.25654      89.68578     134.99251      32.48711      28.14051       1.00000       0.25663     815.76160    1670.02795       0.00000    4364.55420     249.34142 
