~Version Information
VERS  .          2.0                              :CWLS Log Ascii Standard - Version 2.0
WRAP  .          NO                               :One line per depth step
~Well Information Block
#MNEM.UNIT       Data Type                        Information
#---------       ---------                        -------------------------------
STRT  .F         9700.00000                       :START DEPTH
STOP  .F         10647.00000                      :STOP DEPTH
STEP  .F          0.50000                         :INCREMENT
NULL  .          -999.25                          :NULL DATA VALUE
COMP  .          DENBURY ONSHORE, LLC             :COMPANY
WELL  .          CFU 31F #1                       :WELL
FLD   .          CRANFIELD FIELD UNIT             :FIELD
LOC   .                                           :LOCATION
PROV  .                                           :PROVINCE
STAT  .                                           :STATE
CNTY  .                                           :COUNTY
CTRY  .                                           :COUNTRY
DATE  .                                           :DATE
UWI   .          CFU 31F #1                       :UNIQUE WELL UWI
LIC   .                                           :LICENSE NUMBER
API   .          23-037-21488-0000                :API NUMBER
SRVC  .                                           :SERVICE COMPANY
~Parameter Information Block
#MNEM.UNIT       Value                            Description
#---------       ---------                        -------------
PDAT  .          GROUND LEVEL                     :Permanent Datum               
EPD   .ft        315.70                           :Elevation of Permanent Datum (PDAT) above Mean Sea Level
LMF   .          KELLY BUSHING                    :Logging Measured From (Name of Working Datum)
APD   .ft        18.00                            :Elevation of Working Datum (LMF) Above Permanent Datum
EDF   .ft        332.70                           :Elevation of Derrick Floor Above Mean Sea Level
EGL   .ft        315.70                           :Elevation of Ground Level Above Mean Sea Level
EKB   .ft        333.70                           :Elevation of Kelly Bushing Above Mean Sea Level
~Curve Information Block
#MNEM.UNIT       API Code            Curve    Description
#--------        --------------      -----    -------------------
DEPT  .F                             :0       Index
AT10  .OHMM                          :1       Array Induction Two Foot Resistivity A10
AT20  .OHMM                          :2       Array Induction Two Foot Resistivity A20
AT30  .OHMM                          :3       Array Induction Two Foot Resistivity A30
AT60  .OHMM                          :4       Array Induction Two Foot Resistivity A60
AT90  .OHMM                          :5       Array Induction Two Foot Resistivity A90
BS    .IN                            :6       Bit Size                      
DT    .US/F                          :7       Delta-T (also called Slowness or Interval Transit Time)
GR    .GAPI                          :8       Gamma Ray                     
HCAL  .IN                            :9       HRCC Caliper Calibrated       
HTNP  .V/V                           :10      High Resolution Thermal Neutron Porosity (Ratio Method) in Sand Lithology
KINT  .MD                            :11      Intrinsic Permeability        
PHIT  .V/V                           :12      Total Porosity_ includes all forms of porosity, including that occupied by bound fluids, and is independent of rock and fluid materials and of environmental effects
PIGN  .V/V                           :13      Effective Porosity, VISO, VPAR, and Bound Water Removed
SUWI  .V/V                           :14      Non-Clay Water Intergranular Water Saturation for Undisturbed Zone
VCHL  .V/V                           :15      Volume of Chlorite Relative to Total Volume
VCLC  .V/V                           :16      Volume of Calcite Relative to Total Volume
VILL  .V/V                           :17      Volume of Illite (dry) Relative to Total Volume
VKAO  .V/V                           :18      Volume of Kaolinite (dry) Relative to Total Volume
VQUA  .V/V                           :19      Volume of Quartz Relative to Total Volume
VUIW  .V/V                           :20      Volume of Irreducible Water In Undisturbed Zone
VUWA  .V/V                           :21      Volume of Water in Undisturbed Zone
VXBW  .V/V                           :22      Volume of Bound Water in Flushed Zone
~Ascii Data Section
# ...
  10000.00000       2.82696       3.13513       3.30176       3.37497       3.44369       8.75000      75.83179      86.25607       9.08180       0.25046       0.13301       0.11989       0.09123       1.00000       0.08140       0.00000       0.14464       0.06405       0.59002       0.03906       0.05217       0.02866 
  10000.50000       3.29005       3.87678       3.78838       3.87686       3.79715       8.75000      76.93392      88.20539       8.99032       0.26340       0.09766       0.13039       0.09767       1.00000       0.08178       0.00000       0.20710       0.02010       0.56063       0.06431       0.03336       0.03272 
  10001.00000       2.57905       3.21661       3.30917       3.41168       3.33961       8.75000      81.51353      93.48052       9.16189       0.30296       0.28026       0.17184       0.13938       1.00000       0.06912       0.00000       0.21321       0.02821       0.51762       0.09504       0.04434       0.03246 
  10001.50000       2.00506       2.23382       2.29691       2.40555       2.26871       8.75000      84.33796      92.85491       9.99683       0.32039       0.73248       0.19717       0.16776       1.00000       0.05995       0.00000       0.17979       0.05394       0.50915       0.09390       0.07386       0.02941 
  10002.00000       2.14553       2.52235       2.71948       2.74529       2.63522       8.75000      79.50929      88.77164       9.53931       0.27865       1.86254       0.16951       0.14801       1.00000       0.06702       0.00000       0.07707       0.09206       0.59434       0.02691       0.12110       0.02150 
  10002.50000       2.96717       3.78734       3.78000       3.84326       3.57427       8.75000      78.94615      81.07227      10.11122       0.22188       1.44790       0.14884       0.12792       1.00000       0.07112       0.00000       0.08483       0.06175       0.63346       0.02678       0.10114       0.02093 
  10003.00000       3.71729       5.20387       5.14506       4.74214       4.29877       8.75000      72.33697      76.67248       9.05894       0.20168       0.21396       0.09843       0.07613       1.00000       0.09270       0.00000       0.07249       0.06623       0.67016       0.01227       0.06386       0.02230 
  10003.50000       3.96644       5.30872       5.85000       5.42269       4.97899       8.75000      70.42471      76.72105       9.07038       0.19396       0.08467       0.08794       0.06290       1.00000       0.09924       0.00000       0.11362       0.02696       0.67224       0.01967       0.04323       0.02504 
  10004.00000       3.59706       4.95314       5.27054       4.53403       4.20817       8.75000      72.99281      83.46673       9.51632       0.22134       0.09654       0.10445       0.07666       1.00000       0.09038       0.00000       0.13970       0.04230       0.62317       0.03141       0.04524       0.02780 
  10004.50000       2.65485       3.25387       3.37994       3.33547       3.06932       8.75000      77.10043      90.34892       9.21914       0.26442       0.27771       0.14126       0.11268       1.00000       0.07717       0.00000       0.15916       0.04496       0.57745       0.05436       0.05832       0.02857 
  10005.00000       2.24914       2.64194       2.69430       2.82840       2.57801       8.75000      79.80991      91.80868      10.27131       0.27749       0.30828       0.15406       0.12488       1.00000       0.06604       0.00000       0.16325       0.06790       0.54874       0.06217       0.06271       0.02918 
  10005.50000       2.27923       2.67619       2.78417       2.88224       2.65441       8.75000      79.68968      95.38503      10.08827       0.27228       0.12533       0.14202       0.11000       1.00000       0.06390       0.00000       0.18881       0.07338       0.53188       0.06504       0.04495       0.03202 
  10006.00000       2.35795       2.76794       2.95538       2.98468       2.77426       8.75000      80.81577      98.11607      10.43144       0.26865       0.03797       0.13653       0.09890       1.00000       0.06163       0.00000       0.25551       0.05195       0.49438       0.08273       0.01617       0.03763 
  10006.50000       2.30132       2.71237       2.86797       2.90211       2.73478       8.75000      79.38406     102.35996      10.13411       0.28620       0.01847       0.13033       0.09005       1.00000       0.06442       0.00000       0.27575       0.05441       0.47509       0.08202       0.00803       0.04027 
  10007.00000       2.26714       2.68049       2.84275       2.84909       2.83793       8.75000      78.58498      97.25137      10.54578       0.29626       0.02514       0.13215       0.09306       1.00000       0.06932       0.00000       0.25998       0.05372       0.48483       0.07936       0.01370       0.03909 
  10007.50000       2.19063       2.61060       2.70250       2.76657       2.71222       8.75000      82.58582      98.33103      10.91168       0.32058       0.02935       0.15688       0.11498       1.00000       0.06109       0.00000       0.30155       0.04171       0.43877       0.11498       0.00000       0.04190 
  10008.00000       1.95145       2.30320       2.36778       2.40993       2.37807       8.75000      82.50580      99.92618      10.82028       0.31677       0.05524       0.16233       0.12326       1.00000       0.05939       0.00000       0.27006       0.05383       0.45439       0.10973       0.01354       0.03906 
  10008.50000       1.74152       1.97634       2.03843       2.10526       2.12752       8.75000      84.55246     107.65744      11.18626       0.34508       0.04399       0.17876       0.13718       1.00000       0.04831       0.00000       0.29791       0.06628       0.40874       0.13613       0.00105       0.04158 
  10009.00000       1.61653       1.75935       1.80576       1.84954       1.80292       8.75000      87.08850     113.87656      11.20909       0.34605       0.03037       0.18723       0.14311       1.00000       0.03888       0.00000       0.33107       0.06686       0.37595       0.14311       0.00000       0.04413 
  10009.50000       1.54892       1.70657       1.76332       1.77047       1.76045       8.75000      86.90195     112.00708      10.93462       0.35616       0.01545       0.17888       0.13206       1.00000       0.04330       0.00000       0.34977       0.06978       0.35826       0.13206       0.00000       0.04682 
  10010.00000       1.55762       1.79600       1.85743       1.86757       1.84622       8.75000      87.27082     109.14600      10.91184       0.37394       0.01000       0.17897       0.12964       1.00000       0.04603       0.00000       0.37358       0.06388       0.33755       0.12964       0.00000       0.04932 
  10010.50000       1.81147       2.12268       2.23246       2.21722       2.17378       8.75000      86.16454     107.89478      11.07193       0.35784       0.01109       0.17076       0.12291       1.00000       0.04721       0.00000       0.35782       0.06527       0.35894       0.12291       0.00000       0.04785 
  10011.00000       2.16286       2.63307       2.59671       2.57062       2.49102       8.75000      84.80898     109.83808      10.93467       0.34684       0.01433       0.16828       0.12181       1.00000       0.04831       0.00000       0.34958       0.05533       0.37849       0.12181       0.00000       0.04647 
  10011.50000       2.32841       2.79282       2.79132       2.81744       2.78721       8.75000      83.57120     113.72646      10.58011       0.32189       0.01935       0.16115       0.11711       1.00000       0.04722       0.00000       0.32600       0.05908       0.40655       0.11711       0.00000       0.04404 
  10012.00000       2.54013       2.92548       3.14888       3.17145       3.03374       8.75000      80.23402     111.14024      10.77450       0.31058       0.01681       0.14477       0.10191       1.00000       0.05463       0.00000       0.31070       0.05311       0.43679       0.10191       0.00000       0.04286 
