~Version Information
VERS  .          2.0                              :CWLS Log Ascii Standard - Version 2.0
WRAP  .          NO                               :One line per depth step
~Well Information Block
#MNEM.UNIT       Data Type                        Information
#---------       ---------                        -------------------------------
STRT  .F         9700.00000                       :START DEPTH
STOP  .F         10600.00000                      :STOP DEPTH
STEP  .F          0.50000                         :INCREMENT
NULL  .          -999.25                          :NULL DATA VALUE
COMP  .          DENBURY ONSHORE, LLC             :COMPANY
WELL  .          CFU 31F #1                       :WELL
FLD   .          CRANFIELD FIELD UNIT             :FIELD
LOC   .                                           :LOCATION
PROV  .                                           :PROVINCE
STAT  .                                           :STATE
CNTY  .                                           :COUNTY
CTRY  .                                           :COUNTRY
DATE  .                                           :DATE
UWI   .          CFU 31F #1                       :UNIQUE WELL UWI
LIC   .                                           :LICENSE NUMBER
API   .          23-037-21488-0000                :API NUMBER
SRVC  .                                           :SERVICE COMPANY
~Parameter Information Block
#MNEM.UNIT       Value                            Description
#---------       ---------                        -------------
PDAT  .          GROUND LEVEL                     :Permanent Datum               
EPD   .ft        315.70                           :Elevation of Permanent Datum (PDAT) above Mean Sea Level
LMF   .          KELLY BUSHING                    :Logging Measured From (Name of Working Datum)
APD   .ft        18.00                            :Elevation of Working Datum (LMF) Above Permanent Datum
EDF   .ft        332.70                           :Elevation of Derrick Floor Above Mean Sea Level
EGL   .ft        315.70                           :Elevation of Ground Level Above Mean Sea Level
EKB   .ft        333.70                           :Elevation of Kelly Bushing Above Mean Sea Level
~Curve Information Block
#MNEM.UNIT       API Code            Curve    Description
#--------        --------------      -----    -------------------
DEPT  .F                             :0       Index
SXGA  .                              :1       CO2 Saturation
GR    .GAPI                          :2       Gamma Ray                     
INFD_TDTL.CPS                        :3       Gross Inelastic Count Rate Far Detector (TDT-like)
PHIC  .V/V                           :4       TDT Count Rate Porosity       
QGD   .BB/D                          :5       Downhole CO2 Injection rate (Low Rate)
QTDH  .BB/D                          :6       Downhole CO2 Injection rate (High Rate)
SBNA  .CU                            :7       RST Sigma Borehole Near Apparent
SIBH_TDTL.CU                         :8       Sigma Borehole Corrected (TDT-like)
SIGM  .CU                            :9       Formation Sigma (Neutron Capture Cross Section)
SIGM_TDTL.CU                         :10      Formation Sigma (Neutron Capture Cros Section) (TDT-like)
SW    .V/V                           :11      Water Saturation Computed by Delta Sigma Method             
SXWI  .V/V                           :12      Non-Clay Water Intergranular Water Saturation for the Flushed Zone
TPHI  .V/V                           :13      Thermal Decay Porosity        
TSCF_TDTL.CPS                        :14      Total Selected Count Rate Far Detector (TDT-like)
TSCN_TDTL.CPS                        :15      Total Selected Count Rate Near Detector (TDT-like)
VXGA  .V/V                           :16      Volume of Gas in Flushed Zone 
WPRE  .PSI                           :17      Well Pressure                 
WTEP  .DEGF                          :18      Well Temperature              
~Ascii Data Section
# ...
   9760.00000       0.00000      57.74802     301.34720       0.32347    -999.25000    -999.25000      85.38820     119.78183      32.10208      28.50823       1.00000       1.00000       0.35736     773.22662    1830.13794       0.00000    5522.91211     183.78122 
   9760.50000       0.00000      57.39717     300.07126       0.33182    -999.25000    -999.25000      81.16512     121.68590      31.49279      28.73032       1.00000       1.00000       0.36225     759.23492    1823.08057       0.00000    5523.13281     183.78122 
   9761.00000       0.00000      57.12943     296.15152       0.33504    -999.25000    -999.25000      79.44217     120.97321      32.09644      29.06001       1.00000       1.00000       0.36116     744.50769    1799.16235       0.00000    5523.18164     183.77550 
   9761.50000       0.00000      59.35468     294.28683       0.33421    -999.25000    -999.25000      86.24248     118.36362      32.20200      28.15495       1.00000       1.00000       0.35656     742.77820    1806.95349       0.00000    5523.44385     183.76518 
   9762.00000       0.00000      62.75346     296.02002       0.32953    -999.25000    -999.25000      79.93378     120.10732      32.61496      28.32552       1.00000       1.00000       0.35066     749.85193    1797.99756       0.00000    5523.58789     183.73848 
   9762.50000       0.00000      65.22983     292.70273       0.33094    -999.25000    -999.25000      82.21791     122.12150      32.44030      28.44429       1.00000       1.00000       0.34707     738.03113    1766.07324       0.00000    5523.64600     183.69556 
   9763.00000       0.00000      66.29623     297.18362       0.32420    -999.25000    -999.25000      81.61908     119.56624      32.32071      28.95725       1.00000       1.00000       0.34176     727.16809    1714.67065       0.00000    5523.84912     183.66827 
   9763.50000       0.00000      67.19547     295.31516       0.32123    -999.25000    -999.25000      82.40714     117.88367      33.07437      29.58755       1.00000       1.00000       0.33157     716.22247    1674.46045       0.00000    5524.06299     183.64886 
   9764.00000       0.00000      67.90944     299.24600       0.31997    -999.25000    -999.25000      80.92294     116.79062      34.49017      30.38912       1.00000       1.00000       0.31893     694.39386    1610.30127       0.00000    5524.20898     183.63559 
   9764.50000       0.00000      67.81277     302.28955       0.27268    -999.25000    -999.25000      79.77849     115.73467      35.33288      31.23031       1.00000       1.00000       0.31012     698.34888    1550.79724       0.00000    5524.38525     183.62018 
   9765.00000       0.00000      67.03866     301.68753       0.30584    -999.25000    -999.25000      79.69977     116.45683      35.31173      30.89854       1.00000       1.00000       0.30671     681.90216    1516.20117       0.00000    5524.42773     183.60966 
   9765.50000       0.00000      66.58440     299.68292       0.30314    -999.25000    -999.25000      80.08450     116.00950      34.94260      30.68596       1.00000       1.00000       0.30798     674.68768    1492.44983       0.00000    5524.69824     183.60809 
   9766.00000       0.00000      69.88821     298.33649       0.25507    -999.25000    -999.25000      86.28692     118.14449      34.91320      30.91992       1.00000       1.00000       0.31239     693.85767    1471.71497       0.00000    5524.75049     183.61386 
   9766.50000       0.00000      67.57404     301.40253       0.24148    -999.25000    -999.25000      78.04876     117.74294      34.67152      30.60703       1.00000       1.00000       0.30773     727.51843    1496.56934       0.00000    5525.02295     183.61998 
   9767.00000       0.00000      65.06908     299.13327       0.24920    -999.25000    -999.25000      79.79465     118.42434      33.82214      29.47352       1.00000       1.00000       0.29226     744.60938    1555.21997       0.00000    5525.01562     183.63066 
   9767.50000       0.00000      63.64040     297.47900       0.26674    -999.25000    -999.25000      80.54891     117.81182      32.35696      28.36713       1.00000       1.00000       0.26452     797.61865    1630.48901       0.00000    5525.11426     183.64415 
   9768.00000       0.00000      63.29613     299.93512       0.26597    -999.25000    -999.25000      84.51624     117.53896      31.40804      27.68430       1.00000       1.00000       0.24778     807.56982    1659.18811       0.00000    5525.41113     183.65137 
   9768.50000       0.00000      56.94597     302.03427       0.27111    -999.25000    -999.25000      87.40462     119.17886      31.21069      27.65168       1.00000       1.00000       0.24871     790.56744    1641.97241       0.00000    5525.39404     183.65848 
   9769.00000       0.00000      57.12456     283.05191       0.28421    -999.25000    -999.25000      82.95460     120.19313      32.94101      28.47822       1.00000       1.00000       0.26934     734.90576    1564.31958       0.00000    5525.74951     183.67143 
   9769.50000       0.00000      58.55857     264.35690       0.29147    -999.25000    -999.25000      83.12385     121.22962      34.80331      29.35480       1.00000       1.00000       0.29569     679.07196    1455.40613       0.00000    5525.84912     183.68446 
   9770.00000       0.00000      57.92800     250.29738       0.31377    -999.25000    -999.25000      79.61440     121.76292      36.77261      30.83988       1.00000       1.00000       0.32190     595.74060    1329.44702       0.00000    5526.00586     183.69437 
   9770.50000       0.00000      57.48154     237.99564       0.27147    -999.25000    -999.25000      80.92915     123.85480      36.73436      31.84986       1.00000       1.00000       0.33906     579.40967    1255.33118       0.00000    5526.03711     183.70134 
   9771.00000       0.00000      58.73618     245.70605       0.31245    -999.25000    -999.25000      81.78923     124.49123      35.94768      31.06642       1.00000       1.00000       0.34630     583.46118    1286.14978       0.00000    5526.20703     183.71397 
   9771.50000       0.00000      58.58597     249.74947       0.30010    -999.25000    -999.25000      82.24570     122.74435      34.40204      30.00899       1.00000       1.00000       0.32993     625.42169    1355.16052       0.00000    5526.30127     183.72939 
   9772.00000       0.00000      56.93280     282.65408       0.29453    -999.25000    -999.25000      83.64085     120.10918      33.78908      29.52983       1.00000       1.00000       0.30684     661.27759    1428.59460       0.00000    5526.37354     183.74019 
   9772.50000       0.00000      58.99205     295.02109       0.24264    -999.25000    -999.25000      78.93670     118.70969      32.99037      29.25579       1.00000       1.00000       0.27847     723.96820    1484.22253       0.00000    5526.58203     183.75369 
   9773.00000       0.00000      59.97525     305.88571       0.26980    -999.25000    -999.25000      81.69986     117.43649      32.96843      28.59657       1.00000       1.00000       0.26275     757.38165    1556.36633       0.00000    5526.70410     183.76840 
   9773.50000       0.00000      59.53464     309.68094       0.23486    -999.25000    -999.25000      84.60169     116.94373      32.50277      28.60164       1.00000       1.00000       0.25372     770.62140    1556.38855       0.00000    5526.83789     183.78767 
   9774.00000       0.00000      59.55541     310.51358       0.23690    -999.25000    -999.25000      86.95630     121.34827      33.01003      28.54433       1.00000       1.00000       0.25628     764.83484    1542.42615       0.00000    5526.97070     183.80811 
   9774.50000       0.00000      57.32186     306.49280       0.24063    -999.25000    -999.25000      84.38374     123.74562      33.28606      29.02112       1.00000       1.00000       0.26262     732.34772    1484.26978       0.00000    5527.01758     183.83562 
