~Version Information
VERS  .          2.0                              :CWLS Log Ascii Standard - Version 2.0
WRAP  .          NO                               :One line per depth step
~Well Information Block
#MNEM.UNIT       Data Type                        Information
#---------       ---------                        -------------------------------
STRT  .F         9700.00000                       :START DEPTH
STOP  .F         10600.00000                      :STOP DEPTH
STEP  .F          0.50000                         :INCREMENT
NULL  .          -999.25                          :NULL DATA VALUE
COMP  .          DENBURY ONSHORE, LLC             :COMPANY
WELL  .          CFU 31F #1                       :WELL
FLD   .          CRANFIELD FIELD UNIT             :FIELD
LOC   .                                           :LOCATION
PROV  .                                           :PROVINCE
STAT  .                                           :STATE
CNTY  .                                           :COUNTY
CTRY  .                                           :COUNTRY
DATE  .                                           :DATE
UWI   .          CFU 31F #1                       :UNIQUE WELL UWI
LIC   .                                           :LICENSE NUMBER
API   .          23-037-21488-0000                :API NUMBER
SRVC  .                                           :SERVICE COMPANY
~Parameter Information Block
#MNEM.UNIT       Value                            Description
#---------       ---------                        -------------
PDAT  .          GROUND LEVEL                     :Permanent Datum               
EPD   .ft        315.70                           :Elevation of Permanent Datum (PDAT) above Mean Sea Level
LMF   .          KELLY BUSHING                    :Logging Measured From (Name of Working Datum)
APD   .ft        18.00                            :Elevation of Working Datum (LMF) Above Permanent Datum
EDF   .ft        332.70                           :Elevation of Derrick Floor Above Mean Sea Level
EGL   .ft        315.70                           :Elevation of Ground Level Above Mean Sea Level
EKB   .ft        333.70                           :Elevation of Kelly Bushing Above Mean Sea Level
~Curve Information Block
#MNEM.UNIT       API Code            Curve    Description
#--------        --------------      -----    -------------------
DEPT  .F                             :0       Index
SXGA  .                              :1       CO2 Saturation
GR    .GAPI                          :2       Gamma Ray                     
INFD_TDTL.CPS                        :3       Gross Inelastic Count Rate Far Detector (TDT-like)
PHIC  .V/V                           :4       TDT Count Rate Porosity       
SBNA  .CU                            :5       RST Sigma Borehole Near Apparent
SIBH_TDTL.CU                         :6       Sigma Borehole Corrected (TDT-like)
SIGM  .CU                            :7       Formation Sigma (Neutron Capture Cross Section)
SIGM_TDTL.CU                         :8       Formation Sigma (Neutron Capture Cros Section) (TDT-like)
SXWI  .V/V                           :9       Non-Clay Water Intergranular Water Saturation for the Flushed Zone
TPHI  .V/V                           :10      Thermal Decay Porosity        
TSCF_TDTL.CPS                        :11      Total Selected Count Rate Far Detector (TDT-like)
TSCN_TDTL.CPS                        :12      Total Selected Count Rate Near Detector (TDT-like)
VXGA  .V/V                           :13      Volume of Gas in Flushed Zone 
WPRE  .PSI                           :14      Well Pressure                 
WTEP  .DEGF                          :15      Well Temperature              
~Ascii Data Section
# ...
  10528.00000       0.00000      59.10495     386.24344       0.16539      99.54814     128.88138      24.25632      21.71511       1.00000       0.14865    1808.12488    3085.48218       0.00000    4746.94287     264.15323 
  10528.50000       0.00000      57.55183     391.90283       0.19500      99.94285     130.48750      22.93711      20.77349       1.00000       0.14541    1809.78345    3219.92310       0.00000    4747.29883     264.17072 
  10529.00000       0.00000      54.87989     381.61349       0.19248      99.44588     131.36214      23.44326      21.32569       1.00000       0.15512    1804.76392    3160.01782       0.00000    4747.51807     264.17941 
  10529.50000       0.00000      54.96618     370.82251       0.20845      98.29636     134.65933      26.08144      22.26886       1.00000       0.18330    1566.59021    2832.58618       0.00000    4747.81055     264.20206 
  10530.00000       0.00000      58.16861     363.37228       0.24700      93.94279     136.71701      28.48587      24.36952       1.00000       0.22292    1175.87976    2310.17603       0.00000    4747.98096     264.21600 
  10530.50000       0.00000      63.14787     360.60184       0.27032      93.47641     140.61446      31.47233      26.97849       1.00000       0.26665     957.42932    1932.31531       0.00000    4748.23828     264.21909 
  10531.00000       0.00000      65.73640     359.04523       0.26792      87.83863     141.19362      33.52446      29.83947       1.00000       0.29623     781.59448    1661.83398       0.00000    4748.51074     264.22363 
  10531.50000       0.00000      69.04314     358.44128       0.29679      90.47984     140.81047      35.47089      31.62429       1.00000       0.31023     680.30933    1538.06433       0.00000    4748.76270     264.22763 
  10532.00000       0.00000      69.98888     361.43073       0.31172      91.22488     134.98515      36.43857      32.74399       1.00000       0.31181     631.61426    1485.25342       0.00000    4749.11572     264.23267 
  10532.50000       0.00000      70.82381     366.37766       0.31185      86.80816     131.12335      37.27692      32.91865       1.00000       0.31486     639.14087    1514.41077       0.00000    4749.31592     264.23495 
  10533.00000       0.00000      72.16286     360.98856       0.30322      85.53211     129.03026      36.75521      31.92892       1.00000       0.30908     678.51892    1582.53198       0.00000    4749.63281     264.23380 
  10533.50000       0.00000      72.68431     371.38010       0.29383      83.63668     126.56852      35.48108      31.72547       1.00000       0.29868     714.30896    1643.62256       0.00000    4749.86670     264.23874 
  10534.00000       0.00000      71.87343     371.92596       0.28525      88.01958     127.36241      34.01786      30.94815       1.00000       0.28559     760.06470    1715.86523       0.00000    4750.14746     264.25015 
  10534.50000       0.00000      72.11262     361.36902       0.27334      87.64440     130.94101      33.57752      30.71638       1.00000       0.28375     794.31952    1741.83655       0.00000    4750.37012     264.26263 
  10535.00000       0.00000      69.53935     340.82416       0.26557      92.26296     134.31865      33.60548      30.26549       1.00000       0.28719     794.16193    1699.90393       0.00000    4750.63037     264.27679 
  10535.50000       0.00000      65.46748     326.19473       0.28048      90.01090     140.20047      33.89532      29.97675       1.00000       0.29347     764.04730    1670.16223       0.00000    4750.88428     264.28928 
  10536.00000       0.00000      63.04775     324.55893       0.32262      91.42996     142.65002      33.51522      29.78615       1.00000       0.29673     749.40863    1673.01196       0.00000    4751.16992     264.29950 
  10536.50000       0.00000      60.37645     339.33292       0.33404      96.62299     139.69287      33.62518      30.63191       1.00000       0.30877     741.71277    1702.06836       0.00000    4751.39941     264.31448 
  10537.00000       0.00000      58.28861     366.88669       0.33456      91.78104     133.82742      33.66214      30.59122       1.00000       0.32185     763.08026    1778.35254       0.00000    4751.64795     264.32355 
  10537.50000       0.00000      58.11877     383.38818       0.34049      83.52863     130.32045      33.99651      30.90606       1.00000       0.33748     797.82098    1901.26990       0.00000    4751.96484     264.33597 
  10538.00000       0.00000      58.80604     378.60278       0.34543      82.27717     125.78754      33.47486      31.31747       1.00000       0.34622     804.08783    1953.74756       0.00000    4752.23438     264.34604 
  10538.50000       0.00000      59.49632     364.93954       0.35376      83.84195     125.66293      33.60870      31.87460       1.00000       0.35082     784.33209    1935.14221       0.00000    4752.52246     264.35635 
  10539.00000       0.00000      61.65343     363.82907       0.34580      89.75585     127.79716      34.46095      31.52414       1.00000       0.34654     788.49854    1904.02869       0.00000    4752.76172     264.36041 
  10539.50000       0.00000      63.50546     360.71915       0.34604      87.77567     130.60321      35.08160      31.53127       1.00000       0.33753     781.40356    1875.47278       0.00000    4753.03906     264.37527 
  10540.00000       0.00000      64.79973     362.70798       0.34254      86.21848     135.75858      34.92011      31.07100       1.00000       0.31512     777.97900    1837.06055       0.00000    4753.34668     264.38770 
  10540.50000       0.00000      66.18028     356.62668       0.32613      90.72556     135.31458      33.45435      30.15042       1.00000       0.29208     794.19958    1816.15479       0.00000    4753.57666     264.39905 
  10541.00000       0.00000      67.59358     365.78674       0.30439      93.54884     132.43478      32.74143      29.63418       1.00000       0.26896     821.90436    1796.07312       0.00000    4753.81836     264.40942 
  10541.50000       0.00000      68.28386     371.38071       0.30089      93.43187     131.13622      32.23003      29.32531       1.00000       0.25417     826.01782    1798.14661       0.00000    4754.10303     264.41904 
  10542.00000       0.00000      67.93873     376.18607       0.24921      91.75818     129.18550      32.25671      29.06149       1.00000       0.23968     900.06342    1874.49683       0.00000    4754.38184     264.42923 
  10542.50000       0.00000      70.44098     379.55719       0.22133      88.39632     126.58157      31.29715      27.34685       1.00000       0.21546    1072.00916    2103.13428       0.00000    4754.66943     264.43433 
  10543.00000       0.00000      68.39960     395.77151       0.19490      88.44813     121.97073      28.90866      25.56890       1.00000       0.18325    1330.27747    2467.58813       0.00000    4754.86670     264.44208 
  10543.50000       0.00000      65.26349     417.74826       0.16097      91.97099     118.69520      25.87985      23.26623       1.00000       0.14903    1758.20056    2999.63428       0.00000    4755.11377     264.45242 
  10544.00000       0.00000      61.20812     435.40628       0.13499      90.08820     116.85568      23.00669      20.95811       1.00000       0.11815    2259.57959    3592.11621       0.00000    4755.38721     264.45984 
  10544.50000       0.00000      57.27710     439.38898       0.12210      92.62343     114.99236      20.79781      19.24604       1.00000       0.09716    2687.16064    4130.57617       0.00000    4755.67041     264.46756 
  10545.00000       0.00000      52.18631     436.38269       0.10806      96.14651     114.27922      19.17197      18.45844       1.00000       0.08348    3025.91626    4445.71436       0.00000    4755.91699     264.47665 
  10545.50000       0.00000      49.74090     434.06924       0.10719      93.27665     116.19559      18.68837      17.76113       1.00000       0.08131    3122.21362    4578.99512       0.00000    4756.19727     264.48386 
