~Version Information
VERS  .          2.0                              :CWLS Log Ascii Standard - Version 2.0
WRAP  .          NO                               :One line per depth step
~Well Information Block
#MNEM.UNIT       Data Type                        Information
#---------       ---------                        -------------------------------
STRT  .F         9700.00000                       :START DEPTH
STOP  .F         10600.00000                      :STOP DEPTH
STEP  .F          0.50000                         :INCREMENT
NULL  .          -999.25                          :NULL DATA VALUE
COMP  .          DENBURY ONSHORE, LLC             :COMPANY
WELL  .          CFU 31F #1                       :WELL
FLD   .          CRANFIELD FIELD UNIT             :FIELD
LOC   .                                           :LOCATION
PROV  .                                           :PROVINCE
STAT  .                                           :STATE
CNTY  .                                           :COUNTY
CTRY  .                                           :COUNTRY
DATE  .                                           :DATE
UWI   .          CFU 31F #1                       :UNIQUE WELL UWI
LIC   .                                           :LICENSE NUMBER
API   .          23-037-21488-0000                :API NUMBER
SRVC  .                                           :SERVICE COMPANY
~Parameter Information Block
#MNEM.UNIT       Value                            Description
#---------       ---------                        -------------
PDAT  .          GROUND LEVEL                     :Permanent Datum               
EPD   .ft        315.70                           :Elevation of Permanent Datum (PDAT) above Mean Sea Level
LMF   .          KELLY BUSHING                    :Logging Measured From (Name of Working Datum)
APD   .ft        18.00                            :Elevation of Working Datum (LMF) Above Permanent Datum
EDF   .ft        332.70                           :Elevation of Derrick Floor Above Mean Sea Level
EGL   .ft        315.70                           :Elevation of Ground Level Above Mean Sea Level
EKB   .ft        333.70                           :Elevation of Kelly Bushing Above Mean Sea Level
~Curve Information Block
#MNEM.UNIT       API Code            Curve    Description
#--------        --------------      -----    -------------------
DEPT  .F                             :0       Index
SXGA  .                              :1       CO2 Saturation
GR    .GAPI                          :2       Gamma Ray                     
INFD_TDTL.CPS                        :3       Gross Inelastic Count Rate Far Detector (TDT-like)
PHIC  .V/V                           :4       TDT Count Rate Porosity       
QGD   .BB/D                          :5       Downhole CO2 Injection rate (Low Rate)
QTDH  .BB/D                          :6       Downhole CO2 Injection rate (High Rate)
SBNA  .CU                            :7       RST Sigma Borehole Near Apparent
SIBH_TDTL.CU                         :8       Sigma Borehole Corrected (TDT-like)
SIGM  .CU                            :9       Formation Sigma (Neutron Capture Cross Section)
SIGM_TDTL.CU                         :10      Formation Sigma (Neutron Capture Cros Section) (TDT-like)
SW    .V/V                           :11      Water Saturation Computed by Delta Sigma Method             
SXWI  .V/V                           :12      Non-Clay Water Intergranular Water Saturation for the Flushed Zone
TPHI  .V/V                           :13      Thermal Decay Porosity        
TSCF_TDTL.CPS                        :14      Total Selected Count Rate Far Detector (TDT-like)
TSCN_TDTL.CPS                        :15      Total Selected Count Rate Near Detector (TDT-like)
VXGA  .V/V                           :16      Volume of Gas in Flushed Zone 
WPRE  .PSI                           :17      Well Pressure                 
WTEP  .DEGF                          :18      Well Temperature              
~Ascii Data Section
# ...
   9880.00000       0.00000      66.62274     282.48090       0.35404    -999.25000    -999.25000      90.67886     137.13527      34.67600      29.89741       1.00000       1.00000       0.30259     623.93195    1504.20496       0.00000    5562.29004     185.60815 
   9880.50000       0.00000      64.83690     283.69183       0.36088    -999.25000    -999.25000      90.65607     135.27521      34.33691      29.60449       1.00000       1.00000       0.31711     616.34204    1515.93872       0.00000    5562.47021     185.61722 
   9881.00000       0.00000      62.30437     291.97568       0.34785    -999.25000    -999.25000      84.30373     131.59578      34.62354      30.48168       1.00000       1.00000       0.32509     639.85693    1534.23267       0.00000    5562.63330     185.62215 
   9881.50000       0.00000      58.79153     295.31149       0.33825    -999.25000    -999.25000      81.53397     129.53366      35.32132      31.17330       1.00000       1.00000       0.31961     663.44684    1555.90796       0.00000    5562.85205     185.62904 
   9882.00000       0.00000      56.47656     311.42401       0.29071    -999.25000    -999.25000      84.30145     123.49578      34.93488      31.62520       1.00000       1.00000       0.30158     689.82233    1578.41211       0.00000    5563.02002     185.63596 
   9882.50000       0.00000      57.63018     325.30927       0.28108    -999.25000    -999.25000      79.84037     121.42360      34.67995      31.02331       1.00000       1.00000       0.28726     727.65631    1636.48291       0.00000    5563.28760     185.64458 
   9883.00000       0.00000      57.54088     332.63705       0.27594    -999.25000    -999.25000      82.83530     117.94983      34.14361      31.35867       1.00000       1.00000       0.28640     745.21118    1670.93884       0.00000    5563.57178     185.65179 
   9883.50000       0.00000      58.10999     340.60995       0.28189    -999.25000    -999.25000      82.80829     120.44740      35.06258      31.35948       1.00000       1.00000       0.29584     740.84918    1676.67126       0.00000    5563.73779     185.66185 
   9884.00000       0.00000      59.55200     337.01498       0.33319    -999.25000    -999.25000      78.41047     119.97305      35.17390      31.95081       1.00000       1.00000       0.31640     693.67914    1633.20459       0.00000    5564.00635     185.66948 
   9884.50000       0.00000      62.14148     318.49915       0.30688    -999.25000    -999.25000      82.82368     123.86113      36.14906      32.75231       1.00000       1.00000       0.33358     656.89355    1558.49597       0.00000    5564.22021     185.67641 
   9885.00000       0.00000      62.05882     288.91370       0.36924    -999.25000    -999.25000      81.47762     128.28021      36.35198      33.35138       1.00000       1.00000       0.34995     594.99933    1475.68616       0.00000    5564.43066     185.68663 
   9885.50000       0.00000      64.55135     291.71432       0.37261    -999.25000    -999.25000      87.43597     128.99901      36.95497      33.24744       1.00000       1.00000       0.35200     585.33801    1461.00403       0.00000    5564.66455     185.69537 
   9886.00000       0.00000      66.52190     306.58246       0.37162    -999.25000    -999.25000      85.26049     127.23267      36.76064      32.33887       1.00000       1.00000       0.35449     583.82269    1468.83203       0.00000    5564.96045     185.70461 
   9886.50000       0.00000      67.89552     317.03738       0.35178    -999.25000    -999.25000      78.92466     128.66362      35.85163      31.48786       1.00000       1.00000       0.33824     626.94220    1514.81091       0.00000    5565.18652     185.71927 
   9887.00000       0.00000      67.18118     306.76285       0.35123    -999.25000    -999.25000      83.91453     127.80924      34.76155      30.18608       1.00000       1.00000       0.32449     645.24988    1575.31250       0.00000    5565.43408     185.73053 
   9887.50000       0.00000      67.53816     302.56262       0.33193    -999.25000    -999.25000      87.47499     123.82724      34.00401      30.04520       1.00000       1.00000       0.31013     691.86133    1633.27991       0.00000    5565.68652     185.74448 
   9888.00000       0.00000      66.10040     307.76971       0.33414    -999.25000    -999.25000      87.47249     126.86113      33.85379      29.84636       1.00000       1.00000       0.31466     699.61121    1653.48376       0.00000    5566.01123     185.75854 
   9888.50000       0.00000      63.86809     298.13770       0.32863    -999.25000    -999.25000      80.58191     128.63435      34.16039      30.42255       1.00000       1.00000       0.32320     712.34540    1649.31921       0.00000    5566.21533     185.76949 
   9889.00000       0.00000      63.80623     290.45358       0.34124    -999.25000    -999.25000      85.19722     130.40529      34.11117      30.75438       1.00000       1.00000       0.34151     679.10150    1608.68530       0.00000    5566.35791     185.78224 
   9889.50000       0.00000      62.27488     257.70251       0.33862    -999.25000    -999.25000      85.00713     127.16452      34.29772      31.50094       1.00000       1.00000       0.35988     669.57874    1576.42651       0.00000    5566.68945     185.78833 
   9890.00000       0.00000      60.13298     250.29291       0.34533    -999.25000    -999.25000      86.70967     124.30618      34.63924      32.02365       1.00000       1.00000       0.37954     644.78571    1544.02600       0.00000    5566.88330     185.79105 
   9890.50000       0.00000      57.10844     234.76521       0.35144    -999.25000    -999.25000      79.66995     122.17957      34.53991      31.83665       1.00000       1.00000       0.38733     622.84399    1520.47864       0.00000    5567.10303     185.80312 
   9891.00000       0.00000      56.92986     245.69084       0.35817    -999.25000    -999.25000      78.15403     122.15136      34.41362      31.48902       0.98626       1.00000       0.38442     607.90497    1509.72632       0.00000    5567.30225     185.81706 
   9891.50000       0.00000      56.47427     258.29849       0.36015    -999.25000    -999.25000      81.41858     120.69697      34.07291      31.25889       0.92441       1.00000       0.37323     607.54071    1522.59094       0.00000    5567.58740     185.83931 
   9892.00000       0.00000      57.55916     277.34598       0.36387    -999.25000    -999.25000      84.40373     122.86475      34.66519      30.86793       1.00000       1.00000       0.36438     609.10559    1536.20386       0.00000    5567.79736     185.85493 
   9892.50000       0.00000      59.34408     299.55356       0.36064    -999.25000    -999.25000      85.47511     125.82463      34.97937      30.98545       1.00000       1.00000       0.36556     622.55945    1549.92603       0.00000    5568.18164     185.86404 
   9893.00000       0.00000      62.19995     302.14468       0.35872    -999.25000    -999.25000      84.28220     125.07584      35.00562      31.26552       1.00000       1.00000       0.37165     628.87543    1559.36511       0.00000    5568.47803     185.87201 
   9893.50000       0.00000      61.30550     298.99973       0.36235    -999.25000    -999.25000      82.35835     124.88713      35.04690      31.82621       1.00000       1.00000       0.37702     619.67987    1543.61926       0.00000    5568.72412     185.88228 
   9894.00000       0.00000      62.21447     294.64612       0.36117    -999.25000    -999.25000      81.39835     126.72037      35.45378      32.23363       1.00000       1.00000       0.37444     608.98694    1501.01990       0.00000    5568.95508     185.89848 
   9894.50000       0.00000      64.23039     288.75516       0.35046    -999.25000    -999.25000      83.98917     127.06051      35.53344      31.94523       1.00000       1.00000       0.36548     620.57965    1493.90125       0.00000    5569.28613     185.91273 
