~Version Information
VERS  .          2.0                              :CWLS Log Ascii Standard - Version 2.0
WRAP  .          NO                               :One line per depth step
~Well Information Block
#MNEM.UNIT       Data Type                        Information
#---------       ---------                        -------------------------------
STRT  .F         9700.00000                       :START DEPTH
STOP  .F         10600.00000                      :STOP DEPTH
STEP  .F          0.50000                         :INCREMENT
NULL  .          -999.25                          :NULL DATA VALUE
COMP  .          DENBURY ONSHORE, LLC             :COMPANY
WELL  .          CFU 31F #1                       :WELL
FLD   .          CRANFIELD FIELD UNIT             :FIELD
LOC   .                                           :LOCATION
PROV  .                                           :PROVINCE
STAT  .                                           :STATE
CNTY  .                                           :COUNTY
CTRY  .                                           :COUNTRY
DATE  .                                           :DATE
UWI   .          CFU 31F #1                       :UNIQUE WELL UWI
LIC   .                                           :LICENSE NUMBER
API   .          23-037-21488-0000                :API NUMBER
SRVC  .                                           :SERVICE COMPANY
~Parameter Information Block
#MNEM.UNIT       Value                            Description
#---------       ---------                        -------------
PDAT  .          GROUND LEVEL                     :Permanent Datum               
EPD   .ft        315.70                           :Elevation of Permanent Datum (PDAT) above Mean Sea Level
LMF   .          KELLY BUSHING                    :Logging Measured From (Name of Working Datum)
APD   .ft        18.00                            :Elevation of Working Datum (LMF) Above Permanent Datum
EDF   .ft        332.70                           :Elevation of Derrick Floor Above Mean Sea Level
EGL   .ft        315.70                           :Elevation of Ground Level Above Mean Sea Level
EKB   .ft        333.70                           :Elevation of Kelly Bushing Above Mean Sea Level
~Curve Information Block
#MNEM.UNIT       API Code            Curve    Description
#--------        --------------      -----    -------------------
DEPT  .F                             :0       Index
SXGA  .                              :1       CO2 Saturation
GR    .GAPI                          :2       Gamma Ray                     
INFD_TDTL.CPS                        :3       Gross Inelastic Count Rate Far Detector (TDT-like)
PHIC  .V/V                           :4       TDT Count Rate Porosity       
QGD   .BB/D                          :5       Downhole CO2 Injection rate (Low Rate)
QTDH  .BB/D                          :6       Downhole CO2 Injection rate (High Rate)
SBNA  .CU                            :7       RST Sigma Borehole Near Apparent
SIBH_TDTL.CU                         :8       Sigma Borehole Corrected (TDT-like)
SIGM  .CU                            :9       Formation Sigma (Neutron Capture Cross Section)
SIGM_TDTL.CU                         :10      Formation Sigma (Neutron Capture Cros Section) (TDT-like)
SW    .V/V                           :11      Water Saturation Computed by Delta Sigma Method             
SXWI  .V/V                           :12      Non-Clay Water Intergranular Water Saturation for the Flushed Zone
TPHI  .V/V                           :13      Thermal Decay Porosity        
TSCF_TDTL.CPS                        :14      Total Selected Count Rate Far Detector (TDT-like)
TSCN_TDTL.CPS                        :15      Total Selected Count Rate Near Detector (TDT-like)
VXGA  .V/V                           :16      Volume of Gas in Flushed Zone 
WPRE  .PSI                           :17      Well Pressure                 
WTEP  .DEGF                          :18      Well Temperature              
~Ascii Data Section
# ...
  10165.00000       0.01687      48.92850     287.53018       0.37729    -999.25000    -999.25000      76.96496     108.81340      31.90539      29.68750       1.00000       0.98431       0.42587     781.06030    2133.67920       0.00278    5648.97607     190.31256 
  10165.50000       0.02380      49.76917     292.61182       0.38021    -999.25000    -999.25000      78.12725     110.39135      31.46066      29.72443       0.97209       0.97771       0.42252     777.82928    2130.80078       0.00428    5649.11182     190.31718 
  10166.00000       0.01880      50.60077     296.61407       0.37448    -999.25000    -999.25000      78.33636     111.64626      31.24817      29.94756       0.97241       0.98233       0.41595     795.16815    2146.75757       0.00347    5649.22998     190.32596 
  10166.50000       0.01256      51.21503     297.46890       0.36597    -999.25000    -999.25000      78.63003     111.63335      31.02346      29.85622       0.94436       0.98837       0.40603     822.99323    2186.28491       0.00191    5649.33789     190.33232 
  10167.00000       0.00000      50.35625     300.34332       0.36377    -999.25000    -999.25000      79.90953     111.42903      30.86278      29.34719       0.96837       1.00000       0.39360     837.46838    2220.66040       0.00000    5649.48682     190.33594 
  10167.50000       0.00000      49.46355     304.10510       0.36320    -999.25000    -999.25000      81.15074     112.85104      30.59435      29.00738       0.93450       1.00000       0.38515     846.13470    2238.01245       0.00000    5649.62695     190.33589 
  10168.00000       0.00000      49.13156     308.09827       0.36070    -999.25000    -999.25000      80.80215     113.42262      30.39932      28.87649       0.91316       1.00000       0.38603     856.67975    2253.24438       0.00000    5649.74414     190.33708 
  10168.50000       0.00000      49.03247     311.58984       0.36076    -999.25000    -999.25000      80.22876     111.80795      30.26769      28.61070       0.85100       1.00000       0.39332     858.08191    2265.81616       0.00000    5649.86719     190.34230 
  10169.00000       0.00000      49.36767     313.85495       0.35692    -999.25000    -999.25000      77.80418     110.76939      30.18709      28.68609       0.81000       1.00000       0.39500     863.74414    2266.13794       0.00000    5650.02832     190.34708 
  10169.50000       0.00000      51.33769     314.28265       0.35075    -999.25000    -999.25000      76.66203     109.78874      30.36831      28.98552       0.86030       1.00000       0.38640     872.35266    2261.51367       0.00000    5650.20020     190.35364 
  10170.00000       0.00000      53.48821     312.68826       0.34616    -999.25000    -999.25000      77.88583     109.02152      30.53347      29.11252       0.89378       1.00000       0.37187     874.14172    2244.76025       0.00000    5650.35645     190.36211 
  10170.50000       0.00000      54.43447     308.26324       0.34244    -999.25000    -999.25000      76.67880     109.08018      30.67870      29.12554       0.93081       1.00000       0.36226     868.54266    2209.58496       0.00000    5650.48438     190.36929 
  10171.00000       0.00000      55.74874     304.57358       0.34212    -999.25000    -999.25000      77.14877     110.64690      30.86057      29.31212       0.91348       1.00000       0.36340     850.56421    2150.62305       0.00000    5650.57812     190.37648 
  10171.50000       0.00000      56.45547     300.42181       0.34717    -999.25000    -999.25000      78.67374     113.33957      31.20199      29.59575       0.96632       1.00000       0.37383     819.02832    2076.34375       0.00000    5650.72900     190.38605 
  10172.00000       0.00000      55.98209     300.97989       0.35379    -999.25000    -999.25000      81.85785     116.08846      31.65473      29.89537       0.97540       1.00000       0.38709     788.01514    2010.31482       0.00000    5650.87500     190.39569 
  10172.50000       0.00000      54.84097     301.04211       0.35534    -999.25000    -999.25000      83.73818     116.97878      31.97173      30.34750       1.00000       1.00000       0.39822     772.13525    1966.52734       0.00000    5650.99658     190.40417 
  10173.00000       0.00000      54.27733     298.65479       0.35898    -999.25000    -999.25000      81.09501     118.09910      32.06325      30.79561       0.98981       1.00000       0.40554     764.64581    1953.69165       0.00000    5651.07373     190.41458 
  10173.50000       0.00000      53.48560     287.54807       0.36160    -999.25000    -999.25000      78.09148     116.36327      32.05727      30.72142       0.98654       1.00000       0.41096     766.31012    1978.53625       0.00000    5651.16846     190.42560 
  10174.00000       0.00021      52.70372     272.26212       0.35895    -999.25000    -999.25000      79.18913     114.06712      31.90230      30.24661       0.98209       0.99981       0.41288     780.88147    2020.53882       0.00003    5651.27441     190.43677 
  10174.50000       0.00000      51.63923     264.00366       0.35886    -999.25000    -999.25000      76.70009     113.78806      31.46259      29.89482       1.00000       1.00000       0.41304     794.00122    2060.68359       0.00000    5651.38965     190.44928 
  10175.00000       0.00000      50.59034     268.31372       0.36416    -999.25000    -999.25000      77.57570     114.25767      30.81499      29.27048       1.00000       1.00000       0.40978     808.62445    2128.95337       0.00000    5651.51318     190.46155 
  10175.50000       0.00000      50.75845     275.52481       0.36142    -999.25000    -999.25000      79.08482     114.75883      30.01748      28.63638       1.00000       1.00000       0.40402     835.34998    2191.75171       0.00000    5651.60352     190.47205 
  10176.00000       0.00000      51.03118     277.24152       0.35128    -999.25000    -999.25000      81.29791     117.08577      29.50865      28.54381       1.00000       1.00000       0.39418     865.64368    2215.30933       0.00000    5651.70801     190.47893 
  10176.50000       0.00000      51.47865     274.74612       0.34838    -999.25000    -999.25000      83.56065     118.78297      29.25151      28.22043       1.00000       1.00000       0.37958     891.49292    2265.94946       0.00000    5651.86523     190.48643 
  10177.00000       0.00000      51.24482     278.86838       0.34597    -999.25000    -999.25000      82.54996     119.46821      29.22574      27.45316       1.00000       1.00000       0.36558     923.00989    2339.56616       0.00000    5652.01221     190.49471 
  10177.50000       0.00000      51.16428     284.20184       0.33974    -999.25000    -999.25000      80.71790     120.30212      29.00970      27.06208       1.00000       1.00000       0.35807     951.72461    2381.68384       0.00000    5652.20020     190.50114 
  10178.00000       0.00000      49.74735     291.67303       0.34238    -999.25000    -999.25000      79.34041     119.42120      28.57350      26.78662       0.97943       1.00000       0.36456     957.03815    2414.52026       0.00000    5652.37500     190.50542 
  10178.50000       0.00000      48.63197     290.22610       0.35234    -999.25000    -999.25000      80.35418     119.74489      28.44309      26.57341       0.95639       1.00000       0.37838     939.19531    2417.08667       0.00000    5652.50000     190.50905 
  10179.00000       0.00227      48.51797     272.24905       0.36048    -999.25000    -999.25000      80.51604     122.66534      29.09684      26.75555       0.97805       0.99796       0.38956     897.66882    2330.88013       0.00024    5652.65430     190.51291 
  10179.50000       0.00000      48.53701     250.45633       0.36259    -999.25000    -999.25000      83.24714     124.14088      29.83461      27.17366       1.00000       1.00000       0.38945     855.47870    2218.03735       0.00000    5652.79932     190.51521 
