~Version Information
VERS  .          2.0                              :CWLS Log Ascii Standard - Version 2.0
WRAP  .          NO                               :One line per depth step
~Well Information Block
#MNEM.UNIT       Data Type                        Information
#---------       ---------                        -------------------------------
STRT  .F         9700.00000                       :START DEPTH
STOP  .F         10600.00000                      :STOP DEPTH
STEP  .F          0.50000                         :INCREMENT
NULL  .          -999.25                          :NULL DATA VALUE
COMP  .          DENBURY ONSHORE, LLC             :COMPANY
WELL  .          CFU 31F #1                       :WELL
FLD   .          CRANFIELD FIELD UNIT             :FIELD
LOC   .                                           :LOCATION
PROV  .                                           :PROVINCE
STAT  .                                           :STATE
CNTY  .                                           :COUNTY
CTRY  .                                           :COUNTRY
DATE  .                                           :DATE
UWI   .          CFU 31F #1                       :UNIQUE WELL UWI
LIC   .                                           :LICENSE NUMBER
API   .          23-037-21488-0000                :API NUMBER
SRVC  .                                           :SERVICE COMPANY
~Parameter Information Block
#MNEM.UNIT       Value                            Description
#---------       ---------                        -------------
PDAT  .          GROUND LEVEL                     :Permanent Datum               
EPD   .ft        315.70                           :Elevation of Permanent Datum (PDAT) above Mean Sea Level
LMF   .          KELLY BUSHING                    :Logging Measured From (Name of Working Datum)
APD   .ft        18.00                            :Elevation of Working Datum (LMF) Above Permanent Datum
EDF   .ft        332.70                           :Elevation of Derrick Floor Above Mean Sea Level
EGL   .ft        315.70                           :Elevation of Ground Level Above Mean Sea Level
EKB   .ft        333.70                           :Elevation of Kelly Bushing Above Mean Sea Level
~Curve Information Block
#MNEM.UNIT       API Code            Curve    Description
#--------        --------------      -----    -------------------
DEPT  .F                             :0       Index
SXGA  .                              :1       CO2 Saturation
GR    .GAPI                          :2       Gamma Ray                     
INFD_TDTL.CPS                        :3       Gross Inelastic Count Rate Far Detector (TDT-like)
PHIC  .V/V                           :4       TDT Count Rate Porosity       
QGD   .BB/D                          :5       Downhole CO2 Injection rate (Low Rate)
QTDH  .BB/D                          :6       Downhole CO2 Injection rate (High Rate)
SBNA  .CU                            :7       RST Sigma Borehole Near Apparent
SIBH_TDTL.CU                         :8       Sigma Borehole Corrected (TDT-like)
SIGM  .CU                            :9       Formation Sigma (Neutron Capture Cross Section)
SIGM_TDTL.CU                         :10      Formation Sigma (Neutron Capture Cros Section) (TDT-like)
SW    .V/V                           :11      Water Saturation Computed by Delta Sigma Method             
SXWI  .V/V                           :12      Non-Clay Water Intergranular Water Saturation for the Flushed Zone
TPHI  .V/V                           :13      Thermal Decay Porosity        
TSCF_TDTL.CPS                        :14      Total Selected Count Rate Far Detector (TDT-like)
TSCN_TDTL.CPS                        :15      Total Selected Count Rate Near Detector (TDT-like)
VXGA  .V/V                           :16      Volume of Gas in Flushed Zone 
WPRE  .PSI                           :17      Well Pressure                 
WTEP  .DEGF                          :18      Well Temperature              
~Ascii Data Section
# ...
  10060.00000       0.00000      53.20840     304.15802       0.36500    -999.25000    -999.25000      78.33289     109.20582      34.46699      32.72796       1.00000       1.00000       0.37217     662.78339    1716.88440       0.00000    5619.65527     188.80867 
  10060.50000       0.00000      51.41890     305.20306       0.37438    -999.25000    -999.25000      75.13024     108.72281      34.90298      32.94319       1.00000       1.00000       0.37395     647.74432    1713.22522       0.00000    5619.78223     188.80516 
  10061.00000       0.00000      51.12347     305.26974       0.37549    -999.25000    -999.25000      74.87315     110.51036      35.17371      32.97829       1.00000       1.00000       0.38527     653.11584    1725.37451       0.00000    5619.97852     188.79816 
  10061.50000       0.00000      51.69745     310.62674       0.37464    -999.25000    -999.25000      76.47149     109.89756      35.15899      32.59481       1.00000       1.00000       0.39404     664.61871    1760.63818       0.00000    5620.11133     188.79066 
  10062.00000       0.00000      51.11131     309.95193       0.37938    -999.25000    -999.25000      81.39639     111.89513      34.01759      31.83968       1.00000       1.00000       0.39423     680.04846    1822.53516       0.00000    5620.32666     188.79079 
  10062.50000       0.00000      50.86440     308.82196       0.35945    -999.25000    -999.25000      77.00309     114.55738      33.06290      30.66343       1.00000       1.00000       0.37995     749.06464    1928.89697       0.00000    5620.50879     188.79816 
  10063.00000       0.00000      50.56679     309.96521       0.34322    -999.25000    -999.25000      80.58840     117.39032      31.70691      29.53608       0.88597       1.00000       0.36052     814.17682    2027.53796       0.00000    5620.64697     188.80098 
  10063.50000       0.00000      49.18544     308.65149       0.33650    -999.25000    -999.25000      80.19864     118.07460      30.94168      28.51896       0.98247       1.00000       0.34166     853.73541    2105.36792       0.00000    5620.76074     188.80153 
  10064.00000       0.00000      46.66547     307.57010       0.34110    -999.25000    -999.25000      83.68494     119.89520      29.90270      28.13199       1.00000       1.00000       0.33805     859.17175    2138.10669       0.00000    5620.88086     188.80368 
  10064.50000       0.00000      46.71072     299.71201       0.34808    -999.25000    -999.25000      82.60005     119.27856      30.33352      28.43222       1.00000       1.00000       0.35550     842.31354    2127.41333       0.00000    5620.99463     188.81071 
  10065.00000       0.00000      47.12937     298.41534       0.36860    -999.25000    -999.25000      78.49851     117.98817      30.99697      29.05778       1.00000       1.00000       0.38944     789.53052    2080.87842       0.00000    5621.04248     188.81618 
  10065.50000       0.00808      48.03629     296.85223       0.38748    -999.25000    -999.25000      75.66965     114.34551      32.19048      29.62502       1.00000       0.99256       0.42442     730.12488    2005.95300       0.00119    5621.22363     188.82080 
  10066.00000       0.00000      49.24852     301.70184       0.40296    -999.25000    -999.25000      75.51505     113.58960      32.92452      30.58092       1.00000       1.00000       0.44086     682.53455    1928.43579       0.00000    5621.38574     188.82454 
  10066.50000       0.00000      51.44730     303.32556       0.40038    -999.25000    -999.25000      77.43924     112.25660      33.43039      31.11479       1.00000       1.00000       0.43861     679.63153    1911.19775       0.00000    5621.45703     188.82776 
  10067.00000       0.00000      50.96380     314.07742       0.36941    -999.25000    -999.25000      79.02925     113.00661      33.47915      30.79290       1.00000       1.00000       0.40863     746.63184    1968.28125       0.00000    5621.62061     188.83328 
  10067.50000       0.00000      49.98772     321.83408       0.32087    -999.25000    -999.25000      78.38435     113.96169      32.36002      29.63176       1.00000       1.00000       0.35306     891.39813    2120.78345       0.00000    5621.73682     188.83685 
  10068.00000       0.00000      47.66716     346.47528       0.27940    -999.25000    -999.25000      78.61904     112.00011      30.47769      27.71976       1.00000       1.00000       0.28070    1084.94324    2366.78027       0.00000    5621.90918     188.84096 
  10068.50000       0.00000      46.60771     345.24030       0.22610    -999.25000    -999.25000      79.51550     106.42639      27.96225      25.46560       1.00000       1.00000       0.21681    1382.77039    2681.88232       0.00000    5621.97852     188.84970 
  10069.00000       0.00000      44.14008     348.10254       0.19962    -999.25000    -999.25000      82.08504     106.04092      25.90639      23.51774       1.00000       1.00000       0.17402    1632.41418    2977.45801       0.00000    5622.21387     188.86095 
  10069.50000       0.00000      42.00356     331.82376       0.18828    -999.25000    -999.25000      80.62659     111.06647      24.49856      21.31656       1.00000       1.00000       0.15120    1788.20349    3190.83862       0.00000    5622.23877     188.87813 
  10070.00000       0.00000      40.02013     309.65485       0.19422    -999.25000    -999.25000      85.02431     114.67105      23.48995      20.46292       1.00000       1.00000       0.15783    1759.65393    3204.68213       0.00000    5622.43408     188.89824 
  10070.50000       0.00000      41.25168     288.33917       0.21088    -999.25000    -999.25000      92.97847     115.82252      23.79115      21.32386       1.00000       1.00000       0.19696    1581.21997    2985.04712       0.00000    5622.60986     188.91949 
  10071.00000       0.00000      41.34689     270.28305       0.25782    -999.25000    -999.25000      88.36073     122.30220      26.15315      22.89823       1.00000       1.00000       0.27322    1261.43652    2641.60107       0.00000    5622.70850     188.94034 
  10071.50000       0.01826      43.02583     257.06973       0.30222    -999.25000    -999.25000      76.40057     125.83501      29.80562      25.95249       1.00000       0.98411       0.35778    1002.02209    2274.82495       0.00161    5623.02051     188.95978 
  10072.00000       0.00000      47.67397     242.35268       0.36342    -999.25000    -999.25000      78.33738     119.21992      32.63007      29.93137       1.00000       1.00000       0.42598     755.97180    1948.91760       0.00000    5623.05664     188.98048 
  10072.50000       0.00000      51.45653     252.77026       0.40807    -999.25000    -999.25000      78.76843     115.26336      33.54185      32.71770       1.00000       1.00000       0.45944     622.76929    1748.48950       0.00000    5623.15967     188.99539 
  10073.00000       0.00000      53.80275     269.60703       0.42980    -999.25000    -999.25000      81.75429     117.93931      33.68775      33.72701       1.00000       1.00000       0.46701     583.50793    1691.34167       0.00000    5623.35791     189.00554 
  10073.50000       0.00000      55.39692     287.82181       0.43487    -999.25000    -999.25000      78.30804     116.16151      34.17846      34.09864       1.00000       1.00000       0.46560     580.57898    1704.11047       0.00000    5623.54248     189.02391 
  10074.00000       0.00000      56.84031     301.69623       0.44524    -999.25000    -999.25000      79.43089     116.97092      34.49006      33.82390       1.00000       1.00000       0.46143     581.10828    1741.62402       0.00000    5623.62256     189.03894 
  10074.50000       0.00000      55.89200     308.45547       0.43503    -999.25000    -999.25000      74.33058     114.29810      34.66504      33.41372       1.00000       1.00000       0.45188     605.28778    1795.14075       0.00000    5623.76465     189.04572 
