~Version Information
VERS  .          2.0                              :CWLS Log Ascii Standard - Version 2.0
WRAP  .          NO                               :One line per depth step
~Well Information Block
#MNEM.UNIT       Data Type                        Information
#---------       ---------                        -------------------------------
STRT  .F         9700.00000                       :START DEPTH
STOP  .F         10647.00000                      :STOP DEPTH
STEP  .F          0.50000                         :INCREMENT
NULL  .          -999.25                          :NULL DATA VALUE
COMP  .          DENBURY ONSHORE, LLC             :COMPANY
WELL  .          CFU 31F #1                       :WELL
FLD   .          CRANFIELD FIELD UNIT             :FIELD
LOC   .                                           :LOCATION
PROV  .                                           :PROVINCE
STAT  .                                           :STATE
CNTY  .                                           :COUNTY
CTRY  .                                           :COUNTRY
DATE  .                                           :DATE
UWI   .          CFU 31F #1                       :UNIQUE WELL UWI
LIC   .                                           :LICENSE NUMBER
API   .          23-037-21488-0000                :API NUMBER
SRVC  .                                           :SERVICE COMPANY
~Parameter Information Block
#MNEM.UNIT       Value                            Description
#---------       ---------                        -------------
PDAT  .          GROUND LEVEL                     :Permanent Datum               
EPD   .ft        315.70                           :Elevation of Permanent Datum (PDAT) above Mean Sea Level
LMF   .          KELLY BUSHING                    :Logging Measured From (Name of Working Datum)
APD   .ft        18.00                            :Elevation of Working Datum (LMF) Above Permanent Datum
EDF   .ft        332.70                           :Elevation of Derrick Floor Above Mean Sea Level
EGL   .ft        315.70                           :Elevation of Ground Level Above Mean Sea Level
EKB   .ft        333.70                           :Elevation of Kelly Bushing Above Mean Sea Level
~Curve Information Block
#MNEM.UNIT       API Code            Curve    Description
#--------        --------------      -----    -------------------
DEPT  .F                             :0       Index
AT10  .OHMM                          :1       Array Induction Two Foot Resistivity A10
AT20  .OHMM                          :2       Array Induction Two Foot Resistivity A20
AT30  .OHMM                          :3       Array Induction Two Foot Resistivity A30
AT60  .OHMM                          :4       Array Induction Two Foot Resistivity A60
AT90  .OHMM                          :5       Array Induction Two Foot Resistivity A90
BS    .IN                            :6       Bit Size                      
DT    .US/F                          :7       Delta-T (also called Slowness or Interval Transit Time)
GR    .GAPI                          :8       Gamma Ray                     
HCAL  .IN                            :9       HRCC Caliper Calibrated       
HTNP  .V/V                           :10      High Resolution Thermal Neutron Porosity (Ratio Method) in Sand Lithology
KINT  .MD                            :11      Intrinsic Permeability        
PHIT  .V/V                           :12      Total Porosity_ includes all forms of porosity, including that occupied by bound fluids, and is independent of rock and fluid materials and of environmental effects
PIGN  .V/V                           :13      Effective Porosity, VISO, VPAR, and Bound Water Removed
SUWI  .V/V                           :14      Non-Clay Water Intergranular Water Saturation for Undisturbed Zone
VCHL  .V/V                           :15      Volume of Chlorite Relative to Total Volume
VCLC  .V/V                           :16      Volume of Calcite Relative to Total Volume
VILL  .V/V                           :17      Volume of Illite (dry) Relative to Total Volume
VKAO  .V/V                           :18      Volume of Kaolinite (dry) Relative to Total Volume
VQUA  .V/V                           :19      Volume of Quartz Relative to Total Volume
VUIW  .V/V                           :20      Volume of Irreducible Water In Undisturbed Zone
VUWA  .V/V                           :21      Volume of Water in Undisturbed Zone
VXBW  .V/V                           :22      Volume of Bound Water in Flushed Zone
~Ascii Data Section
# ...
   9762.50000       3.09363       3.32537       3.52606       3.51033       3.36146       8.75000      75.69446     119.62500      13.53089       0.28359       0.01000       0.10390       0.05890       1.00000       0.04167       0.00000       0.31223       0.10895       0.43325       0.05890       0.00000       0.04500 
   9763.00000       3.10302       3.44244       3.59759       3.61076       3.48512       8.75000      75.86784     119.56394      13.24499       0.25814       0.01000       0.10280       0.05934       1.00000       0.04049       0.00000       0.30681       0.09547       0.45443       0.05934       0.00000       0.04346 
   9763.50000       3.00331       3.43322       3.58146       3.60205       3.53571       8.75000      73.65397     121.92675      12.93615       0.25161       0.01000       0.09030       0.04801       1.00000       0.04228       0.00000       0.28578       0.10994       0.47169       0.04548       0.00253       0.04229 
   9764.00000       3.12585       3.62406       3.71738       3.73135       3.70925       8.75000      76.26728     121.89199      12.90189       0.23960       0.01000       0.10141       0.05748       1.00000       0.03719       0.00000       0.32535       0.07664       0.45942       0.05748       0.00000       0.04392 
   9764.50000       3.25101       3.89765       3.96672       4.04752       4.07728       8.75000      74.88916     118.14233      12.78746       0.23699       0.01000       0.09293       0.04981       1.00000       0.04390       0.00000       0.31036       0.07762       0.47519       0.04981       0.00000       0.04312 
   9765.00000       3.15218       3.76952       4.03081       4.17055       4.22379       8.75000      75.24840     115.95057      12.55878       0.25079       0.01000       0.10107       0.05931       1.00000       0.04616       0.00000       0.29472       0.07876       0.47929       0.05815       0.00116       0.04176 
   9765.50000       2.94669       3.30850       3.57805       3.63549       3.64375       8.75000      74.24637     129.61522      12.26151       0.25572       0.01000       0.09544       0.05187       1.00000       0.03506       0.00000       0.31035       0.10094       0.45822       0.05187       0.00000       0.04357 
   9766.00000       2.76328       2.81845       2.98934       3.00967       3.12865       8.75000      76.42608     132.51756      13.42793       0.25877       0.01000       0.10546       0.05697       1.00000       0.02273       0.00000       0.39086       0.06253       0.41842       0.05697       0.00000       0.04848 
   9766.50000       2.55394       2.85900       2.93790       2.97885       3.17767       8.75000      74.62692     129.80658      11.00314       0.27741       0.01000       0.09050       0.03891       1.00000       0.03895       0.00000       0.42342       0.02651       0.42062       0.03891       0.00000       0.05159 
   9767.00000       2.94873       3.27067       3.45966       3.66393       4.04036       8.75000      74.93388     113.79501      10.36278       0.28685       0.01000       0.08553       0.03363       1.00000       0.05618       0.00000       0.42337       0.00000       0.43492       0.03363       0.00000       0.05189 
   9767.50000       3.52333       4.27648       4.55209       4.43445       4.61887       8.75000      71.66350     111.88761      10.52292       0.23502       0.01000       0.06017       0.01267       1.00000       0.06267       0.00000       0.36190       0.02428       0.49099       0.01267       0.00000       0.04750 
   9768.00000       4.40016       5.82354       6.34132       5.55699       5.86770       8.75000      70.17841     106.04858      10.61442       0.17267       0.01000       0.05123       0.01151       1.00000       0.06777       0.00000       0.27371       0.04282       0.56447       0.01037       0.00114       0.03972 
   9768.50000       4.03669       5.07488       5.41721       4.76659       4.65804       8.75000      72.34332     112.28478      10.61441       0.18607       0.01000       0.06588       0.02414       1.00000       0.06076       0.00000       0.30205       0.03892       0.53238       0.02414       0.00000       0.04174 
   9769.00000       3.56112       4.36239       4.46377       4.28617       4.15041       8.75000      70.76564     115.45655      10.66017       0.26711       0.01000       0.06725       0.02237       1.00000       0.06496       0.00000       0.30543       0.07635       0.48602       0.02237       0.00000       0.04488 
   9769.50000       3.10694       3.78706       3.87294       3.78249       3.66442       8.75000      72.89056     127.82017      10.75167       0.30745       0.01000       0.09807       0.04838       1.00000       0.05182       0.00000       0.38568       0.03816       0.42626       0.04838       0.00000       0.04969 
   9770.00000       2.72684       3.07200       3.10145       3.18010       3.04444       8.75000      75.97364     128.10164      10.88891       0.29211       0.01000       0.11768       0.07212       1.00000       0.04430       0.00000       0.34372       0.05814       0.43616       0.07212       0.00000       0.04556 
   9770.50000       2.48285       2.66332       2.71512       2.76619       2.59662       8.75000      78.73915     133.51312      11.25492       0.26912       0.01000       0.12602       0.08106       1.00000       0.03308       0.00000       0.33878       0.07749       0.42462       0.08106       0.00000       0.04496 
   9771.00000       2.65333       2.76346       2.91600       2.89151       2.79519       8.75000      80.60918     130.53368      11.56375       0.29111       0.01000       0.12597       0.07543       1.00000       0.03458       0.00000       0.39124       0.07369       0.37452       0.07543       0.00000       0.05054 
   9771.50000       3.34651       3.18127       3.29154       3.20205       3.20434       8.75000      80.15311     127.15270      11.43788       0.31646       0.01000       0.11933       0.06259       1.00000       0.04295       0.00000       0.45955       0.03967       0.33849       0.06259       0.00000       0.05674 
   9772.00000       3.83943       4.03515       4.08826       3.91470       4.02330       8.75000      78.00838     120.69852      10.66015       0.31447       0.01000       0.10926       0.05385       1.00000       0.05613       0.00000       0.44277       0.02327       0.36857       0.05385       0.00000       0.05541 
   9772.50000       4.69412       5.10234       5.12227       4.71267       5.05069       8.75000      75.13564     118.67643      10.29419       0.26597       0.01000       0.10351       0.05698       1.00000       0.05886       0.00000       0.36119       0.01675       0.45969       0.05698       0.00000       0.04653 
   9773.00000       4.75447       5.19386       5.29501       4.91432       5.77809       8.75000      72.10809     119.63013      10.47719       0.22286       0.01000       0.08896       0.04901       1.00000       0.05727       0.00000       0.28989       0.03735       0.52655       0.04718       0.00183       0.03994 
   9773.50000       4.56441       5.14515       5.20137       4.59971       5.35236       8.75000      70.74252     117.12769      10.38568       0.20939       0.01000       0.08199       0.04431       1.00000       0.05974       0.00000       0.26730       0.03547       0.55551       0.03895       0.00536       0.03767 
   9774.00000       4.20969       4.64232       4.76873       4.56820       4.56531       8.75000      70.67120     113.79333      10.59153       0.21185       0.01000       0.07352       0.03582       1.00000       0.06191       0.00000       0.24895       0.06400       0.55163       0.02903       0.00679       0.03770 
   9774.50000       3.99789       4.31544       4.41208       4.39598       4.28702       8.75000      71.64278     109.33887      10.63729       0.22188       0.01000       0.07715       0.03979       1.00000       0.06385       0.00000       0.23804       0.07407       0.54689       0.03065       0.00914       0.03736 
