~Version Information
VERS  .          2.0                              :CWLS Log Ascii Standard - Version 2.0
WRAP  .          NO                               :One line per depth step
~Well Information Block
#MNEM.UNIT       Data Type                        Information
#---------       ---------                        -------------------------------
STRT  .F         9700.00000                       :START DEPTH
STOP  .F         10600.00000                      :STOP DEPTH
STEP  .F          0.50000                         :INCREMENT
NULL  .          -999.25                          :NULL DATA VALUE
COMP  .          DENBURY ONSHORE, LLC             :COMPANY
WELL  .          CFU 31F #1                       :WELL
FLD   .          CRANFIELD FIELD UNIT             :FIELD
LOC   .                                           :LOCATION
PROV  .                                           :PROVINCE
STAT  .                                           :STATE
CNTY  .                                           :COUNTY
CTRY  .                                           :COUNTRY
DATE  .                                           :DATE
UWI   .          CFU 31F #1                       :UNIQUE WELL UWI
LIC   .                                           :LICENSE NUMBER
API   .          23-037-21488-0000                :API NUMBER
SRVC  .                                           :SERVICE COMPANY
~Parameter Information Block
#MNEM.UNIT       Value                            Description
#---------       ---------                        -------------
PDAT  .          GROUND LEVEL                     :Permanent Datum               
EPD   .ft        315.70                           :Elevation of Permanent Datum (PDAT) above Mean Sea Level
LMF   .          KELLY BUSHING                    :Logging Measured From (Name of Working Datum)
APD   .ft        18.00                            :Elevation of Working Datum (LMF) Above Permanent Datum
EDF   .ft        332.70                           :Elevation of Derrick Floor Above Mean Sea Level
EGL   .ft        315.70                           :Elevation of Ground Level Above Mean Sea Level
EKB   .ft        333.70                           :Elevation of Kelly Bushing Above Mean Sea Level
~Curve Information Block
#MNEM.UNIT       API Code            Curve    Description
#--------        --------------      -----    -------------------
DEPT  .F                             :0       Index
SXGA  .                              :1       CO2 Saturation
GR    .GAPI                          :2       Gamma Ray                     
INFD_TDTL.CPS                        :3       Gross Inelastic Count Rate Far Detector (TDT-like)
PHIC  .V/V                           :4       TDT Count Rate Porosity       
SBNA  .CU                            :5       RST Sigma Borehole Near Apparent
SIBH_TDTL.CU                         :6       Sigma Borehole Corrected (TDT-like)
SIGM  .CU                            :7       Formation Sigma (Neutron Capture Cross Section)
SIGM_TDTL.CU                         :8       Formation Sigma (Neutron Capture Cros Section) (TDT-like)
SXWI  .V/V                           :9       Non-Clay Water Intergranular Water Saturation for the Flushed Zone
TPHI  .V/V                           :10      Thermal Decay Porosity        
TSCF_TDTL.CPS                        :11      Total Selected Count Rate Far Detector (TDT-like)
TSCN_TDTL.CPS                        :12      Total Selected Count Rate Near Detector (TDT-like)
VXGA  .V/V                           :13      Volume of Gas in Flushed Zone 
WPRE  .PSI                           :14      Well Pressure                 
WTEP  .DEGF                          :15      Well Temperature              
~Ascii Data Section
# ...
   9826.00000       0.00000      53.44621     278.53314       0.23958      92.68630     132.48494      25.85266      22.54635       1.00000       0.23167    1262.91455    2484.90625       0.00000    4414.86279     250.93611 
   9826.50000       0.00000      49.23560     284.23962       0.23700      95.78537     135.12886      23.74695      21.55916       1.00000       0.22975    1377.42395    2707.36914       0.00000    4415.08789     250.94214 
   9827.00000       0.00000      47.88188     283.33649       0.23102      97.40505     136.18053      23.38938      21.60437       1.00000       0.23064    1411.59924    2727.27466       0.00000    4415.30713     250.94826 
   9827.50000       0.00000      49.15144     278.67963       0.23599      97.58461     137.43271      24.27325      21.62033       1.00000       0.23115    1384.06165    2702.24146       0.00000    4415.53418     250.95203 
   9828.00000       0.00000      50.82091     269.75018       0.24189      94.96004     139.62952      25.43678      22.47171       1.00000       0.22650    1339.57263    2633.07544       0.00000    4415.74805     250.95848 
   9828.50000       0.00000      51.81676     260.98352       0.24300      97.04555     140.14526      25.52633      23.15404       1.00000       0.22381    1292.02197    2530.34814       0.00000    4415.96729     250.96463 
   9829.00000       0.00000      50.24897     253.24977       0.24071     102.57661     140.39816      24.68260      22.33465       1.00000       0.22581    1318.41003    2579.83862       0.00000    4416.23730     250.96858 
   9829.50000       0.00000      46.77333     234.29068       0.24834      98.41101     143.67065      23.39094      21.19653       1.00000       0.23533    1350.74304    2698.57617       0.00000    4416.45752     250.97255 
   9830.00000       0.00000      44.38502     218.78357       0.25160      96.61082     145.46797      22.81132      21.00511       1.00000       0.24560    1325.00317    2661.60669       0.00000    4416.68652     250.97859 
   9830.50000       0.00000      43.12362     204.45840       0.25630      98.22421     144.15186      23.75048      21.63976       1.00000       0.25210    1234.18018    2498.64307       0.00000    4416.92285     250.98779 
   9831.00000       0.00000      45.45650     208.91954       0.25858      97.79263     145.01035      25.54612      21.78989       1.00000       0.24698    1197.67957    2431.34839       0.00000    4417.15430     250.99329 
   9831.50000       0.00000      49.27787     227.74426       0.24947      97.79191     144.53023      25.85460      21.61486       1.00000       0.23765    1241.98303    2471.25659       0.00000    4417.39600     250.99911 
   9832.00000       0.00000      50.75743     247.85010       0.22878      99.96989     140.71449      24.07632      21.62170       1.00000       0.22389    1382.23962    2625.99219       0.00000    4417.62695     251.00861 
   9832.50000       0.00000      51.54364     273.15179       0.21523      97.97883     138.58249      21.81791      20.78646       1.00000       0.21105    1539.04639    2856.94995       0.00000    4417.83154     251.01939 
   9833.00000       0.00000      50.10665     282.13583       0.20517      95.35699     138.64879      21.29980      20.65713       1.00000       0.19763    1691.07397    3059.07202       0.00000    4418.06152     251.02390 
   9833.50000       0.00000      47.35978     286.21973       0.19670      97.94527     138.34953      22.43581      21.15092       1.00000       0.18489    1727.88306    3034.29224       0.00000    4418.34277     251.03123 
   9834.00000       0.00000      47.08880     283.55756       0.17827     100.73209     138.51353      24.17258      22.14757       1.00000       0.17447    1635.79504    2808.15454       0.00000    4418.61426     251.03755 
   9834.50000       0.00000      49.81039     277.47769       0.17500     100.90869     138.93898      25.82756      23.43474       1.00000       0.17108    1453.06592    2499.39893       0.00000    4418.80566     251.04369 
   9835.00000       0.00000      50.79398     273.38528       0.17695     101.97952     140.56607      27.04773      24.43906       1.00000       0.17735    1318.92249    2267.97607       0.00000    4419.05762     251.05165 
   9835.50000       0.00000      52.62006     271.01599       0.18339      98.60712     139.36665      27.59825      24.65235       1.00000       0.19223    1226.56311    2142.75781       0.00000    4419.30469     251.05765 
   9836.00000       0.00000      52.17445     275.79150       0.21020      98.15198     137.15378      27.82190      24.17712       1.00000       0.20340    1204.70923    2175.62134       0.00000    4419.53076     251.06412 
   9836.50000       0.00000      49.69476     281.43051       0.22595      94.04532     135.20293      27.61253      23.71462       1.00000       0.21480    1221.20483    2274.04834       0.00000    4419.79346     251.06995 
   9837.00000       0.00000      48.94444     289.19699       0.23283      92.27172     136.79530      27.17840      23.90830       1.00000       0.22903    1216.01343    2302.07886       0.00000    4419.97852     251.07664 
   9837.50000       0.00000      50.58611     288.15582       0.24799      92.84923     136.51074      27.59882      24.63422       1.00000       0.25334    1135.38599    2226.57104       0.00000    4420.19775     251.08531 
   9838.00000       0.00000      52.72433     278.05466       0.26216      92.45547     135.71323      29.25775      25.79639       1.00000       0.27967    1041.78479    2103.16748       0.00000    4420.47314     251.09669 
   9838.50000       0.00000      58.49789     272.91605       0.26249      89.80801     134.24120      31.42991      28.05479       1.00000       0.30094     923.10919    1929.89453       0.00000    4420.71338     251.10423 
   9839.00000       0.00000      63.81719     273.18832       0.29802      86.87416     133.17084      32.85954      29.68311       1.00000       0.30965     808.66565    1774.41528       0.00000    4420.88525     251.11229 
   9839.50000       0.00000      66.75511     278.80957       0.31522      84.34985     131.40494      33.24438      29.30871       1.00000       0.30637     773.31091    1741.99463       0.00000    4421.06689     251.11871 
   9840.00000       0.00000      66.55672     283.28040       0.31105      86.82799     130.64560      32.78951      29.10524       1.00000       0.29740     793.54871    1776.22974       0.00000    4421.31006     251.12445 
   9840.50000       0.00000      66.08126     285.16974       0.28227      88.57381     132.74854      32.03078      29.33562       1.00000       0.28435     836.29663    1826.93909       0.00000    4421.60156     251.12639 
   9841.00000       0.00000      63.24557     286.39658       0.28530      89.59835     134.96785      31.19515      28.80075       1.00000       0.27095     881.37665    1886.56714       0.00000    4421.80664     251.13130 
   9841.50000       0.00000      62.29250     284.80890       0.25652      91.11979     136.32567      30.83331      28.05994       1.00000       0.25209     951.40240    1953.83740       0.00000    4422.06006     251.13510 
   9842.00000       0.00000      59.27387     279.80698       0.25754      92.47990     137.97762      30.21312      27.11757       1.00000       0.23633    1011.89545    2033.99902       0.00000    4422.24121     251.14075 
   9842.50000       0.00000      57.44857     267.48700       0.26300      94.97569     139.28186      28.95984      25.90295       1.00000       0.22775    1077.81018    2169.14380       0.00000    4422.43506     251.14882 
   9843.00000       0.00000      54.07740     252.66431       0.25929      97.29984     140.75035      27.54526      24.73613       1.00000       0.23030    1158.61108    2332.52222       0.00000    4422.72070     251.15485 
   9843.50000       0.00000      51.55409     249.77049       0.25424      94.42549     141.51973      26.53362      24.29320       1.00000       0.23344    1214.46008    2421.20117       0.00000    4422.98291     251.16273 
