~Version Information
VERS  .          2.0                              :CWLS Log Ascii Standard - Version 2.0
WRAP  .          NO                               :One line per depth step
~Well Information Block
#MNEM.UNIT       Data Type                        Information
#---------       ---------                        -------------------------------
STRT  .F         9700.00000                       :START DEPTH
STOP  .F         10647.00000                      :STOP DEPTH
STEP  .F          0.50000                         :INCREMENT
NULL  .          -999.25                          :NULL DATA VALUE
COMP  .          DENBURY ONSHORE, LLC             :COMPANY
WELL  .          CFU 31F #1                       :WELL
FLD   .          CRANFIELD FIELD UNIT             :FIELD
LOC   .                                           :LOCATION
PROV  .                                           :PROVINCE
STAT  .                                           :STATE
CNTY  .                                           :COUNTY
CTRY  .                                           :COUNTRY
DATE  .                                           :DATE
UWI   .          CFU 31F #1                       :UNIQUE WELL UWI
LIC   .                                           :LICENSE NUMBER
API   .          23-037-21488-0000                :API NUMBER
SRVC  .                                           :SERVICE COMPANY
~Parameter Information Block
#MNEM.UNIT       Value                            Description
#---------       ---------                        -------------
PDAT  .          GROUND LEVEL                     :Permanent Datum               
EPD   .ft        315.70                           :Elevation of Permanent Datum (PDAT) above Mean Sea Level
LMF   .          KELLY BUSHING                    :Logging Measured From (Name of Working Datum)
APD   .ft        18.00                            :Elevation of Working Datum (LMF) Above Permanent Datum
EDF   .ft        332.70                           :Elevation of Derrick Floor Above Mean Sea Level
EGL   .ft        315.70                           :Elevation of Ground Level Above Mean Sea Level
EKB   .ft        333.70                           :Elevation of Kelly Bushing Above Mean Sea Level
~Curve Information Block
#MNEM.UNIT       API Code            Curve    Description
#--------        --------------      -----    -------------------
DEPT  .F                             :0       Index
AT10  .OHMM                          :1       Array Induction Two Foot Resistivity A10
AT20  .OHMM                          :2       Array Induction Two Foot Resistivity A20
AT30  .OHMM                          :3       Array Induction Two Foot Resistivity A30
AT60  .OHMM                          :4       Array Induction Two Foot Resistivity A60
AT90  .OHMM                          :5       Array Induction Two Foot Resistivity A90
BS    .IN                            :6       Bit Size                      
DT    .US/F                          :7       Delta-T (also called Slowness or Interval Transit Time)
GR    .GAPI                          :8       Gamma Ray                     
HCAL  .IN                            :9       HRCC Caliper Calibrated       
HTNP  .V/V                           :10      High Resolution Thermal Neutron Porosity (Ratio Method) in Sand Lithology
KINT  .MD                            :11      Intrinsic Permeability        
PHIT  .V/V                           :12      Total Porosity_ includes all forms of porosity, including that occupied by bound fluids, and is independent of rock and fluid materials and of environmental effects
PIGN  .V/V                           :13      Effective Porosity, VISO, VPAR, and Bound Water Removed
SUWI  .V/V                           :14      Non-Clay Water Intergranular Water Saturation for Undisturbed Zone
VCHL  .V/V                           :15      Volume of Chlorite Relative to Total Volume
VCLC  .V/V                           :16      Volume of Calcite Relative to Total Volume
VILL  .V/V                           :17      Volume of Illite (dry) Relative to Total Volume
VKAO  .V/V                           :18      Volume of Kaolinite (dry) Relative to Total Volume
VQUA  .V/V                           :19      Volume of Quartz Relative to Total Volume
VUIW  .V/V                           :20      Volume of Irreducible Water In Undisturbed Zone
VUWA  .V/V                           :21      Volume of Water in Undisturbed Zone
VXBW  .V/V                           :22      Volume of Bound Water in Flushed Zone
~Ascii Data Section
# ...
  10525.00000       3.82492       4.03513       4.21138       4.04254       4.09595       8.75000      70.37858     109.07001       9.28767       0.20005       0.01000       0.07391       0.04024       1.00000       0.07087       0.04797       0.18548       0.09329       0.52848       0.02488       0.01536       0.03368 
  10525.50000       4.99489       5.18156       5.43921       4.78597       4.96751       8.75000      66.05096     117.81541       8.89882       0.18389       0.01000       0.05298       0.02186       1.00000       0.06614       0.06518       0.14751       0.12689       0.54131       0.01162       0.01023       0.03112 
  10526.00000       6.47968       7.38234       8.15023       6.46912       6.46755       8.75000      65.21680     117.39321       8.80732       0.16498       0.01000       0.05025       0.01901       1.00000       0.06562       0.07921       0.17309       0.08502       0.54680       0.01234       0.00666       0.03124 
  10526.50000       7.56506       9.52862       9.79068       7.54297       8.65588       8.75000      68.32883     115.65064       8.96743       0.18293       0.01000       0.06420       0.02687       1.00000       0.06783       0.06488       0.25963       0.02860       0.51487       0.02362       0.00325       0.03733 
  10527.00000       4.95247       5.94720       5.85319       5.10600       5.48987       8.75000      69.46394     102.52597       8.67007       0.20506       0.01000       0.07771       0.04475       1.00000       0.07646       0.07719       0.19941       0.04718       0.52205       0.03074       0.01401       0.03296 
  10527.50000       3.63216       3.90359       4.05774       3.62572       3.93301       8.75000      69.07632      89.61071       8.60145       0.18504       0.01280       0.07358       0.04596       1.00000       0.09162       0.05285       0.12390       0.06476       0.59330       0.01954       0.02642       0.02762 
  10528.00000       4.88477       4.97455       4.94301       4.61736       4.82752       8.75000      65.28194      77.45110       9.31055       0.14371       0.01000       0.04719       0.02436       1.00000       0.11077       0.02173       0.04647       0.08730       0.68653       0.00372       0.02065       0.02282 
  10528.50000       7.69344       9.14941       9.50389       8.15478       8.65774       8.75000      64.15267      81.41330       8.67007       0.13368       0.01000       0.03744       0.01155       1.00000       0.10678       0.04265       0.09999       0.05074       0.66240       0.00491       0.00664       0.02589 
  10529.00000       9.91087      10.93163      12.59023      10.67376      11.38861       8.75000      61.87979      89.30650       8.64720       0.16329       0.01000       0.03008       0.00408       1.00000       0.10564       0.03711       0.07065       0.10602       0.65049       0.00177       0.00231       0.02600 
  10529.50000       6.27431       7.77907       8.62776       7.59051       7.96045       8.75000      67.83144     102.58306       8.77301       0.19916       0.01000       0.06361       0.03138       1.00000       0.08166       0.05103       0.17352       0.07104       0.55914       0.01874       0.01264       0.03223 
  10530.00000       5.11961       5.63030       5.98061       5.39412       5.75991       8.75000      72.84052     111.70121       8.69294       0.23130       0.01000       0.08778       0.04934       1.00000       0.07683       0.00000       0.24225       0.06056       0.53259       0.03884       0.01050       0.03844 
  10530.50000       4.32925       4.61268       4.81487       4.37777       4.62950       8.75000      73.98410     122.14524       8.73870       0.25296       0.01000       0.09714       0.05496       1.00000       0.06683       0.00000       0.29010       0.05576       0.49018       0.05296       0.00200       0.04217 
  10531.00000       3.56811       3.81444       3.92835       3.64144       3.75215       8.75000      79.48220     122.45883       8.72726       0.28268       0.01000       0.12641       0.07927       1.00000       0.05900       0.00000       0.36075       0.02716       0.42668       0.07927       0.00000       0.04714 
  10531.50000       3.43889       3.76894       3.88207       3.55297       3.67437       8.75000      80.02956     117.09435       8.67008       0.29518       0.01000       0.13015       0.08302       1.00000       0.06342       0.00000       0.35576       0.02768       0.42299       0.08302       0.00000       0.04713 
  10532.00000       3.48600       3.85331       3.93346       3.55225       3.62468       8.75000      80.98643     119.47781       9.00176       0.31395       0.01000       0.13325       0.08283       1.00000       0.05894       0.00000       0.38982       0.02976       0.38823       0.08283       0.00000       0.05042 
  10532.50000       3.19166       3.49430       3.51065       3.23511       3.31928       8.75000      81.62566     117.28739       9.12756       0.31829       0.01000       0.13674       0.08657       1.00000       0.05807       0.00000       0.38756       0.03127       0.38636       0.08657       0.00000       0.05017 
  10533.00000       3.01665       3.28501       3.28801       3.05853       3.13503       8.75000      82.46405     124.12674       9.27624       0.31739       0.01000       0.14038       0.08862       1.00000       0.04939       0.00000       0.41256       0.02927       0.36840       0.08862       0.00000       0.05177 
  10533.50000       3.02538       3.28035       3.28105       3.07108       3.10443       8.75000      81.26262     117.73669       9.28768       0.30096       0.01000       0.13380       0.08534       1.00000       0.05607       0.00000       0.37278       0.03278       0.40457       0.08534       0.00000       0.04845 
  10534.00000       3.18030       3.45510       3.48809       3.24928       3.27323       8.75000      81.60760     123.78426       9.10469       0.27949       0.01000       0.13146       0.08287       1.00000       0.05071       0.00000       0.38222       0.02827       0.40733       0.08287       0.00000       0.04859 
  10534.50000       3.35002       3.61520       3.66594       3.46921       3.38851       8.75000      80.24710     123.02390       9.05894       0.26505       0.01000       0.12500       0.07768       1.00000       0.05352       0.00000       0.37249       0.01962       0.42936       0.07768       0.00000       0.04732 
  10535.00000       3.59805       3.83689       3.88793       3.60469       3.57675       8.75000      80.02760     124.31951       9.01318       0.26380       0.01000       0.12261       0.07478       1.00000       0.05336       0.00000       0.37712       0.02008       0.42683       0.07478       0.00000       0.04783 
  10535.50000       3.66270       3.74632       4.03419       3.73154       3.75447       8.75000      79.78716     118.55496       9.05893       0.27280       0.01000       0.12572       0.07939       1.00000       0.05835       0.00000       0.35730       0.02124       0.43739       0.07939       0.00000       0.04633 
  10536.00000       3.61361       3.95251       4.00854       3.72541       3.69108       8.75000      79.99594     120.60892       8.78445       0.27350       0.01000       0.13057       0.08458       1.00000       0.05739       0.00000       0.35958       0.01346       0.43900       0.08458       0.00000       0.04599 
  10536.50000       3.70519       4.00000       4.12451       3.81099       3.71170       8.75000      80.45979     117.84379       8.80731       0.26457       0.01008       0.13202       0.08785       1.00000       0.05810       0.00000       0.33852       0.01947       0.45189       0.08785       0.00000       0.04417 
  10537.00000       3.52757       3.82988       3.81107       3.51354       3.43494       8.75000      79.05988     121.94004       8.94457       0.26935       0.01000       0.12141       0.07549       1.00000       0.05863       0.00000       0.34458       0.03623       0.43914       0.07549       0.00000       0.04592 
