~Version Information
VERS  .          2.0                              :CWLS Log Ascii Standard - Version 2.0
WRAP  .          NO                               :One line per depth step
~Well Information Block
#MNEM.UNIT       Data Type                        Information
#---------       ---------                        -------------------------------
STRT  .F         9700.00000                       :START DEPTH
STOP  .F         10647.00000                      :STOP DEPTH
STEP  .F          0.50000                         :INCREMENT
NULL  .          -999.25                          :NULL DATA VALUE
COMP  .          DENBURY ONSHORE, LLC             :COMPANY
WELL  .          CFU 31F #1                       :WELL
FLD   .          CRANFIELD FIELD UNIT             :FIELD
LOC   .                                           :LOCATION
PROV  .                                           :PROVINCE
STAT  .                                           :STATE
CNTY  .                                           :COUNTY
CTRY  .                                           :COUNTRY
DATE  .                                           :DATE
UWI   .          CFU 31F #1                       :UNIQUE WELL UWI
LIC   .                                           :LICENSE NUMBER
API   .          23-037-21488-0000                :API NUMBER
SRVC  .                                           :SERVICE COMPANY
~Parameter Information Block
#MNEM.UNIT       Value                            Description
#---------       ---------                        -------------
PDAT  .          GROUND LEVEL                     :Permanent Datum               
EPD   .ft        315.70                           :Elevation of Permanent Datum (PDAT) above Mean Sea Level
LMF   .          KELLY BUSHING                    :Logging Measured From (Name of Working Datum)
APD   .ft        18.00                            :Elevation of Working Datum (LMF) Above Permanent Datum
EDF   .ft        332.70                           :Elevation of Derrick Floor Above Mean Sea Level
EGL   .ft        315.70                           :Elevation of Ground Level Above Mean Sea Level
EKB   .ft        333.70                           :Elevation of Kelly Bushing Above Mean Sea Level
~Curve Information Block
#MNEM.UNIT       API Code            Curve    Description
#--------        --------------      -----    -------------------
DEPT  .F                             :0       Index
AT10  .OHMM                          :1       Array Induction Two Foot Resistivity A10
AT20  .OHMM                          :2       Array Induction Two Foot Resistivity A20
AT30  .OHMM                          :3       Array Induction Two Foot Resistivity A30
AT60  .OHMM                          :4       Array Induction Two Foot Resistivity A60
AT90  .OHMM                          :5       Array Induction Two Foot Resistivity A90
BS    .IN                            :6       Bit Size                      
DT    .US/F                          :7       Delta-T (also called Slowness or Interval Transit Time)
GR    .GAPI                          :8       Gamma Ray                     
HCAL  .IN                            :9       HRCC Caliper Calibrated       
HTNP  .V/V                           :10      High Resolution Thermal Neutron Porosity (Ratio Method) in Sand Lithology
KINT  .MD                            :11      Intrinsic Permeability        
PHIT  .V/V                           :12      Total Porosity_ includes all forms of porosity, including that occupied by bound fluids, and is independent of rock and fluid materials and of environmental effects
PIGN  .V/V                           :13      Effective Porosity, VISO, VPAR, and Bound Water Removed
SUWI  .V/V                           :14      Non-Clay Water Intergranular Water Saturation for Undisturbed Zone
VCHL  .V/V                           :15      Volume of Chlorite Relative to Total Volume
VCLC  .V/V                           :16      Volume of Calcite Relative to Total Volume
VILL  .V/V                           :17      Volume of Illite (dry) Relative to Total Volume
VKAO  .V/V                           :18      Volume of Kaolinite (dry) Relative to Total Volume
VQUA  .V/V                           :19      Volume of Quartz Relative to Total Volume
VUIW  .V/V                           :20      Volume of Irreducible Water In Undisturbed Zone
VUWA  .V/V                           :21      Volume of Water in Undisturbed Zone
VXBW  .V/V                           :22      Volume of Bound Water in Flushed Zone
~Ascii Data Section
# ...
  10112.50000       2.40330       2.74633       2.60154       2.57784       2.47344       8.75000      86.48409      99.16076      10.74024       0.18143       0.25436       0.15716       0.12648       1.00000       0.04877       0.00000       0.20622       0.04868       0.53916       0.08296       0.04353       0.03068 
  10113.00000       2.68446       2.79821       2.73694       2.67860       2.57942       8.75000      85.97939      98.44549      11.20909       0.21456       0.13365       0.15707       0.12310       1.00000       0.04934       0.00000       0.23745       0.04655       0.50959       0.09486       0.02825       0.03397 
  10113.50000       3.25568       3.48735       3.41123       3.17011       3.05544       8.75000      80.73136      86.34632      10.61443       0.22104       0.14302       0.13508       0.10414       1.00000       0.07188       0.00000       0.18584       0.04641       0.56078       0.06045       0.04369       0.03094 
  10114.00000       4.18953       4.74563       4.68472       4.39860       4.30057       8.75000      77.64243      86.80533       9.92819       0.20987       0.04559       0.11032       0.07787       1.00000       0.08059       0.00000       0.18944       0.04870       0.57095       0.04619       0.03168       0.03245 
  10114.50000       4.67381       5.38545       5.43269       5.21502       5.01782       8.75000      72.81197      85.33353       9.60795       0.20496       0.01036       0.08289       0.04976       1.00000       0.09323       0.00000       0.18534       0.04390       0.59464       0.02873       0.02104       0.03313 
  10115.00000       4.06101       5.12504       5.22529       5.07769       4.93529       8.75000      74.66007      91.00213       9.56220       0.20452       0.01000       0.08696       0.04999       1.00000       0.08648       0.00000       0.23632       0.02938       0.56086       0.03827       0.01173       0.03697 
  10115.50000       3.37718       4.30410       4.32523       4.30328       4.05106       8.75000      72.96448      92.00288       9.17336       0.21805       0.01000       0.08645       0.05044       1.00000       0.08980       0.00000       0.22552       0.02677       0.57145       0.03659       0.01385       0.03602 
  10116.00000       3.08301       3.61047       3.67970       3.71944       3.43994       8.75000      73.05051      98.48158       9.33343       0.23708       0.01105       0.09388       0.05827       1.00000       0.08289       0.00000       0.21555       0.05017       0.55750       0.04013       0.01814       0.03561 
  10116.50000       2.78859       3.06186       3.18943       3.27987       3.00053       8.75000      76.10415      98.02641       9.60798       0.26166       0.02129       0.11292       0.07642       1.00000       0.07634       0.00000       0.22598       0.05829       0.52647       0.05559       0.02083       0.03650 
  10117.00000       2.53948       2.59856       2.71844       2.78221       2.63360       8.75000      79.38627     100.60201       9.65374       0.30998       0.01028       0.12795       0.08521       1.00000       0.07124       0.00000       0.28643       0.06323       0.45117       0.08095       0.00426       0.04273 
  10117.50000       2.25310       2.37705       2.44696       2.48951       2.33425       8.75000      82.31071     103.18443      10.86604       0.33966       0.01000       0.13912       0.08944       1.00000       0.06392       0.00000       0.36222       0.05678       0.37797       0.08944       0.00000       0.04967 
  10118.00000       2.16581       2.28930       2.40161       2.45266       2.40634       8.75000      85.74209     105.68687      11.16344       0.37451       0.01000       0.16175       0.10691       1.00000       0.05775       0.00000       0.42786       0.03707       0.31558       0.10691       0.00000       0.05483 
  10118.50000       2.09028       2.21187       2.27656       2.33021       2.40476       8.75000      88.75923     107.11741      11.50651       0.38294       0.01000       0.17920       0.12337       1.00000       0.05009       0.00000       0.44659       0.03444       0.28969       0.12337       0.00000       0.05583 
  10119.00000       2.02708       2.13888       2.19349       2.20213       2.31054       8.75000      88.29113     106.39777      11.50651       0.38136       0.01000       0.17853       0.12439       1.00000       0.05056       0.00000       0.42489       0.04408       0.30195       0.12439       0.00000       0.05414 
  10119.50000       2.26490       2.43453       2.48372       2.49318       2.55892       8.75000      87.36050     103.15966      11.46077       0.37021       0.01000       0.17207       0.11981       1.00000       0.05348       0.00000       0.40363       0.04534       0.32548       0.11981       0.00000       0.05225 
  10120.00000       2.49640       2.75359       2.78315       2.76264       2.84693       8.75000      85.73460     100.61327      11.25489       0.35472       0.01000       0.16427       0.11382       1.00000       0.05799       0.00000       0.38961       0.03235       0.35578       0.11382       0.00000       0.05045 
  10120.50000       2.54617       2.79073       2.82500       2.84292       2.87128       8.75000      85.18628      93.98202      11.14054       0.33033       0.01000       0.15724       0.10932       1.00000       0.06508       0.00000       0.36364       0.02367       0.39036       0.10932       0.00000       0.04792 
  10121.00000       2.63500       2.85042       2.88423       2.89208       2.87931       8.75000      83.74469     100.21414      11.30065       0.31954       0.01000       0.14804       0.09890       1.00000       0.06253       0.00000       0.37878       0.02171       0.38894       0.09890       0.00000       0.04914 
  10121.50000       2.85597       3.08457       3.14737       3.14863       3.08922       8.75000      82.62372     106.26172      11.18630       0.30755       0.01000       0.14047       0.09131       1.00000       0.05968       0.00000       0.37748       0.02955       0.39282       0.09131       0.00000       0.04916 
  10122.00000       3.14189       3.44868       3.50024       3.49351       3.36019       8.75000      82.35104     109.08739      11.02615       0.28766       0.01000       0.13610       0.08717       1.00000       0.05760       0.00000       0.38285       0.02006       0.40340       0.08717       0.00000       0.04892 
  10122.50000       2.99617       3.27643       3.35219       3.35607       3.19872       8.75000      80.51798     111.30680      10.36278       0.27226       0.01000       0.12570       0.07801       1.00000       0.06150       0.00000       0.36802       0.01887       0.42592       0.07801       0.00000       0.04769 
  10123.00000       2.88839       3.12232       3.21892       3.19729       3.09150       8.75000      80.82056     106.13665      10.54577       0.28237       0.01000       0.12924       0.08239       1.00000       0.06499       0.00000       0.35356       0.02423       0.42797       0.08239       0.00000       0.04686 
  10123.50000       2.99484       3.26513       3.36662       3.32940       3.15681       8.75000      79.05836     100.76659      10.45440       0.29666       0.01000       0.12489       0.07992       1.00000       0.07225       0.00000       0.32198       0.03552       0.44537       0.07992       0.00000       0.04497 
  10124.00000       3.06266       3.34912       3.49876       3.48431       3.38203       8.75000      77.88311      98.07034      10.70592       0.30546       0.01000       0.11903       0.07455       1.00000       0.07389       0.00000       0.31000       0.04549       0.45158       0.07455       0.00000       0.04448 
  10124.50000       2.85388       3.05540       3.15219       3.19436       3.12231       8.75000      78.92851      99.90390      11.02614       0.30944       0.01000       0.12199       0.07560       1.00000       0.06782       0.00000       0.33761       0.03933       0.43324       0.07560       0.00000       0.04639 
