~Version Information
VERS  .          2.0                              :CWLS Log Ascii Standard - Version 2.0
WRAP  .          NO                               :One line per depth step
~Well Information Block
#MNEM.UNIT       Data Type                        Information
#---------       ---------                        -------------------------------
STRT  .F         9700.00000                       :START DEPTH
STOP  .F         10647.00000                      :STOP DEPTH
STEP  .F          0.50000                         :INCREMENT
NULL  .          -999.25                          :NULL DATA VALUE
COMP  .          DENBURY ONSHORE, LLC             :COMPANY
WELL  .          CFU 31F #1                       :WELL
FLD   .          CRANFIELD FIELD UNIT             :FIELD
LOC   .                                           :LOCATION
PROV  .                                           :PROVINCE
STAT  .                                           :STATE
CNTY  .                                           :COUNTY
CTRY  .                                           :COUNTRY
DATE  .                                           :DATE
UWI   .          CFU 31F #1                       :UNIQUE WELL UWI
LIC   .                                           :LICENSE NUMBER
API   .          23-037-21488-0000                :API NUMBER
SRVC  .                                           :SERVICE COMPANY
~Parameter Information Block
#MNEM.UNIT       Value                            Description
#---------       ---------                        -------------
PDAT  .          GROUND LEVEL                     :Permanent Datum               
EPD   .ft        315.70                           :Elevation of Permanent Datum (PDAT) above Mean Sea Level
LMF   .          KELLY BUSHING                    :Logging Measured From (Name of Working Datum)
APD   .ft        18.00                            :Elevation of Working Datum (LMF) Above Permanent Datum
EDF   .ft        332.70                           :Elevation of Derrick Floor Above Mean Sea Level
EGL   .ft        315.70                           :Elevation of Ground Level Above Mean Sea Level
EKB   .ft        333.70                           :Elevation of Kelly Bushing Above Mean Sea Level
~Curve Information Block
#MNEM.UNIT       API Code            Curve    Description
#--------        --------------      -----    -------------------
DEPT  .F                             :0       Index
AT10  .OHMM                          :1       Array Induction Two Foot Resistivity A10
AT20  .OHMM                          :2       Array Induction Two Foot Resistivity A20
AT30  .OHMM                          :3       Array Induction Two Foot Resistivity A30
AT60  .OHMM                          :4       Array Induction Two Foot Resistivity A60
AT90  .OHMM                          :5       Array Induction Two Foot Resistivity A90
BS    .IN                            :6       Bit Size                      
DT    .US/F                          :7       Delta-T (also called Slowness or Interval Transit Time)
GR    .GAPI                          :8       Gamma Ray                     
HCAL  .IN                            :9       HRCC Caliper Calibrated       
HTNP  .V/V                           :10      High Resolution Thermal Neutron Porosity (Ratio Method) in Sand Lithology
KINT  .MD                            :11      Intrinsic Permeability        
PHIT  .V/V                           :12      Total Porosity_ includes all forms of porosity, including that occupied by bound fluids, and is independent of rock and fluid materials and of environmental effects
PIGN  .V/V                           :13      Effective Porosity, VISO, VPAR, and Bound Water Removed
SUWI  .V/V                           :14      Non-Clay Water Intergranular Water Saturation for Undisturbed Zone
VCHL  .V/V                           :15      Volume of Chlorite Relative to Total Volume
VCLC  .V/V                           :16      Volume of Calcite Relative to Total Volume
VILL  .V/V                           :17      Volume of Illite (dry) Relative to Total Volume
VKAO  .V/V                           :18      Volume of Kaolinite (dry) Relative to Total Volume
VQUA  .V/V                           :19      Volume of Quartz Relative to Total Volume
VUIW  .V/V                           :20      Volume of Irreducible Water In Undisturbed Zone
VUWA  .V/V                           :21      Volume of Water in Undisturbed Zone
VXBW  .V/V                           :22      Volume of Bound Water in Flushed Zone
~Ascii Data Section
# ...
  10050.00000       2.02842       2.27968       2.28309       2.28176       2.14861       8.75000      86.58338     113.16126      10.76310       0.37905       0.01000       0.17499       0.12255       1.00000       0.04488       0.00000       0.41474       0.04468       0.32071       0.12255       0.00000       0.05244 
  10050.50000       2.08878       2.30793       2.35877       2.39688       2.33021       8.75000      87.23272     110.49490      10.79739       0.35101       0.01168       0.17661       0.12814       1.00000       0.04421       0.00000       0.37645       0.04844       0.35428       0.12814       0.00000       0.04848 
  10051.00000       2.12575       2.40641       2.41464       2.43264       2.35583       8.75000      86.70108     103.54775      10.98039       0.30504       0.03497       0.17184       0.12933       1.00000       0.04895       0.00000       0.31894       0.04354       0.41673       0.12933       0.00000       0.04252 
  10051.50000       2.26039       2.51029       2.60340       2.63114       2.55939       8.75000      84.52280     101.04530      10.98040       0.28962       0.02756       0.15530       0.11345       1.00000       0.05558       0.00000       0.30357       0.04746       0.43809       0.11345       0.00000       0.04185 
  10052.00000       2.52736       2.75211       2.82225       2.85143       2.79198       8.75000      81.90481     102.23742      11.00332       0.28846       0.01075       0.13770       0.09325       1.00000       0.06065       0.00000       0.32833       0.03725       0.43607       0.09325       0.00000       0.04446 
  10052.50000       2.98246       3.34897       3.51461       3.56159       3.49834       8.75000      80.34061     106.54785      10.24846       0.29614       0.01000       0.12715       0.08004       1.00000       0.06346       0.00000       0.35343       0.03142       0.42454       0.08004       0.00000       0.04711 
  10053.00000       2.82313       3.17482       3.25337       3.29086       3.27012       8.75000      80.52785     113.23710      10.61445       0.28715       0.01000       0.12752       0.08005       1.00000       0.05545       0.00000       0.36084       0.03882       0.41736       0.08005       0.00000       0.04747 
  10053.50000       2.70774       2.95828       3.04553       3.06256       3.08085       8.75000      81.19520     107.20402      10.95741       0.27811       0.01068       0.13294       0.08958       1.00000       0.05648       0.00000       0.31230       0.05505       0.44324       0.08958       0.00000       0.04336 
  10054.00000       2.65143       2.90215       2.99547       3.05575       3.06934       8.75000      82.54556     112.89669      11.16341       0.30422       0.01000       0.14343       0.09704       1.00000       0.04819       0.00000       0.34823       0.05655       0.40360       0.09704       0.00000       0.04639 
  10054.50000       2.69291       2.99823       3.04748       3.09497       3.08689       8.75000      81.72272     108.70989      11.03761       0.32562       0.01000       0.14365       0.09668       1.00000       0.05472       0.00000       0.34955       0.05190       0.40017       0.09668       0.00000       0.04698 
  10055.00000       2.69589       2.96455       3.08682       3.11696       3.09161       8.75000      81.48799     115.21982      11.20913       0.34112       0.01000       0.14314       0.09216       1.00000       0.05063       0.00000       0.39502       0.04483       0.36639       0.09216       0.00000       0.05098 
  10055.50000       2.71081       2.97132       3.04417       3.05238       3.01370       8.75000      81.19466     111.40399      11.02614       0.34010       0.01000       0.14084       0.09055       1.00000       0.05590       0.00000       0.38398       0.04343       0.37585       0.09055       0.00000       0.05029 
  10056.00000       2.72554       2.92367       2.97921       3.00460       2.95251       8.75000      81.02715     117.45335      10.86605       0.34213       0.01000       0.13933       0.08734       1.00000       0.05144       0.00000       0.40496       0.04239       0.36188       0.08734       0.00000       0.05199 
  10056.50000       2.74149       2.94884       3.01311       3.05619       3.00269       8.75000      81.02376     115.78439      11.02614       0.35795       0.01000       0.14020       0.08732       1.00000       0.05207       0.00000       0.40970       0.04743       0.35059       0.08732       0.00000       0.05288 
  10057.00000       2.80093       3.01047       3.11103       3.10345       3.01434       8.75000      81.25989     119.74658      11.14055       0.35494       0.01000       0.14308       0.08989       1.00000       0.04655       0.00000       0.42078       0.04314       0.34644       0.08989       0.00000       0.05319 
  10057.50000       2.85042       3.02021       3.14999       3.12513       3.02294       8.75000      80.94395     115.97663      11.16341       0.34396       0.01000       0.13847       0.08697       1.00000       0.04988       0.00000       0.39858       0.04844       0.36463       0.08697       0.00000       0.05150 
  10058.00000       2.91006       3.12541       3.25994       3.11787       3.01357       8.75000      80.52441     115.51495      11.31208       0.32481       0.01000       0.13526       0.08585       1.00000       0.04927       0.00000       0.37902       0.04984       0.38661       0.08585       0.00000       0.04941 
  10058.50000       2.89341       3.12653       3.25721       3.10881       3.01998       8.75000      80.71230     107.03266      11.27776       0.32481       0.01000       0.13636       0.08912       1.00000       0.05589       0.00000       0.35158       0.05054       0.40563       0.08912       0.00000       0.04724 
  10059.00000       2.83237       3.08764       3.18815       3.16754       3.01713       8.75000      80.08984     101.83373      11.48367       0.32986       0.01327       0.14303       0.09907       1.00000       0.05932       0.00000       0.31888       0.04818       0.43058       0.09907       0.00000       0.04396 
  10059.50000       2.77407       3.04610       3.14877       3.17342       2.93001       8.75000      80.36445      99.67275      11.34642       0.32180       0.02331       0.14578       0.10442       1.00000       0.05984       0.00000       0.29049       0.05470       0.44919       0.10077       0.00365       0.04137 
  10060.00000       2.70426       3.00018       3.15254       3.22200       2.86798       8.75000      81.16739     104.23745      10.98037       0.31630       0.02274       0.14932       0.10727       1.00000       0.05539       0.00000       0.30545       0.04780       0.44203       0.10727       0.00000       0.04205 
  10060.50000       2.59031       2.89975       3.06423       3.15451       2.83158       8.75000      80.77686     107.99112      11.11760       0.31805       0.01146       0.14170       0.09743       1.00000       0.05314       0.00000       0.32322       0.05693       0.42501       0.09743       0.00000       0.04427 
  10061.00000       2.44326       2.73866       2.85187       2.87208       2.65284       8.75000      84.62785     112.00332      11.14053       0.30438       0.01868       0.16125       0.11668       1.00000       0.04146       0.00000       0.34889       0.03820       0.41020       0.11668       0.00000       0.04457 
  10061.50000       2.38139       2.67064       2.76311       2.77962       2.70814       8.75000      83.63378     111.95871      11.09479       0.30231       0.02647       0.15864       0.11648       1.00000       0.04146       0.00000       0.31693       0.05483       0.42814       0.11648       0.00000       0.04215 
  10062.00000       2.39969       2.70808       2.83721       2.89590       2.99955       8.75000      82.05750     115.31136      11.36932       0.29852       0.02731       0.15421       0.11288       1.00000       0.03933       0.00000       0.30878       0.05964       0.43803       0.11288       0.00000       0.04133 
