~Version Information
VERS  .          2.0                              :CWLS Log Ascii Standard - Version 2.0
WRAP  .          NO                               :One line per depth step
~Well Information Block
#MNEM.UNIT       Data Type                        Information
#---------       ---------                        -------------------------------
STRT  .F         9700.00000                       :START DEPTH
STOP  .F         10647.00000                      :STOP DEPTH
STEP  .F          0.50000                         :INCREMENT
NULL  .          -999.25                          :NULL DATA VALUE
COMP  .          DENBURY ONSHORE, LLC             :COMPANY
WELL  .          CFU 31F #1                       :WELL
FLD   .          CRANFIELD FIELD UNIT             :FIELD
LOC   .                                           :LOCATION
PROV  .                                           :PROVINCE
STAT  .                                           :STATE
CNTY  .                                           :COUNTY
CTRY  .                                           :COUNTRY
DATE  .                                           :DATE
UWI   .          CFU 31F #1                       :UNIQUE WELL UWI
LIC   .                                           :LICENSE NUMBER
API   .          23-037-21488-0000                :API NUMBER
SRVC  .                                           :SERVICE COMPANY
~Parameter Information Block
#MNEM.UNIT       Value                            Description
#---------       ---------                        -------------
PDAT  .          GROUND LEVEL                     :Permanent Datum               
EPD   .ft        315.70                           :Elevation of Permanent Datum (PDAT) above Mean Sea Level
LMF   .          KELLY BUSHING                    :Logging Measured From (Name of Working Datum)
APD   .ft        18.00                            :Elevation of Working Datum (LMF) Above Permanent Datum
EDF   .ft        332.70                           :Elevation of Derrick Floor Above Mean Sea Level
EGL   .ft        315.70                           :Elevation of Ground Level Above Mean Sea Level
EKB   .ft        333.70                           :Elevation of Kelly Bushing Above Mean Sea Level
~Curve Information Block
#MNEM.UNIT       API Code            Curve    Description
#--------        --------------      -----    -------------------
DEPT  .F                             :0       Index
AT10  .OHMM                          :1       Array Induction Two Foot Resistivity A10
AT20  .OHMM                          :2       Array Induction Two Foot Resistivity A20
AT30  .OHMM                          :3       Array Induction Two Foot Resistivity A30
AT60  .OHMM                          :4       Array Induction Two Foot Resistivity A60
AT90  .OHMM                          :5       Array Induction Two Foot Resistivity A90
BS    .IN                            :6       Bit Size                      
DT    .US/F                          :7       Delta-T (also called Slowness or Interval Transit Time)
GR    .GAPI                          :8       Gamma Ray                     
HCAL  .IN                            :9       HRCC Caliper Calibrated       
HTNP  .V/V                           :10      High Resolution Thermal Neutron Porosity (Ratio Method) in Sand Lithology
KINT  .MD                            :11      Intrinsic Permeability        
PHIT  .V/V                           :12      Total Porosity_ includes all forms of porosity, including that occupied by bound fluids, and is independent of rock and fluid materials and of environmental effects
PIGN  .V/V                           :13      Effective Porosity, VISO, VPAR, and Bound Water Removed
SUWI  .V/V                           :14      Non-Clay Water Intergranular Water Saturation for Undisturbed Zone
VCHL  .V/V                           :15      Volume of Chlorite Relative to Total Volume
VCLC  .V/V                           :16      Volume of Calcite Relative to Total Volume
VILL  .V/V                           :17      Volume of Illite (dry) Relative to Total Volume
VKAO  .V/V                           :18      Volume of Kaolinite (dry) Relative to Total Volume
VQUA  .V/V                           :19      Volume of Quartz Relative to Total Volume
VUIW  .V/V                           :20      Volume of Irreducible Water In Undisturbed Zone
VUWA  .V/V                           :21      Volume of Water in Undisturbed Zone
VXBW  .V/V                           :22      Volume of Bound Water in Flushed Zone
~Ascii Data Section
   9700.00000       2.74261       2.82379       2.79131       2.76897       2.62342       8.75000      74.87531      96.84833       9.35631       0.19795       0.03869       0.10309       0.07101       1.00000       0.07632       0.00000       0.20310       0.02666       0.59083       0.04566       0.02535       0.03208 
   9700.50000       3.42240       3.46800       3.37010       3.29826       3.14708       8.75000      74.81824     102.17071       9.33343       0.20490       0.01224       0.09611       0.06017       1.00000       0.07302       0.00000       0.24147       0.02824       0.56117       0.04719       0.01299       0.03594 
   9701.00000       4.24201       4.25073       4.20917       4.07203       3.84006       8.75000      74.32394     117.54608       9.47068       0.20925       0.01000       0.08750       0.04557       1.00000       0.06133       0.00000       0.31047       0.02617       0.51454       0.04557       0.00000       0.04193 
   9701.50000       4.40488       4.25093       4.22758       4.16229       4.08463       8.75000      73.72101     108.96283       9.67648       0.20664       0.01000       0.08522       0.04595       1.00000       0.06734       0.00000       0.27712       0.03043       0.53988       0.04207       0.00388       0.03927 
   9702.00000       4.37609       4.31788       4.35733       4.34287       4.34673       8.75000      73.71612     101.87257       9.81372       0.18994       0.01063       0.08958       0.05458       1.00000       0.06971       0.00000       0.24028       0.02116       0.57927       0.04256       0.01202       0.03500 
   9702.50000       4.38103       4.39439       4.50098       4.43109       4.45887       8.75000      73.71825      89.75550       9.56218       0.18342       0.04574       0.09432       0.06504       1.00000       0.07852       0.00000       0.17329       0.02912       0.62475       0.03468       0.03037       0.02927 
   9703.00000       4.26658       4.31767       4.35561       4.37759       4.49201       8.75000      73.72069      85.63049       9.65368       0.20357       0.06501       0.09895       0.07045       1.00000       0.08246       0.00000       0.15553       0.04041       0.62265       0.03294       0.03751       0.02850 
   9703.50000       4.24700       4.28867       4.25634       4.35969       4.55336       8.75000      72.90268      95.25794       9.69940       0.23602       0.01633       0.09235       0.05930       1.00000       0.07877       0.00000       0.18572       0.06836       0.57479       0.03428       0.02502       0.03305 
   9704.00000       4.21058       4.21621       4.19967       4.22689       4.33614       8.75000      72.78905     106.80576       9.81380       0.25932       0.01000       0.09322       0.05463       1.00000       0.07113       0.00000       0.25096       0.05823       0.52645       0.04472       0.00991       0.03860 
   9704.50000       4.27045       4.23823       4.15803       4.17945       4.25820       8.75000      75.19024     112.12290       9.76805       0.25495       0.01000       0.09867       0.05613       1.00000       0.06355       0.00000       0.30441       0.04260       0.49077       0.05613       0.00000       0.04254 
   9705.00000       4.30078       4.23802       4.18430       4.18263       4.10541       8.75000      71.45060     109.37716       9.83671       0.23182       0.01000       0.07404       0.03425       1.00000       0.07218       0.00000       0.25735       0.06442       0.53201       0.02884       0.00542       0.03978 
   9705.50000       4.47613       4.37990       4.34196       4.24235       4.15653       8.75000      74.13540     100.69042       9.74515       0.20706       0.01000       0.08317       0.04432       1.00000       0.07606       0.00000       0.26045       0.03679       0.54354       0.03785       0.00647       0.03885 
   9706.00000       3.82981       3.82917       3.67142       3.52592       3.43906       8.75000      67.49922      88.07449       9.69937       0.20202       0.01000       0.05441       0.02224       1.00000       0.09975       0.00000       0.15597       0.06779       0.62207       0.01037       0.01187       0.03217 
   9706.50000       3.46081       3.41711       3.26385       3.11392       3.00208       8.75000      70.62530      78.91177       9.24193       0.20504       0.01385       0.07905       0.04789       1.00000       0.10400       0.00000       0.17025       0.01872       0.62798       0.02496       0.02293       0.03117 
   9707.00000       3.34713       3.37263       3.19210       2.94360       2.87277       8.75000      70.44636      69.85168       9.19619       0.19776       0.04039       0.08154       0.05450       1.00000       0.10939       0.00000       0.12557       0.01995       0.66356       0.01942       0.03508       0.02704 
   9707.50000       3.48569       3.50128       3.27462       3.04627       2.89804       8.75000      70.10784      63.38702       9.21905       0.18859       0.11267       0.08422       0.06122       1.00000       0.11131       0.00000       0.08635       0.01935       0.69878       0.01297       0.04826       0.02299 
   9708.00000       3.55622       3.65367       3.43764       3.20575       2.98460       8.75000      69.70305      54.11550       9.17331       0.17448       0.38399       0.08800       0.06969       1.00000       0.11615       0.00000       0.04407       0.00837       0.74341       0.00391       0.06578       0.01831 
   9708.50000       3.57419       3.74191       3.38052       3.25597       3.01123       8.75000      69.57542      46.83789       9.15043       0.16587       1.02568       0.09154       0.07701       1.00000       0.11824       0.00000       0.01158       0.00000       0.77863       0.00000       0.07701       0.01453 
   9709.00000       3.59587       3.77223       3.49379       3.16829       2.90790       8.75000      69.50330      47.77943       9.07038       0.15154       1.51130       0.09117       0.07866       1.00000       0.11130       0.00000       0.00000       0.00000       0.79753       0.00000       0.07866       0.01250 
   9709.50000       3.66702       3.76773       3.76597       3.45931       3.08212       8.75000      70.83578      54.74412       9.03607       0.14555       1.71852       0.09705       0.08400       1.00000       0.10437       0.00000       0.01228       0.00000       0.78630       0.00000       0.08400       0.01305 
   9710.00000       3.49608       3.57980       3.64665       3.55226       3.27094       8.75000      70.86935      68.45918       9.10470       0.16191       0.52879       0.09590       0.07771       1.00000       0.09945       0.00000       0.05371       0.01991       0.73104       0.00719       0.07053       0.01818 
   9710.50000       2.96964       3.02525       3.30972       3.49477       3.31679       8.75000      70.63374      91.70794       9.76808       0.20418       0.07889       0.09036       0.06539       1.00000       0.08044       0.00000       0.10332       0.07811       0.64778       0.01793       0.04745       0.02497 
   9711.00000       2.58319       2.62634       2.74025       2.89572       2.77616       8.75000      69.48087     104.77084       9.90541       0.25928       0.01000       0.07239       0.04486       1.00000       0.07305       0.00000       0.06119       0.20675       0.58663       0.00504       0.03983       0.02752 
   9711.50000       2.60042       2.64112       2.82100       2.89285       2.77615       8.75000      69.44278     109.50442      10.66018       0.27943       0.01000       0.06418       0.03604       1.00000       0.06663       0.00000       0.03450       0.27524       0.55945       0.00027       0.03577       0.02815 
   9712.00000       3.38943       3.48548       3.82932       3.78951       3.72561       8.75000      69.44321     105.54221      10.33989       0.27298       0.01000       0.05972       0.03081       1.00000       0.07093       0.00000       0.04888       0.25466       0.56582       0.00181       0.02900       0.02891 
