~Version Information
VERS  .          2.0                              :CWLS Log Ascii Standard - Version 2.0
WRAP  .          NO                               :One line per depth step
~Well Information Block
#MNEM.UNIT       Data Type                        Information
#---------       ---------                        -------------------------------
STRT  .F         9700.00000                       :START DEPTH
STOP  .F         10600.00000                      :STOP DEPTH
STEP  .F          0.50000                         :INCREMENT
NULL  .          -999.25                          :NULL DATA VALUE
COMP  .          DENBURY ONSHORE, LLC             :COMPANY
WELL  .          CFU 31F #1                       :WELL
FLD   .          CRANFIELD FIELD UNIT             :FIELD
LOC   .                                           :LOCATION
PROV  .                                           :PROVINCE
STAT  .                                           :STATE
CNTY  .                                           :COUNTY
CTRY  .                                           :COUNTRY
DATE  .                                           :DATE
UWI   .          CFU 31F #1                       :UNIQUE WELL UWI
LIC   .                                           :LICENSE NUMBER
API   .          23-037-21488-0000                :API NUMBER
SRVC  .                                           :SERVICE COMPANY
~Parameter Information Block
#MNEM.UNIT       Value                            Description
#---------       ---------                        -------------
PDAT  .          GROUND LEVEL                     :Permanent Datum               
EPD   .ft        315.70                           :Elevation of Permanent Datum (PDAT) above Mean Sea Level
LMF   .          KELLY BUSHING                    :Logging Measured From (Name of Working Datum)
APD   .ft        18.00                            :Elevation of Working Datum (LMF) Above Permanent Datum
EDF   .ft        332.70                           :Elevation of Derrick Floor Above Mean Sea Level
EGL   .ft        315.70                           :Elevation of Ground Level Above Mean Sea Level
EKB   .ft        333.70                           :Elevation of Kelly Bushing Above Mean Sea Level
~Curve Information Block
#MNEM.UNIT       API Code            Curve    Description
#--------        --------------      -----    -------------------
DEPT  .F                             :0       Index
SXGA  .                              :1       CO2 Saturation
GR    .GAPI                          :2       Gamma Ray                     
INFD_TDTL.CPS                        :3       Gross Inelastic Count Rate Far Detector (TDT-like)
PHIC  .V/V                           :4       TDT Count Rate Porosity       
SBNA  .CU                            :5       RST Sigma Borehole Near Apparent
SIBH_TDTL.CU                         :6       Sigma Borehole Corrected (TDT-like)
SIGM  .CU                            :7       Formation Sigma (Neutron Capture Cross Section)
SIGM_TDTL.CU                         :8       Formation Sigma (Neutron Capture Cros Section) (TDT-like)
SXWI  .V/V                           :9       Non-Clay Water Intergranular Water Saturation for the Flushed Zone
TPHI  .V/V                           :10      Thermal Decay Porosity        
TSCF_TDTL.CPS                        :11      Total Selected Count Rate Far Detector (TDT-like)
TSCN_TDTL.CPS                        :12      Total Selected Count Rate Near Detector (TDT-like)
VXGA  .V/V                           :13      Volume of Gas in Flushed Zone 
WPRE  .PSI                           :14      Well Pressure                 
WTEP  .DEGF                          :15      Well Temperature              
~Ascii Data Section
# ...
  10348.00000       0.00000      47.47869     165.03793       0.46777      88.38449     123.82717      33.35174      32.54368       1.00000       0.49576     555.53479    1714.79028       0.00000    4659.04639     260.85605 
  10348.50000       0.00000      49.06849     177.23044       0.46169      84.79883     122.36651      33.78076      32.95761       1.00000       0.49468     573.32922    1757.62524       0.00000    4659.26270     260.85931 
  10349.00000       0.00000      51.68571     202.49188       0.46082      82.67197     119.98332      33.84491      33.12767       1.00000       0.49598     583.37762    1796.48022       0.00000    4659.50488     260.86078 
  10349.50000       0.00000      55.45406     232.54622       0.45894      80.97839     118.00831      33.07134      32.79850       1.00000       0.49458     597.49115    1845.76758       0.00000    4659.74854     260.86407 
  10350.00000       0.00000      59.89384     255.76677       0.44532      81.20548     117.11232      32.32924      32.29032       1.00000       0.48850     632.28778    1914.48413       0.00000    4659.95752     260.86856 
  10350.50000       0.00000      63.79813     270.04327       0.42814      83.85440     115.87868      32.10800      31.79050       1.00000       0.47994     669.93048    1976.00635       0.00000    4660.18115     260.87021 
  10351.00000       0.00000      65.10373     281.05588       0.41725      83.28838     118.11326      32.21396      31.26530       1.00000       0.47120     697.80389    2012.02673       0.00000    4660.42236     260.87381 
  10351.50000       0.00000      64.09435     287.13876       0.41284      81.92659     119.81312      31.99903      31.05245       1.00000       0.46673     705.53192    2011.49866       0.00000    4660.68066     260.87766 
  10352.00000       0.00000      61.30918     286.08237       0.40653      84.88302     120.74539      31.83413      31.15022       1.00000       0.46465     705.66455    1980.81909       0.00000    4660.94287     260.88016 
  10352.50000       0.00000      58.74174     271.37631       0.40326      83.84277     124.78835      32.23421      31.31513       1.00000       0.46171     700.29498    1933.48718       0.00000    4661.12256     260.88126 
  10353.00000       0.00000      55.99958     251.48544       0.40738      84.34775     128.14682      32.65417      31.54566       1.00000       0.45834     680.79401    1877.22314       0.00000    4661.32373     260.88263 
  10353.50000       0.00000      54.78614     239.95390       0.40850      89.51494     127.60197      32.81104      31.87182       1.00000       0.45461     661.63513    1824.96716       0.00000    4661.59082     260.88715 
  10354.00000       0.00000      54.78361     243.69151       0.40376      88.40456     128.55153      32.70079      32.11133       1.00000       0.45168     657.56464    1788.78638       0.00000    4661.85645     260.89288 
  10354.50000       0.00000      55.97422     256.34781       0.39425      83.52795     128.15453      32.76379      32.04810       1.00000       0.44370     672.18823    1795.10168       0.00000    4662.10010     260.89896 
  10355.00000       0.00000      57.35405     265.23611       0.37649      86.79222     124.72913      32.69449      31.51114       1.00000       0.42591     716.54816    1863.78564       0.00000    4662.34570     260.90302 
  10355.50000       0.00000      57.24860     270.20081       0.34888      85.88575     124.44143      32.10088      30.20787       1.00000       0.39501     802.63147    1983.90918       0.00000    4662.55371     260.90607 
  10356.00000       0.00000      55.62641     274.59335       0.32273      83.90018     126.49613      31.06915      28.82435       1.00000       0.35453     896.08307    2100.82202       0.00000    4662.76318     260.91312 
  10356.50000       0.00000      52.21894     281.26755       0.30599      85.77587     125.99464      29.96050      27.46190       1.00000       0.31920     974.72845    2222.84473       0.00000    4662.98975     260.91989 
  10357.00000       0.00000      48.88769     291.08585       0.29237      85.69263     125.74380      28.93694      26.26422       1.00000       0.30280    1050.82385    2340.53271       0.00000    4663.25244     260.92480 
  10357.50000       0.00000      46.27359     301.49826       0.29513      84.56272     129.04485      28.27804      25.53717       1.00000       0.30724    1075.45142    2410.21240       0.00000    4663.51611     260.93106 
  10358.00000       0.00000      44.94125     304.07761       0.30473      86.38464     130.98279      27.99394      25.93340       1.00000       0.32345    1051.94873    2399.27319       0.00000    4663.77002     260.93439 
  10358.50000       0.00000      46.09543     295.97498       0.32077      88.26762     132.01543      28.62195      26.70910       1.00000       0.34167     995.42065    2339.65771       0.00000    4663.99072     260.94189 
  10359.00000       0.00000      47.61860     290.26807       0.33741      86.23960     132.16496      30.14351      27.83558       1.00000       0.35745     928.81360    2250.51001       0.00000    4664.21729     260.94873 
  10359.50000       0.00036      50.06616     289.91736       0.35106      88.68214     131.10536      32.07338      29.39214       0.99978       0.36804     863.12549    2137.83105       0.00001    4664.45166     260.95346 
  10360.00000       0.00118      50.84695     290.92856       0.35481      86.04848     127.98159      33.36444      30.73520       0.99918       0.36947     815.54846    2028.43164       0.00005    4664.66553     260.95590 
  10360.50000       0.00000      50.81532     294.07516       0.34827      82.51369     125.12526      33.75745      30.95271       1.00000       0.35998     811.87390    1995.90027       0.00000    4664.89551     260.96021 
  10361.00000       0.00000      49.60395     295.53250       0.33055      83.10913     122.66965      33.40666      30.64347       1.00000       0.33956     849.59625    2016.38928       0.00000    4665.11377     260.96487 
  10361.50000       0.00000      48.70812     296.83487       0.31509      81.58490     122.67847      32.82542      30.28460       1.00000       0.31875     890.56854    2041.17065       0.00000    4665.39893     260.97006 
  10362.00000       0.00000      46.92443     289.65302       0.28242      82.18413     122.76804      32.25143      29.96897       1.00000       0.30361     923.88879    2060.32764       0.00000    4665.61719     260.97421 
  10362.50000       0.00000      47.83600     284.00485       0.29532      86.20902     124.54794      32.18597      30.01217       1.00000       0.30555     920.50592    2054.38281       0.00000    4665.84277     260.97559 
  10363.00000       0.00000      50.40712     276.40738       0.29513      86.48185     129.02507      32.52999      30.63354       1.00000       0.32398     865.71564    1965.03320       0.00000    4666.11475     260.97556 
  10363.50000       0.00000      52.35479     268.76263       0.33795      86.06629     131.48924      33.37257      31.31442       1.00000       0.36229     767.68292    1846.70129       0.00000    4666.33789     260.97873 
  10364.00000       0.00000      55.07967     266.39529       0.38961      87.29350     130.04880      34.49091      32.29984       1.00000       0.41004     675.48431    1771.83447       0.00000    4666.53418     260.98108 
  10364.50000       0.00000      57.05323     266.64090       0.42800      85.71736     128.31230      35.20959      33.52225       1.00000       0.45219     618.14050    1750.29761       0.00000    4666.85156     260.98160 
  10365.00000       0.00000      58.87759     269.12436       0.45981      83.95765     125.63432      35.10582      34.09859       1.00000       0.47699     577.97552    1745.23059       0.00000    4667.05762     260.98492 
  10365.50000       0.00000      58.86000     262.05151       0.47598      83.15488     123.78493      34.58230      33.60829       1.00000       0.48481     572.89282    1796.43079       0.00000    4667.24170     260.98853 
