~Version Information
VERS  .          2.0                              :CWLS Log Ascii Standard - Version 2.0
WRAP  .          NO                               :One line per depth step
~Well Information Block
#MNEM.UNIT       Data Type                        Information
#---------       ---------                        -------------------------------
STRT  .F         9700.00000                       :START DEPTH
STOP  .F         10647.00000                      :STOP DEPTH
STEP  .F          0.50000                         :INCREMENT
NULL  .          -999.25                          :NULL DATA VALUE
COMP  .          DENBURY ONSHORE, LLC             :COMPANY
WELL  .          CFU 31F #1                       :WELL
FLD   .          CRANFIELD FIELD UNIT             :FIELD
LOC   .                                           :LOCATION
PROV  .                                           :PROVINCE
STAT  .                                           :STATE
CNTY  .                                           :COUNTY
CTRY  .                                           :COUNTRY
DATE  .                                           :DATE
UWI   .          CFU 31F #1                       :UNIQUE WELL UWI
LIC   .                                           :LICENSE NUMBER
API   .          23-037-21488-0000                :API NUMBER
SRVC  .                                           :SERVICE COMPANY
~Parameter Information Block
#MNEM.UNIT       Value                            Description
#---------       ---------                        -------------
PDAT  .          GROUND LEVEL                     :Permanent Datum               
EPD   .ft        315.70                           :Elevation of Permanent Datum (PDAT) above Mean Sea Level
LMF   .          KELLY BUSHING                    :Logging Measured From (Name of Working Datum)
APD   .ft        18.00                            :Elevation of Working Datum (LMF) Above Permanent Datum
EDF   .ft        332.70                           :Elevation of Derrick Floor Above Mean Sea Level
EGL   .ft        315.70                           :Elevation of Ground Level Above Mean Sea Level
EKB   .ft        333.70                           :Elevation of Kelly Bushing Above Mean Sea Level
~Curve Information Block
#MNEM.UNIT       API Code            Curve    Description
#--------        --------------      -----    -------------------
DEPT  .F                             :0       Index
AT10  .OHMM                          :1       Array Induction Two Foot Resistivity A10
AT20  .OHMM                          :2       Array Induction Two Foot Resistivity A20
AT30  .OHMM                          :3       Array Induction Two Foot Resistivity A30
AT60  .OHMM                          :4       Array Induction Two Foot Resistivity A60
AT90  .OHMM                          :5       Array Induction Two Foot Resistivity A90
BS    .IN                            :6       Bit Size                      
DT    .US/F                          :7       Delta-T (also called Slowness or Interval Transit Time)
GR    .GAPI                          :8       Gamma Ray                     
HCAL  .IN                            :9       HRCC Caliper Calibrated       
HTNP  .V/V                           :10      High Resolution Thermal Neutron Porosity (Ratio Method) in Sand Lithology
KINT  .MD                            :11      Intrinsic Permeability        
PHIT  .V/V                           :12      Total Porosity_ includes all forms of porosity, including that occupied by bound fluids, and is independent of rock and fluid materials and of environmental effects
PIGN  .V/V                           :13      Effective Porosity, VISO, VPAR, and Bound Water Removed
SUWI  .V/V                           :14      Non-Clay Water Intergranular Water Saturation for Undisturbed Zone
VCHL  .V/V                           :15      Volume of Chlorite Relative to Total Volume
VCLC  .V/V                           :16      Volume of Calcite Relative to Total Volume
VILL  .V/V                           :17      Volume of Illite (dry) Relative to Total Volume
VKAO  .V/V                           :18      Volume of Kaolinite (dry) Relative to Total Volume
VQUA  .V/V                           :19      Volume of Quartz Relative to Total Volume
VUIW  .V/V                           :20      Volume of Irreducible Water In Undisturbed Zone
VUWA  .V/V                           :21      Volume of Water in Undisturbed Zone
VXBW  .V/V                           :22      Volume of Bound Water in Flushed Zone
~Ascii Data Section
# ...
  10287.50000       3.62626       4.02742       4.17539       4.22516       4.40527       8.75000      79.93401      95.10426       9.72226       0.26824       0.01000       0.12160       0.07857       1.00000       0.07856       0.00000       0.30212       0.02730       0.47043       0.07857       0.00000       0.04303 
  10288.00000       4.34881       5.03635       5.09545       5.04330       5.24928       8.75000      77.31941      90.79382       9.24194       0.25082       0.01000       0.10443       0.06323       1.00000       0.08703       0.00000       0.27834       0.02372       0.50648       0.05819       0.00504       0.04120 
  10288.50000       3.78791       4.22657       4.32702       4.18885       4.26325       8.75000      75.85943      95.78733       9.19619       0.24637       0.01000       0.10236       0.06115       1.00000       0.08565       0.00000       0.28783       0.00976       0.51441       0.05841       0.00274       0.04121 
  10289.00000       3.25905       3.62375       3.67961       3.71878       3.68079       8.75000      76.77568      99.61483       9.21906       0.25346       0.01000       0.10509       0.06336       1.00000       0.08109       0.00000       0.28431       0.03265       0.49686       0.05970       0.00366       0.04173 
  10289.50000       3.24878       3.63402       3.58921       3.65432       3.63439       8.75000      77.02174     108.09601       9.45927       0.25757       0.01000       0.10855       0.06566       1.00000       0.07266       0.00000       0.29877       0.04157       0.47846       0.06536       0.00030       0.04289 
  10290.00000       3.66602       3.98626       3.97026       4.12758       4.03046       8.75000      78.18672     106.44043       9.33344       0.24347       0.01000       0.11061       0.06852       1.00000       0.07155       0.00000       0.29393       0.03903       0.48488       0.06699       0.00153       0.04209 
  10290.50000       3.86139       4.23897       4.27698       4.36152       4.31899       8.75000      79.55512     104.73529       9.27625       0.22432       0.01013       0.11513       0.07402       1.00000       0.06950       0.00000       0.29552       0.02415       0.49569       0.07281       0.00122       0.04111 
  10291.00000       4.30261       4.65035       4.62287       4.70099       4.79795       8.75000      76.88552      96.60235       9.28768       0.21373       0.01000       0.10099       0.06235       1.00000       0.08000       0.00000       0.26278       0.02216       0.53407       0.05381       0.00854       0.03864 
  10291.50000       4.79720       5.41921       5.18215       5.29113       5.47353       8.75000      74.40449      99.22501       9.31056       0.20910       0.01000       0.08837       0.04959       1.00000       0.08184       0.00000       0.26151       0.02327       0.54501       0.04256       0.00703       0.03878 
  10292.00000       4.55360       6.03587       5.81034       5.78764       6.35844       8.75000      72.59977      96.05997       9.24194       0.20580       0.01000       0.08180       0.04488       1.00000       0.08721       0.00000       0.23875       0.02308       0.56916       0.03475       0.01013       0.03692 
  10292.50000       4.21150       4.81830       4.63510       4.81229       4.99521       8.75000      72.03994      96.45987       9.31056       0.21628       0.01000       0.07997       0.04371       1.00000       0.08788       0.00000       0.21893       0.04586       0.56735       0.03064       0.01307       0.03627 
  10293.00000       3.87898       3.91720       4.01458       4.16796       4.31791       8.75000      71.75739      97.36963       9.74518       0.23640       0.01000       0.07831       0.03987       1.00000       0.08734       0.00000       0.23504       0.05392       0.54540       0.03033       0.00954       0.03844 
  10293.50000       4.66286       4.65178       4.58619       4.70236       4.95482       8.75000      72.80264      94.58044       9.40206       0.25283       0.01000       0.08870       0.04888       1.00000       0.08887       0.00000       0.26323       0.02424       0.53497       0.04225       0.00663       0.03982 
  10294.00000       6.49381       6.22337       6.03680       5.84424       6.02520       8.75000      73.96487      95.84884       9.42493       0.24483       0.01000       0.09459       0.05419       1.00000       0.08282       0.00000       0.28884       0.00000       0.53375       0.05194       0.00225       0.04040 
  10294.50000       4.64569       4.11217       4.40407       4.52670       4.51643       8.75000      73.02839      96.84647       9.44781       0.23213       0.01000       0.08588       0.04770       1.00000       0.08121       0.00000       0.25360       0.02858       0.55074       0.03952       0.00818       0.03819 
  10295.00000       3.05385       2.78646       2.78465       2.70055       2.65347       8.75000      74.79239     108.39420       9.97392       0.23868       0.01000       0.09106       0.05100       1.00000       0.06637       0.00000       0.26392       0.06818       0.51048       0.04420       0.00680       0.04007 
  10295.50000       2.51876       2.31352       2.29118       2.22837       2.08608       8.75000      77.27766     119.23881      10.52292       0.26203       0.01000       0.10454       0.06083       1.00000       0.05202       0.00000       0.29984       0.09074       0.45285       0.06080       0.00004       0.04371 
  10296.00000       2.11839       1.93829       1.89124       1.86040       1.75034       8.75000      85.36771     109.94028      10.33995       0.28733       0.01918       0.15537       0.11192       1.00000       0.04854       0.00000       0.32080       0.05629       0.41899       0.11192       0.00000       0.04346 
  10296.50000       1.92214       1.81026       1.71624       1.60536       1.51862       8.75000      87.26592      88.46097      10.91176       0.27670       0.11488       0.17441       0.13723       1.00000       0.06295       0.00000       0.26368       0.02797       0.47099       0.11896       0.01827       0.03718 
  10297.00000       1.79683       1.73341       1.59456       1.48262       1.37526       8.75000      84.53106      56.55881      10.11117       0.24868       1.15070       0.16912       0.14352       1.00000       0.09825       0.00000       0.12601       0.01627       0.59035       0.05182       0.09170       0.02561 
  10297.50000       1.57330       1.52506       1.43931       1.31753       1.19676       8.75000      81.38193      43.79745      10.00823       0.23326       2.46171       0.15910       0.13829       1.00000       0.11390       0.00921       0.07441       0.00000       0.64338       0.02379       0.11450       0.02081 
  10298.00000       1.31703       1.37420       1.26500       1.17640       1.08553       8.75000      78.78267      38.48622      10.22557       0.24535       2.05761       0.15086       0.13029       1.00000       0.12505       0.01662       0.06053       0.00000       0.64694       0.01735       0.11295       0.02057 
  10298.50000       1.21484       1.26613       1.17163       1.10731       1.02169       8.75000      77.31900      40.77544      10.98036       0.26004       1.29103       0.14747       0.12560       1.00000       0.12273       0.03393       0.07506       0.00000       0.62081       0.02496       0.10064       0.02187 
  10299.00000       1.24204       1.25102       1.16496       1.11483       1.02819       8.75000      80.36251      38.51611      10.47716       0.26943       1.60438       0.15936       0.13723       1.00000       0.11752       0.03580       0.08299       0.00000       0.60433       0.03106       0.10617       0.02214 
  10299.50000       1.26483       1.23414       1.16739       1.14628       1.06220       8.75000      83.94543      40.43699      10.45429       0.26471       2.04216       0.17293       0.15039       1.00000       0.10887       0.03024       0.09571       0.00000       0.59225       0.03976       0.11063       0.02254 
