~Version Information
VERS  .          2.0                              :CWLS Log Ascii Standard - Version 2.0
WRAP  .          NO                               :One line per depth step
~Well Information Block
#MNEM.UNIT       Data Type                        Information
#---------       ---------                        -------------------------------
STRT  .F         9700.00000                       :START DEPTH
STOP  .F         10600.00000                      :STOP DEPTH
STEP  .F          0.50000                         :INCREMENT
NULL  .          -999.25                          :NULL DATA VALUE
COMP  .          DENBURY ONSHORE, LLC             :COMPANY
WELL  .          CFU 31F #1                       :WELL
FLD   .          CRANFIELD FIELD UNIT             :FIELD
LOC   .                                           :LOCATION
PROV  .                                           :PROVINCE
STAT  .                                           :STATE
CNTY  .                                           :COUNTY
CTRY  .                                           :COUNTRY
DATE  .                                           :DATE
UWI   .          CFU 31F #1                       :UNIQUE WELL UWI
LIC   .                                           :LICENSE NUMBER
API   .          23-037-21488-0000                :API NUMBER
SRVC  .                                           :SERVICE COMPANY
~Parameter Information Block
#MNEM.UNIT       Value                            Description
#---------       ---------                        -------------
PDAT  .          GROUND LEVEL                     :Permanent Datum               
EPD   .ft        315.70                           :Elevation of Permanent Datum (PDAT) above Mean Sea Level
LMF   .          KELLY BUSHING                    :Logging Measured From (Name of Working Datum)
APD   .ft        18.00                            :Elevation of Working Datum (LMF) Above Permanent Datum
EDF   .ft        332.70                           :Elevation of Derrick Floor Above Mean Sea Level
EGL   .ft        315.70                           :Elevation of Ground Level Above Mean Sea Level
EKB   .ft        333.70                           :Elevation of Kelly Bushing Above Mean Sea Level
~Curve Information Block
#MNEM.UNIT       API Code            Curve    Description
#--------        --------------      -----    -------------------
DEPT  .F                             :0       Index
SXGA  .                              :1       CO2 Saturation
GR    .GAPI                          :2       Gamma Ray                     
INFD_TDTL.CPS                        :3       Gross Inelastic Count Rate Far Detector (TDT-like)
PHIC  .V/V                           :4       TDT Count Rate Porosity       
SBNA  .CU                            :5       RST Sigma Borehole Near Apparent
SIBH_TDTL.CU                         :6       Sigma Borehole Corrected (TDT-like)
SIGM  .CU                            :7       Formation Sigma (Neutron Capture Cross Section)
SIGM_TDTL.CU                         :8       Formation Sigma (Neutron Capture Cros Section) (TDT-like)
SXWI  .V/V                           :9       Non-Clay Water Intergranular Water Saturation for the Flushed Zone
TPHI  .V/V                           :10      Thermal Decay Porosity        
TSCF_TDTL.CPS                        :11      Total Selected Count Rate Far Detector (TDT-like)
TSCN_TDTL.CPS                        :12      Total Selected Count Rate Near Detector (TDT-like)
VXGA  .V/V                           :13      Volume of Gas in Flushed Zone 
WPRE  .PSI                           :14      Well Pressure                 
WTEP  .DEGF                          :15      Well Temperature              
~Ascii Data Section
# ...
   9988.00000       0.00000      44.26057     293.37683       0.20201      95.88352     132.61021      21.86333      20.48386       1.00000       0.18619    1778.26147    3228.34717       0.00000    4489.91064     253.15572 
   9988.50000       0.00000      48.26183     291.95529       0.21534      97.00899     135.18765      23.00435      21.17809       1.00000       0.20205    1614.86792    3012.65723       0.00000    4490.19434     253.16512 
   9989.00000       0.01596      51.90449     288.36234       0.22752      96.70372     137.62775      24.43633      22.55589       0.98654       0.21683    1450.80481    2753.67407       0.00118    4490.46240     253.17278 
   9989.50000       0.01730      52.69205     279.56989       0.23727      95.90965     139.38800      25.55975      23.47336       0.98549       0.22174    1345.64172    2592.94800       0.00129    4490.70947     253.18071 
   9990.00000       0.00000      51.73783     268.78873       0.23574      97.30398     140.44547      25.70574      23.52459       1.00000       0.21524    1364.53320    2610.56885       0.00000    4490.89990     253.19366 
   9990.50000       0.00000      49.64426     264.30145       0.21853      97.99516     141.41125      24.49488      22.76909       1.00000       0.20108    1496.79883    2741.95386       0.00000    4491.13525     253.20145 
   9991.00000       0.00000      45.83858     263.49606       0.19901      99.05078     142.56281      22.58401      21.50574       1.00000       0.18553    1684.22107    2938.84961       0.00000    4491.39258     253.20805 
   9991.50000       0.00000      40.95895     258.43765       0.18194     101.94995     141.27519      20.94387      20.04511       1.00000       0.16789    1924.66174    3251.63452       0.00000    4491.64600     253.21574 
   9992.00000       0.00000      36.98138     253.85963       0.17458     105.43027     139.45523      20.05444      18.72333       1.00000       0.15443    2117.64282    3563.62695       0.00000    4491.86279     253.22084 
   9992.50000       0.00000      34.83451     257.65793       0.17102     103.89810     138.10429      19.55995      18.20336       1.00000       0.14917    2191.12061    3674.75684       0.00000    4492.09570     253.22627 
   9993.00000       0.00000      34.64127     264.23276       0.17634     101.83749     137.89787      19.40271      18.40344       1.00000       0.15732    2087.86499    3548.12012       0.00000    4492.30029     253.23700 
   9993.50000       0.00000      37.85158     264.15744       0.18814     103.38618     137.34683      20.41801      19.22552       1.00000       0.17545    1875.50305    3276.21289       0.00000    4492.54834     253.24490 
   9994.00000       0.02024      41.63771     256.63098       0.20186     103.34254     138.05327      23.01049      20.61040       0.98463       0.19298    1652.11438    2958.28271       0.00088    4492.76318     253.24870 
   9994.50000       0.00000      43.52834     260.39252       0.21854      98.05006     140.44405      25.62853      22.00227       1.00000       0.20386    1456.78516    2689.52832       0.00000    4492.97852     253.25356 
   9995.00000       0.00000      45.56706     272.47250       0.22473      95.96914     141.55701      26.26571      23.00995       1.00000       0.20641    1375.15637    2553.90894       0.00000    4493.17920     253.25882 
   9995.50000       0.00000      46.11548     278.71674       0.21960      97.39548     141.19856      25.09735      23.09680       1.00000       0.20277    1411.19324    2581.39868       0.00000    4493.40332     253.26941 
   9996.00000       0.00000      43.18082     272.40134       0.21574      98.09033     141.62608      23.84450      22.42834       1.00000       0.19605    1490.76099    2717.00879       0.00000    4493.65674     253.27713 
   9996.50000       0.00000      40.21869     268.65985       0.21074     101.93545     141.27873      23.74354      21.88786       1.00000       0.19168    1571.57739    2842.55688       0.00000    4493.94434     253.28204 
   9997.00000       0.00000      40.00372     277.27991       0.21007     102.08714     140.37300      24.15677      21.84315       1.00000       0.19520    1579.55078    2857.08472       0.00000    4494.17041     253.28242 
   9997.50000       0.00000      40.60053     289.13058       0.21622      98.40310     140.06026      24.60949      22.42255       1.00000       0.20391    1516.49805    2777.55078       0.00000    4494.40820     253.27875 
   9998.00000       0.00000      41.42555     288.30142       0.22857      96.61326     139.84572      25.16438      23.29600       1.00000       0.21695    1409.64270    2650.44702       0.00000    4494.68945     253.27599 
   9998.50000       0.00000      43.53975     278.73856       0.24405      94.57758     140.49829      26.22733      24.09069       1.00000       0.23402    1266.21704    2462.62573       0.00000    4494.90479     253.27788 
   9999.00000       0.00000      46.43222     276.23352       0.25255      94.58535     141.86449      27.82772      25.02942       1.00000       0.24828    1143.90955    2246.95654       0.00000    4495.19092     253.27956 
   9999.50000       0.00000      48.48896     278.97711       0.26894      95.27673     142.91006      29.30945      25.42067       1.00000       0.25711    1041.10168    2115.91553       0.00000    4495.38428     253.28108 
  10000.00000       0.00000      49.48443     281.83173       0.29311      95.01910     142.80597      29.87064      25.47052       1.00000       0.26844     959.23596    2073.02515       0.00000    4495.57227     253.28696 
  10000.50000       0.00000      50.21824     281.97922       0.30124      94.55157     142.20221      29.62407      25.93477       1.00000       0.29071     923.93591    2032.00464       0.00000    4495.79688     253.29283 
  10001.00000       0.00000      49.73182     288.18231       0.30060      92.53189     140.76028      29.56551      26.84656       1.00000       0.31007     906.49438    1982.45642       0.00000    4496.05469     253.29771 
  10001.50000       0.00000      49.49239     297.89349       0.30292      91.45217     137.45572      30.42528      27.72407       1.00000       0.30807     897.71869    1974.75842       0.00000    4496.28174     253.30273 
  10002.00000       0.00000      49.11283     302.71808       0.29291      88.82312     131.74474      31.34401      27.84069       1.00000       0.28775     926.58289    2006.42603       0.00000    4496.47363     253.31230 
  10002.50000       0.00000      46.72775     310.95328       0.27281      87.12041     126.48340      31.05970      27.33465       1.00000       0.26376     989.49902    2062.48682       0.00000    4496.72266     253.31993 
  10003.00000       0.00000      44.76274     320.18063       0.25731      86.66302     124.05021      29.63372      25.96499       1.00000       0.24857    1075.89050    2188.88403       0.00000    4496.98486     253.32617 
  10003.50000       0.00000      43.05456     327.29031       0.25047      86.01379     124.08300      27.97726      24.26454       1.00000       0.24079    1156.37830    2345.54712       0.00000    4497.21289     253.33415 
  10004.00000       0.00000      40.63195     325.57169       0.25219      89.15324     123.91221      27.64741      23.60511       1.00000       0.23809    1167.42920    2390.70312       0.00000    4497.43311     253.34625 
  10004.50000       0.00000      40.91796     325.14301       0.25313      91.33047     123.55084      28.59130      24.48376       1.00000       0.23978    1110.18042    2262.99292       0.00000    4497.63330     253.35487 
  10005.00000       0.00000      43.97487     327.39032       0.25895      86.69917     124.31872      30.67326      26.36970       1.00000       0.24457    1017.45416    2065.94800       0.00000    4497.88477     253.36279 
  10005.50000       0.00000      46.62323     334.33691       0.25885      84.00050     125.01655      33.05194      28.69421       1.00000       0.25514     903.06036    1878.68127       0.00000    4498.20654     253.37192 
