~Version Information
VERS  .          2.0                              :CWLS Log Ascii Standard - Version 2.0
WRAP  .          NO                               :One line per depth step
~Well Information Block
#MNEM.UNIT       Data Type                        Information
#---------       ---------                        -------------------------------
STRT  .F         9700.00000                       :START DEPTH
STOP  .F         10600.00000                      :STOP DEPTH
STEP  .F          0.50000                         :INCREMENT
NULL  .          -999.25                          :NULL DATA VALUE
COMP  .          DENBURY ONSHORE, LLC             :COMPANY
WELL  .          CFU 31F #1                       :WELL
FLD   .          CRANFIELD FIELD UNIT             :FIELD
LOC   .                                           :LOCATION
PROV  .                                           :PROVINCE
STAT  .                                           :STATE
CNTY  .                                           :COUNTY
CTRY  .                                           :COUNTRY
DATE  .                                           :DATE
UWI   .          CFU 31F #1                       :UNIQUE WELL UWI
LIC   .                                           :LICENSE NUMBER
API   .          23-037-21488-0000                :API NUMBER
SRVC  .                                           :SERVICE COMPANY
~Parameter Information Block
#MNEM.UNIT       Value                            Description
#---------       ---------                        -------------
PDAT  .          GROUND LEVEL                     :Permanent Datum               
EPD   .ft        315.70                           :Elevation of Permanent Datum (PDAT) above Mean Sea Level
LMF   .          KELLY BUSHING                    :Logging Measured From (Name of Working Datum)
APD   .ft        18.00                            :Elevation of Working Datum (LMF) Above Permanent Datum
EDF   .ft        332.70                           :Elevation of Derrick Floor Above Mean Sea Level
EGL   .ft        315.70                           :Elevation of Ground Level Above Mean Sea Level
EKB   .ft        333.70                           :Elevation of Kelly Bushing Above Mean Sea Level
~Curve Information Block
#MNEM.UNIT       API Code            Curve    Description
#--------        --------------      -----    -------------------
DEPT  .F                             :0       Index
SXGA  .                              :1       CO2 Saturation
GR    .GAPI                          :2       Gamma Ray                     
INFD_TDTL.CPS                        :3       Gross Inelastic Count Rate Far Detector (TDT-like)
PHIC  .V/V                           :4       TDT Count Rate Porosity       
SBNA  .CU                            :5       RST Sigma Borehole Near Apparent
SIBH_TDTL.CU                         :6       Sigma Borehole Corrected (TDT-like)
SIGM  .CU                            :7       Formation Sigma (Neutron Capture Cross Section)
SIGM_TDTL.CU                         :8       Formation Sigma (Neutron Capture Cros Section) (TDT-like)
SXWI  .V/V                           :9       Non-Clay Water Intergranular Water Saturation for the Flushed Zone
TPHI  .V/V                           :10      Thermal Decay Porosity        
TSCF_TDTL.CPS                        :11      Total Selected Count Rate Far Detector (TDT-like)
TSCN_TDTL.CPS                        :12      Total Selected Count Rate Near Detector (TDT-like)
VXGA  .V/V                           :13      Volume of Gas in Flushed Zone 
WPRE  .PSI                           :14      Well Pressure                 
WTEP  .DEGF                          :15      Well Temperature              
~Ascii Data Section
# ...
  10582.00000       0.00000      56.88120     401.98560       0.23854      78.60587     114.27072      26.96107      23.79876       1.00000       0.25363    1559.44922    3169.84155       0.00000    4775.62012     265.09875 
  10582.50000       0.00000      53.23695     408.01697       0.22415      86.42646     112.85241      24.41334      22.58364       1.00000       0.21456    1764.83936    3493.97998       0.00000    4775.80664     265.08475 
  10583.00000       0.00000      52.75930     413.67831       0.20149      86.43281     112.31442      22.65280      21.69509       1.00000       0.18845    1982.63538    3700.13184       0.00000    4776.12988     265.07693 
  10583.50000       0.37698      50.94052     403.90778       0.20191      89.34899     113.32112      22.44082      20.82172       0.73909       0.17810    2020.25330    3798.06445       0.01504    4776.44189     265.08331 
  10584.00000       0.00000      50.07767     403.46658       0.20766      87.89958     113.33085      23.66277      20.63331       1.00000       0.17988    1922.99976    3674.72925       0.00000    4776.65137     265.08344 
  10584.50000       0.00000      53.08134     405.25851       0.21061      86.70031     115.24006      24.51895      22.56776       1.00000       0.19730    1735.82825    3275.41528       0.00000    4776.99805     265.09073 
  10585.00000       0.00000      57.04944     405.02979       0.23141      85.37361     110.40778      26.59159      24.29642       1.00000       0.22347    1471.75708    2927.47729       0.00000    4777.14209     265.08466 
  10585.50000       0.00000      58.35496     400.69351       0.24167      87.19379     109.62372      28.38219      25.90067       1.00000       0.24645    1357.97827    2744.00415       0.00000    4777.49365     265.10864 
  10586.00000       0.00000      60.79774     399.98615       0.24741      76.47384     112.00608      29.34947      26.22185       1.00000       0.25019    1313.58838    2677.35864       0.00000    4777.77441     265.10034 
  10586.50000       0.00000      62.35275     405.04227       0.23750      82.89866     112.24864      28.32112      25.95043       1.00000       0.22744    1382.28284    2742.43677       0.00000    4777.99854     265.08218 
  10587.00000       0.10574      62.05049     408.25061       0.21265      87.35422     112.06094      26.02251      23.99712       0.91104       0.19489    1602.47644    3008.01123       0.00159    4778.19678     265.08990 
  10587.50000       0.10941      60.43236     408.18658       0.19194      90.27289     114.22192      24.39058      22.29001       0.91859       0.16482    1882.46082    3357.83887       0.00164    4778.64600     265.05240 
  10588.00000       0.17359      58.00514     418.89566       0.18787      92.83236     114.35123      23.03554      21.25283       0.90465       0.15262    2051.39771    3660.95679       0.00319    4778.87793     265.05923 
  10588.50000       0.14146      54.96517     420.69907       0.18352      87.17957     116.77367      22.22885      20.39695       0.91347       0.15099    2189.34326    3876.85376       0.00315    4779.13184     265.03720 
  10589.00000       0.00000      50.82162     424.06433       0.18931      89.13113     114.73638      21.81146      19.84435       1.00000       0.16244    2094.39014    3803.82349       0.00000    4779.29932     265.08832 
  10589.50000       0.00000      51.16676     415.57983       0.20110      93.40134     115.29374      22.78034      20.19988       1.00000       0.17963    1902.70923    3558.63647       0.00000    4779.62305     265.10269 
  10590.00000       0.00000      52.24286     404.15445       0.21852      82.86157     119.82321      24.88586      21.51281       1.00000       0.20672    1677.63123    3239.69214       0.00000    4781.01367     265.19437 
  10590.50000       0.00000      56.03938     384.96667       0.24367      86.97607     124.32672      27.39972      23.77197       1.00000       0.23068    1410.31470    2844.09595       0.00000    4782.49414     265.29095 
  10591.00000       0.00000      55.95309     375.05655       0.26951      87.54635     121.90130      29.06728      26.19976       1.00000       0.25402    1139.92993    2416.71973       0.00000    4782.73340     265.29892 
  10591.50000       0.00000      59.66333     365.94971       0.27283      88.93150     125.70241      30.15812      27.49919       1.00000       0.25888    1053.64929    2205.04321       0.00000    4783.05322     265.31375 
  10592.00000       0.00000      62.76957     363.51093       0.29017      86.21072     126.77216      30.50784      27.63040       1.00000       0.26415     955.62579    2082.88330       0.00000    4783.29492     265.31940 
  10592.50000       0.00000      62.85309     360.60452       0.27999      86.96944     128.19792      30.82197      28.23943       1.00000       0.25646     942.86035    1979.75684       0.00000    4783.59473     265.33328 
  10593.00000       0.00000      62.16281     355.20752       0.28062      91.34895     126.81599      30.39280      27.51654       1.00000       0.25577     934.80322    1983.71753       0.00000    4783.80615     265.33969 
  10593.50000       0.00000      66.64961     353.14560       0.27389      92.07980     128.57706      30.03512      26.80851       1.00000       0.24699     995.79688    2085.27881       0.00000    4784.05957     265.35138 
  10594.00000       0.00000      66.64961     357.22156       0.25957      92.17960     128.36629      28.77776      26.20626       1.00000       0.24146    1067.30347    2163.98096       0.00000    4784.33154     265.36041 
  10594.50000       0.00000      64.83763     373.66357       0.17625      87.96924     124.47183      27.53054      24.41513       1.00000       0.20531    1420.22742    2494.77002       0.00000    4784.63428     265.37534 
  10595.00000       0.00000      64.75412     392.61319       0.19590      90.18111     120.57409      24.75439      20.31624       1.00000       0.16675    1742.07349    3163.38232       0.00000    4784.91064     265.39334 
  10595.50000       0.75851      59.31402     403.82462       0.14716      90.61646     118.38052      21.64885      17.04244       0.49777       0.12520    2500.26929    4026.31592       0.03614    4785.17676     265.41165 
  10596.00000       0.96013      49.58125     413.45215       0.12683      97.38661     119.20365      17.51550      15.29874       0.45835       0.11021    3103.55298    4747.69434       0.03428    4785.46094     265.42221 
  10596.50000       0.81839      44.57674     420.34912       0.12081      95.88614     116.77328      15.04799      14.80239       0.60885       0.09769    3472.87158    5255.38525       0.01684    4785.68604     265.43198 
  10597.00000       0.63549      40.34880     423.47665       0.11321      99.16781     115.87833      14.36007      13.84599       0.69231       0.08893    3838.42480    5724.66260       0.00953    4785.96631     265.43756 
  10597.50000       0.42181      34.55289     417.75546       0.10268      89.30788     114.02718      14.46933      13.29358       0.79150       0.08186    4204.34619    6076.40088       0.00691    4786.27441     265.44150 
  10598.00000       0.50816      31.70967     425.04941       0.09391      91.22703     113.69643      14.04549      13.32246       0.71976       0.07308    4525.71924    6294.31836       0.01126    4786.50195     265.44742 
  10598.50000       0.78046      31.76419     436.24698       0.09401      91.31308     112.32972      12.64930      12.91137       0.54058       0.06685    4681.33154    6581.43018       0.02721    4786.73242     265.44391 
  10599.00000       1.07084      28.27454     441.41071       0.09552      94.16129     121.50430      11.95011      12.49271       0.33593       0.06947    4880.68164    6898.92627       0.05792    4787.06543     265.44644 
  10599.50000       0.73113      24.47802     438.06369       0.69893      95.67644     137.55017      12.23612      12.40733       0.47791       0.24391    1162.75000    4260.72803       0.06094    4787.34863     265.44391 
