~Version Information
VERS  .          2.0                              :CWLS Log Ascii Standard - Version 2.0
WRAP  .          NO                               :One line per depth step
~Well Information Block
#MNEM.UNIT       Data Type                        Information
#---------       ---------                        -------------------------------
STRT  .F         9700.00000                       :START DEPTH
STOP  .F         10647.00000                      :STOP DEPTH
STEP  .F          0.50000                         :INCREMENT
NULL  .          -999.25                          :NULL DATA VALUE
COMP  .          DENBURY ONSHORE, LLC             :COMPANY
WELL  .          CFU 31F #1                       :WELL
FLD   .          CRANFIELD FIELD UNIT             :FIELD
LOC   .                                           :LOCATION
PROV  .                                           :PROVINCE
STAT  .                                           :STATE
CNTY  .                                           :COUNTY
CTRY  .                                           :COUNTRY
DATE  .                                           :DATE
UWI   .          CFU 31F #1                       :UNIQUE WELL UWI
LIC   .                                           :LICENSE NUMBER
API   .          23-037-21488-0000                :API NUMBER
SRVC  .                                           :SERVICE COMPANY
~Parameter Information Block
#MNEM.UNIT       Value                            Description
#---------       ---------                        -------------
PDAT  .          GROUND LEVEL                     :Permanent Datum               
EPD   .ft        315.70                           :Elevation of Permanent Datum (PDAT) above Mean Sea Level
LMF   .          KELLY BUSHING                    :Logging Measured From (Name of Working Datum)
APD   .ft        18.00                            :Elevation of Working Datum (LMF) Above Permanent Datum
EDF   .ft        332.70                           :Elevation of Derrick Floor Above Mean Sea Level
EGL   .ft        315.70                           :Elevation of Ground Level Above Mean Sea Level
EKB   .ft        333.70                           :Elevation of Kelly Bushing Above Mean Sea Level
~Curve Information Block
#MNEM.UNIT       API Code            Curve    Description
#--------        --------------      -----    -------------------
DEPT  .F                             :0       Index
AT10  .OHMM                          :1       Array Induction Two Foot Resistivity A10
AT20  .OHMM                          :2       Array Induction Two Foot Resistivity A20
AT30  .OHMM                          :3       Array Induction Two Foot Resistivity A30
AT60  .OHMM                          :4       Array Induction Two Foot Resistivity A60
AT90  .OHMM                          :5       Array Induction Two Foot Resistivity A90
BS    .IN                            :6       Bit Size                      
DT    .US/F                          :7       Delta-T (also called Slowness or Interval Transit Time)
GR    .GAPI                          :8       Gamma Ray                     
HCAL  .IN                            :9       HRCC Caliper Calibrated       
HTNP  .V/V                           :10      High Resolution Thermal Neutron Porosity (Ratio Method) in Sand Lithology
KINT  .MD                            :11      Intrinsic Permeability        
PHIT  .V/V                           :12      Total Porosity_ includes all forms of porosity, including that occupied by bound fluids, and is independent of rock and fluid materials and of environmental effects
PIGN  .V/V                           :13      Effective Porosity, VISO, VPAR, and Bound Water Removed
SUWI  .V/V                           :14      Non-Clay Water Intergranular Water Saturation for Undisturbed Zone
VCHL  .V/V                           :15      Volume of Chlorite Relative to Total Volume
VCLC  .V/V                           :16      Volume of Calcite Relative to Total Volume
VILL  .V/V                           :17      Volume of Illite (dry) Relative to Total Volume
VKAO  .V/V                           :18      Volume of Kaolinite (dry) Relative to Total Volume
VQUA  .V/V                           :19      Volume of Quartz Relative to Total Volume
VUIW  .V/V                           :20      Volume of Irreducible Water In Undisturbed Zone
VUWA  .V/V                           :21      Volume of Water in Undisturbed Zone
VXBW  .V/V                           :22      Volume of Bound Water in Flushed Zone
~Ascii Data Section
# ...
  10412.50000       3.31228       3.51392       3.48943       3.34837       3.41506       8.75000      77.83304     126.21136       9.65366       0.29314       0.01000       0.10162       0.04868       1.00000       0.06415       0.00000       0.37906       0.07990       0.37527       0.04868       0.00000       0.05294 
  10413.00000       2.84806       3.35396       3.43311       3.31411       3.38578       8.75000      75.92498     130.06851       9.43638       0.29736       0.01000       0.09512       0.04320       1.00000       0.06209       0.01572       0.36335       0.09476       0.36895       0.04320       0.00000       0.05193 
  10413.50000       2.89844       3.17289       3.33596       3.24035       3.24627       8.75000      76.04682     127.31448       9.79094       0.32098       0.01000       0.09850       0.04639       1.00000       0.06340       0.01620       0.35377       0.11203       0.35609       0.04639       0.00000       0.05211 
  10414.00000       3.00242       3.24259       3.34868       3.25494       3.31109       8.75000      77.34261     125.88547      10.31702       0.34858       0.01000       0.10885       0.05369       1.00000       0.06488       0.00000       0.38712       0.10060       0.33854       0.05369       0.00000       0.05516 
  10414.50000       3.36238       3.75220       3.83386       3.69711       3.63520       8.75000      75.72591     119.62936      10.08828       0.33747       0.01000       0.09651       0.04268       1.00000       0.07449       0.00000       0.36690       0.09668       0.36543       0.04268       0.00000       0.05382 
  10415.00000       3.78405       4.19033       4.20482       4.02333       4.02923       8.75000      75.30225     117.24512       9.47067       0.31576       0.01000       0.09076       0.03638       1.00000       0.08073       0.00000       0.38630       0.06038       0.38183       0.03638       0.00000       0.05438 
  10415.50000       3.64098       4.15648       4.22688       4.12289       4.16051       8.75000      73.25395     112.05955       9.01319       0.27991       0.01000       0.07457       0.02299       1.00000       0.09042       0.00000       0.35558       0.05109       0.42834       0.02299       0.00000       0.05159 
  10416.00000       3.46311       3.99426       4.01654       3.89379       3.96966       8.75000      71.82546     111.35900       8.96744       0.26408       0.01000       0.06370       0.01304       1.00000       0.09247       0.00000       0.34447       0.05172       0.44764       0.01304       0.00000       0.05066 
  10416.50000       3.49981       3.90684       3.88800       3.81027       3.87309       8.75000      70.35049     114.82896       8.92169       0.23880       0.01000       0.05345       0.00483       1.00000       0.08710       0.00000       0.32800       0.05714       0.47432       0.00483       0.00000       0.04862 
  10417.00000       3.57846       4.03337       4.01325       3.93749       3.98155       8.75000      69.89196     121.91989       8.94457       0.24126       0.01000       0.05177       0.00328       1.00000       0.07708       0.00000       0.33306       0.06447       0.47362       0.00328       0.00000       0.04849 
  10417.50000       3.49554       3.93951       4.07884       3.98246       4.00772       8.75000      70.15070     128.11891       9.08183       0.24950       0.01000       0.05590       0.00744       1.00000       0.06827       0.00000       0.33608       0.07487       0.46488       0.00744       0.00000       0.04846 
  10418.00000       3.19025       3.49555       3.67553       3.59790       3.61330       8.75000      70.53278     127.70184       9.63080       0.28172       0.01000       0.06094       0.01261       1.00000       0.06698       0.00000       0.31643       0.10953       0.44611       0.01261       0.00000       0.04834 
  10418.50000       2.82620       3.00925       3.11659       3.10672       3.20288       8.75000      72.64440     127.51003       9.67655       0.31702       0.01000       0.07971       0.03245       1.00000       0.06523       0.00000       0.28670       0.14719       0.42117       0.03083       0.00162       0.04726 
  10419.00000       2.42970       2.54257       2.59567       2.61317       2.72765       8.75000      75.28442     133.27257      10.05399       0.35480       0.01000       0.10267       0.05425       1.00000       0.05562       0.00000       0.29076       0.17654       0.37441       0.05239       0.00187       0.04842 
  10419.50000       2.38403       2.45174       2.53248       2.60210       2.74578       8.75000      76.73308     140.65758      10.22554       0.37536       0.01000       0.10509       0.05396       1.00000       0.04670       0.00000       0.30378       0.21409       0.33034       0.05396       0.00000       0.05113 
  10420.00000       2.76912       2.93937       3.07384       3.06743       3.26591       8.75000      78.74141     145.64508      10.40854       0.37885       0.01000       0.10880       0.05195       1.00000       0.03850       0.00000       0.37774       0.19247       0.28249       0.05195       0.00000       0.05684 
  10420.50000       3.27423       3.61472       3.75117       3.63042       3.87927       8.75000      78.12283     146.55841      10.15691       0.35322       0.01000       0.10109       0.04215       1.00000       0.04000       0.00000       0.42175       0.14677       0.29039       0.04215       0.00000       0.05894 
  10421.00000       3.51113       3.79041       3.84729       3.69995       3.98292       8.75000      78.39444     142.50999       9.72230       0.32468       0.01000       0.10629       0.04890       1.00000       0.04503       0.00000       0.43205       0.09447       0.32216       0.04890       0.00000       0.05739 
  10421.50000       3.50155       3.89187       3.95089       3.76140       4.00955       8.75000      77.23693     136.52345       9.51645       0.29894       0.01000       0.10338       0.04831       1.00000       0.05338       0.00000       0.42385       0.05602       0.36336       0.04831       0.00000       0.05508 
  10422.00000       3.76189       4.14754       4.16967       3.88708       4.03956       8.75000      76.66994     129.60918       9.33345       0.27987       0.01000       0.09355       0.03907       1.00000       0.06291       0.00000       0.41331       0.04732       0.38292       0.03907       0.00000       0.05448 
  10422.50000       4.06756       4.49569       4.44125       4.18498       4.26777       8.75000      74.88480     128.35796       9.56217       0.26653       0.01000       0.08410       0.02953       1.00000       0.06812       0.00000       0.41684       0.03323       0.39771       0.02953       0.00000       0.05458 
  10423.00000       3.84130       4.20651       4.25473       3.99514       4.05629       8.75000      74.87543     126.49590       9.24193       0.26842       0.01000       0.08903       0.03613       1.00000       0.06671       0.03274       0.40314       0.03261       0.37578       0.03613       0.00000       0.05290 
  10423.50000       3.65171       3.82870       3.89451       3.78549       3.82738       8.75000      73.94475     124.98952       9.35632       0.28401       0.01000       0.09180       0.04041       1.00000       0.05601       0.10905       0.39256       0.04602       0.30455       0.04041       0.00000       0.05139 
  10424.00000       3.78283       3.86500       3.92066       3.78958       3.82510       8.75000      73.42799     126.71664       9.53931       0.30634       0.01000       0.08246       0.02704       1.00000       0.06028       0.10153       0.41340       0.06729       0.27504       0.02704       0.00000       0.05542 
  10424.50000       4.03816       4.07937       4.21480       4.00245       4.10426       8.75000      74.23836     130.60301       9.28768       0.31451       0.01000       0.08089       0.02044       1.00000       0.07068       0.04180       0.46154       0.04586       0.29924       0.02044       0.00000       0.06045 
