~Version Information
VERS  .          2.0                              :CWLS Log Ascii Standard - Version 2.0
WRAP  .          NO                               :One line per depth step
~Well Information Block
#MNEM.UNIT       Data Type                        Information
#---------       ---------                        -------------------------------
STRT  .F         9700.00000                       :START DEPTH
STOP  .F         10600.00000                      :STOP DEPTH
STEP  .F          0.50000                         :INCREMENT
NULL  .          -999.25                          :NULL DATA VALUE
COMP  .          DENBURY ONSHORE, LLC             :COMPANY
WELL  .          CFU 31F #1                       :WELL
FLD   .          CRANFIELD FIELD UNIT             :FIELD
LOC   .                                           :LOCATION
PROV  .                                           :PROVINCE
STAT  .                                           :STATE
CNTY  .                                           :COUNTY
CTRY  .                                           :COUNTRY
DATE  .                                           :DATE
UWI   .          CFU 31F #1                       :UNIQUE WELL UWI
LIC   .                                           :LICENSE NUMBER
API   .          23-037-21488-0000                :API NUMBER
SRVC  .                                           :SERVICE COMPANY
~Parameter Information Block
#MNEM.UNIT       Value                            Description
#---------       ---------                        -------------
PDAT  .          GROUND LEVEL                     :Permanent Datum               
EPD   .ft        315.70                           :Elevation of Permanent Datum (PDAT) above Mean Sea Level
LMF   .          KELLY BUSHING                    :Logging Measured From (Name of Working Datum)
APD   .ft        18.00                            :Elevation of Working Datum (LMF) Above Permanent Datum
EDF   .ft        332.70                           :Elevation of Derrick Floor Above Mean Sea Level
EGL   .ft        315.70                           :Elevation of Ground Level Above Mean Sea Level
EKB   .ft        333.70                           :Elevation of Kelly Bushing Above Mean Sea Level
~Curve Information Block
#MNEM.UNIT       API Code            Curve    Description
#--------        --------------      -----    -------------------
DEPT  .F                             :0       Index
SXGA  .                              :1       CO2 Saturation
GR    .GAPI                          :2       Gamma Ray                     
INFD_TDTL.CPS                        :3       Gross Inelastic Count Rate Far Detector (TDT-like)
PHIC  .V/V                           :4       TDT Count Rate Porosity       
QGD   .BB/D                          :5       Downhole CO2 Injection rate (Low Rate)
QTDH  .BB/D                          :6       Downhole CO2 Injection rate (High Rate)
SBNA  .CU                            :7       RST Sigma Borehole Near Apparent
SIBH_TDTL.CU                         :8       Sigma Borehole Corrected (TDT-like)
SIGM  .CU                            :9       Formation Sigma (Neutron Capture Cross Section)
SIGM_TDTL.CU                         :10      Formation Sigma (Neutron Capture Cros Section) (TDT-like)
SW    .V/V                           :11      Water Saturation Computed by Delta Sigma Method             
SXWI  .V/V                           :12      Non-Clay Water Intergranular Water Saturation for the Flushed Zone
TPHI  .V/V                           :13      Thermal Decay Porosity        
TSCF_TDTL.CPS                        :14      Total Selected Count Rate Far Detector (TDT-like)
TSCN_TDTL.CPS                        :15      Total Selected Count Rate Near Detector (TDT-like)
VXGA  .V/V                           :16      Volume of Gas in Flushed Zone 
WPRE  .PSI                           :17      Well Pressure                 
WTEP  .DEGF                          :18      Well Temperature              
~Ascii Data Section
# ...
  10465.00000       0.28601      38.57772     848.07550       0.19059    -621.57880   -1339.12402      69.40402      57.87282      23.38649      23.48906       0.61863       0.71782      -0.07164    3148.58105    3586.88794       0.06830    5707.53662     195.48993 
  10465.50000       0.21785      38.10777     861.78864       0.19827    -611.27191   -1320.00525      69.92675      58.34064      24.48877      24.13776       0.66534       0.78488      -0.07001    3127.23096    3592.95752       0.05181    5707.70752     195.47307 
  10466.00000       0.21883      38.92997     865.92871       0.20129    -600.96497   -1300.88635      65.74454      58.18387      24.20180      24.30119       0.65552       0.78394      -0.06069    3207.65332    3718.90552       0.05146    5707.87842     195.45724 
  10466.50000       0.27152      41.00980     865.38416       0.19713    -590.65808   -1281.76746      64.57719      55.12786      22.99138      23.96388       0.62712       0.73185      -0.04490    3411.88525    3952.10400       0.06398    5708.10596     195.45160 
  10467.00000       0.33965      43.16790     864.98700       0.19327    -580.35120   -1262.64868      61.05624      52.67417      21.76576      23.62004       0.61410       0.66485      -0.02746    3662.20166    4239.76611       0.08013    5708.25000     195.45354 
  10467.50000       0.38119      46.88910     864.19867       0.19146    -570.04425   -1243.52991      56.21403      52.14182      21.11990      23.15103       0.61356       0.62404      -0.02350    3817.05469    4461.43506       0.09066    5708.34082     195.47403 
  10468.00000       0.37787      47.74615     866.19635       0.18840    -559.73737   -1224.41101      62.12990      50.71443      20.86255      22.77682       0.60872       0.62694      -0.02649    3905.68237    4560.70020       0.08958    5708.48193     195.52843 
  10468.50000       0.37730      47.05074     873.46021       0.18782    -549.43048   -1205.29211      62.90716      50.09140      20.78704      22.64014       0.61193       0.62762      -0.02854    3928.33374    4577.05957       0.08844    5708.68848     195.57358 
  10469.00000       0.36467      47.29802     873.79791       0.18939    -539.12354   -1186.17334      57.40818      51.95857      20.60164      22.53248       0.59269       0.64046      -0.02580    3899.05518    4575.73779       0.08178    5708.89648     195.60016 
  10469.50000       0.35277      48.31350     867.37781       0.18918    -528.81659   -1167.05444      60.84877      54.36374      20.55233      22.29577       0.58398       0.65294      -0.02526    3909.74854    4613.08838       0.07485    5709.11084     195.61827 
  10470.00000       0.29762      46.97582     858.20306       0.18618    -518.50970   -1147.93567      62.37600      56.09907      20.36884      21.78511       0.56722       0.70736      -0.04452    3946.88916    4674.67822       0.05801    5709.27490     195.63135 
  10470.50000       0.29333      47.57297     853.24457       0.18434    -508.20279   -1128.81689      66.99758      57.67026      20.03893      21.51831       0.58271       0.71185      -0.05504    3998.60181    4728.67090       0.05490    5709.38477     195.63457 
  10471.00000       0.29711      49.21663     851.58459       0.18245    -497.89590   -1109.69800      66.48696      59.37645      19.55641      21.19787       0.53359       0.70850      -0.05654    4070.47974    4799.36572       0.05313    5709.56201     195.63567 
  10471.50000       0.29867      49.18921     856.63019       0.18051    -487.58899   -1090.57910      62.90313      58.93637      19.26738      21.10162       0.42433       0.70783      -0.05112    4190.74854    4887.91504       0.05017    5709.72803     195.64754 
  10472.00000       0.27379      48.54910     870.40900       0.18085    -477.28207   -1071.46033      63.10674      55.86413      19.17871      21.20445       0.34100       0.73216      -0.04178    4272.26562    4966.50781       0.04464    5709.93164     195.66888 
  10472.50000       0.37680      47.60581     882.54797       0.18069    -466.97516   -1052.34143      59.85628      53.36866      19.15590      21.38278       0.36235       0.63212      -0.03773    4344.75977    4999.83887       0.06629    5710.09326     195.68620 
  10473.00000       0.41440      46.76815     879.00647       0.17864    -456.66824   -1033.22266      58.97287      53.63430      19.16429      21.28533       0.45124       0.59275      -0.03902    4371.89795    4994.98340       0.08476    5710.32031     195.70992 
  10473.50000       0.46201      45.92655     870.48932       0.17732    -446.36133   -1014.10376      62.72499      52.96126      19.30800      21.25049       0.50113       0.54423      -0.04538    4346.91211    4977.41943       0.10932    5710.50537     195.75250 
  10474.00000       0.47214      45.78002     867.10529       0.18055    -436.05444    -994.98492      63.19145      53.61637      19.53927      21.59754       0.54581       0.53299      -0.04616    4281.73047    4937.56787       0.12234    5710.65039     195.77736 
  10474.50000       0.48641      45.69247     871.90869       0.18511    -425.74753    -975.86609      60.03636      54.15885      19.68302      22.10350       0.53885       0.51942      -0.04670    4172.47461    4821.98633       0.12737    5710.87207     195.77719 
  10475.00000       0.50357      45.55088     870.54926       0.18865    -415.44061    -956.74731      63.89011      53.74424      19.85711      22.55813       0.54360       0.50328      -0.03665    4040.39648    4699.96094       0.13255    5711.05322     195.78769 
  10475.50000       0.48036      45.45250     860.20306       0.18979    -405.13370    -937.62848      59.17735      52.46476      20.18963      23.02108       0.54550       0.52581      -0.02751    3942.53809    4595.05957       0.12665    5711.17773     195.82416 
  10476.00000       0.45507      45.66415     856.37097       0.19281    -394.82678    -918.50958      56.47182      51.34552      20.61468      23.51761       0.56898       0.55039      -0.01697    3831.87671    4496.12402       0.12089    5711.45361     195.87791 
  10476.50000       0.43564      45.55023     853.93750       0.19176    -384.51987    -899.39075      59.76016      50.47152      20.92626      23.38772       0.58616       0.56906      -0.01601    3731.49487    4394.12061       0.11728    5711.59473     195.92694 
  10477.00000       0.43747      45.12250     857.84698       0.18936    -374.21298    -880.27191      59.89271      49.70010      20.97762      22.85923       0.59333       0.56742      -0.02328    3657.06665    4326.94141       0.11714    5711.75928     195.95712 
  10477.50000       0.46824      45.49022     846.26959       0.18638    -363.90607    -861.15308      61.21438      49.48034      21.06856      22.66732       0.58660       0.53813      -0.01861    3637.72974    4302.81445       0.12473    5711.92432     195.98642 
  10478.00000       0.46221      46.79213     842.98950       0.18471    -353.59915    -842.03424      58.16985      50.22922      21.14081      22.40571       0.58953       0.54460      -0.02106    3649.18994    4316.48535       0.11949    5712.13867     195.99635 
  10478.50000       0.45616      46.84930     849.02917       0.18185    -343.29224    -822.91534      60.42887      51.61179      21.19292      22.00659       0.60902       0.55124      -0.03233    3706.69507    4330.90967       0.11349    5712.26758     195.98386 
  10479.00000       0.42737      44.15145     856.18848       0.17989    -332.98532    -803.79651      65.26115      52.77343      21.09263      21.71947       0.62763       0.57841      -0.04737    3774.74658    4362.06201       0.10713    5712.46533     196.00908 
  10479.50000       0.40528      43.02901     861.96039       0.18105    -322.67841    -784.67773      63.67785      55.14665      20.99582      21.75260       0.65715       0.59954      -0.05667    3830.39917    4396.24365       0.10140    5712.69092     196.05446 
