~Version Information
VERS  .          2.0                              :CWLS Log Ascii Standard - Version 2.0
WRAP  .          NO                               :One line per depth step
~Well Information Block
#MNEM.UNIT       Data Type                        Information
#---------       ---------                        -------------------------------
STRT  .F         9700.00000                       :START DEPTH
STOP  .F         10600.00000                      :STOP DEPTH
STEP  .F          0.50000                         :INCREMENT
NULL  .          -999.25                          :NULL DATA VALUE
COMP  .          DENBURY ONSHORE, LLC             :COMPANY
WELL  .          CFU 31F #1                       :WELL
FLD   .          CRANFIELD FIELD UNIT             :FIELD
LOC   .                                           :LOCATION
PROV  .                                           :PROVINCE
STAT  .                                           :STATE
CNTY  .                                           :COUNTY
CTRY  .                                           :COUNTRY
DATE  .                                           :DATE
UWI   .          CFU 31F #1                       :UNIQUE WELL UWI
LIC   .                                           :LICENSE NUMBER
API   .          23-037-21488-0000                :API NUMBER
SRVC  .                                           :SERVICE COMPANY
~Parameter Information Block
#MNEM.UNIT       Value                            Description
#---------       ---------                        -------------
PDAT  .          GROUND LEVEL                     :Permanent Datum               
EPD   .ft        315.70                           :Elevation of Permanent Datum (PDAT) above Mean Sea Level
LMF   .          KELLY BUSHING                    :Logging Measured From (Name of Working Datum)
APD   .ft        18.00                            :Elevation of Working Datum (LMF) Above Permanent Datum
EDF   .ft        332.70                           :Elevation of Derrick Floor Above Mean Sea Level
EGL   .ft        315.70                           :Elevation of Ground Level Above Mean Sea Level
EKB   .ft        333.70                           :Elevation of Kelly Bushing Above Mean Sea Level
~Curve Information Block
#MNEM.UNIT       API Code            Curve    Description
#--------        --------------      -----    -------------------
DEPT  .F                             :0       Index
SXGA  .                              :1       CO2 Saturation
GR    .GAPI                          :2       Gamma Ray                     
INFD_TDTL.CPS                        :3       Gross Inelastic Count Rate Far Detector (TDT-like)
PHIC  .V/V                           :4       TDT Count Rate Porosity       
QGD   .BB/D                          :5       Downhole CO2 Injection rate (Low Rate)
QTDH  .BB/D                          :6       Downhole CO2 Injection rate (High Rate)
SBNA  .CU                            :7       RST Sigma Borehole Near Apparent
SIBH_TDTL.CU                         :8       Sigma Borehole Corrected (TDT-like)
SIGM  .CU                            :9       Formation Sigma (Neutron Capture Cross Section)
SIGM_TDTL.CU                         :10      Formation Sigma (Neutron Capture Cros Section) (TDT-like)
SW    .V/V                           :11      Water Saturation Computed by Delta Sigma Method             
SXWI  .V/V                           :12      Non-Clay Water Intergranular Water Saturation for the Flushed Zone
TPHI  .V/V                           :13      Thermal Decay Porosity        
TSCF_TDTL.CPS                        :14      Total Selected Count Rate Far Detector (TDT-like)
TSCN_TDTL.CPS                        :15      Total Selected Count Rate Near Detector (TDT-like)
VXGA  .V/V                           :16      Volume of Gas in Flushed Zone 
WPRE  .PSI                           :17      Well Pressure                 
WTEP  .DEGF                          :18      Well Temperature              
~Ascii Data Section
# ...
  10225.00000       0.00000      49.51471     311.56323       0.28084    -999.25000    -999.25000      82.60104     116.16561      30.18823      27.04286       1.00000       1.00000       0.31188    1059.43018    2315.01855       0.00000    5664.52637     191.31375 
  10225.50000       0.00000      46.05201     313.36182       0.26862    -999.25000    -999.25000      82.19617     119.28123      28.78822      25.28047       1.00000       1.00000       0.27520    1191.21326    2552.67578       0.00000    5664.66162     191.32137 
  10226.00000       0.00000      42.86876     313.09625       0.26354    -999.25000    -999.25000      85.64655     120.11096      26.55061      24.20276       1.00000       1.00000       0.25114    1264.40491    2692.81152       0.00000    5664.79443     191.32538 
  10226.50000       0.00000      42.62127     307.10352       0.25680    -999.25000    -999.25000      90.53489     120.42016      25.33690      23.86011       0.84960       1.00000       0.25801    1320.95508    2771.96680       0.00000    5664.92188     191.32967 
  10227.00000       0.00000      44.37925     309.13660       0.26779    -999.25000    -999.25000      90.40633     122.67198      25.79297      24.04410       0.69957       1.00000       0.28582    1289.21936    2768.99756       0.00000    5665.07227     191.34172 
  10227.50000       0.00000      44.91364     308.08664       0.29154    -999.25000    -999.25000      84.21925     125.41817      27.20988      24.68939       0.75751       1.00000       0.31462    1174.84937    2645.60547       0.00000    5665.19434     191.35876 
  10228.00000       0.00000      48.51935     305.90491       0.31690    -999.25000    -999.25000      83.25038     125.91640      28.24970      26.00725       0.75496       1.00000       0.33757    1040.09485    2460.36255       0.00000    5665.21240     191.37383 
  10228.50000       0.00000      51.52914     301.14011       0.33923    -999.25000    -999.25000      86.28080     124.31332      28.85843      27.19403       0.80379       1.00000       0.35835     943.73755    2337.86523       0.00000    5665.37891     191.38202 
  10229.00000       0.00000      52.65962     300.42313       0.35472    -999.25000    -999.25000      86.53468     123.04716      29.57715      28.00511       0.85528       1.00000       0.37849     884.53931    2261.61133       0.00000    5665.45703     191.38043 
  10229.50000       0.00000      51.35463     299.19254       0.35268    -999.25000    -999.25000      84.01917     120.99728      30.12934      28.36344       0.91687       1.00000       0.38413     879.25769    2244.13672       0.00000    5665.52783     191.37061 
  10230.00000       0.00000      51.00507     298.38629       0.32797    -999.25000    -999.25000      79.41690     117.68159      30.04593      27.70741       1.00000       1.00000       0.36492     965.01978    2356.06323       0.00000    5665.64062     191.36253 
  10230.50000       0.00000      48.20998     294.24973       0.30450    -999.25000    -999.25000      80.57044     114.18012      28.52472      25.75558       1.00000       1.00000       0.32964    1104.13110    2601.18164       0.00000    5665.76123     191.35973 
  10231.00000       0.00000      45.93623     297.58932       0.28558    -999.25000    -999.25000      80.19418     111.73950      26.38815      23.90431       1.00000       1.00000       0.29703    1226.00085    2796.20850       0.00000    5665.93604     191.35904 
  10231.50000       0.00000      43.54086     293.82837       0.28057    -999.25000    -999.25000      83.12305     114.07053      24.65178      22.96293       0.77278       1.00000       0.28957    1282.61829    2888.50708       0.00000    5666.03613     191.36162 
  10232.00000       0.00000      43.80725     297.98169       0.28712    -999.25000    -999.25000      82.55499     117.61041      24.92067      22.93172       0.60351       1.00000       0.30254    1264.57654    2872.74292       0.00000    5666.21875     191.37434 
  10232.50000       0.01468      44.01655     303.29523       0.30881    -999.25000    -999.25000      86.02354     121.04678      26.65187      24.03770       0.67005       0.98735       0.32715    1159.98950    2739.39380       0.00116    5666.36182     191.39398 
  10233.00000       0.01201      44.40413     299.29974       0.31742    -999.25000    -999.25000      82.63845     122.58396      28.66392      26.13687       0.80456       0.98953       0.34523    1051.06458    2506.39087       0.00103    5666.46094     191.41725 
  10233.50000       0.00432      45.85564     290.19363       0.32823    -999.25000    -999.25000      83.83561     123.33522      29.53942      27.64120       0.90378       0.99614       0.35347     966.48096    2338.46680       0.00044    5666.54443     191.44662 
  10234.00000       0.00000      48.18108     273.68442       0.33454    -999.25000    -999.25000      84.14529     125.57073      29.69126      27.86291       0.92079       1.00000       0.34943     938.21826    2289.10864       0.00000    5666.72998     191.48088 
  10234.50000       0.00000      48.68424     276.43655       0.33337    -999.25000    -999.25000      83.14689     125.38356      29.54560      27.75389       0.87271       1.00000       0.34406     936.90833    2281.24536       0.00000    5666.85986     191.52122 
  10235.00000       0.00000      48.67658     275.45349       0.33861    -999.25000    -999.25000      87.35471     125.91850      29.62017      27.53300       0.82140       1.00000       0.34320     913.30084    2246.72339       0.00000    5666.98828     191.55887 
  10235.50000       0.00000      51.31364     273.86115       0.34605    -999.25000    -999.25000      83.76259     127.71353      30.09529      28.02572       0.76765       1.00000       0.35262     875.12628    2173.03101       0.00000    5667.13965     191.59149 
  10236.00000       0.00000      53.44579     273.76782       0.35222    -999.25000    -999.25000      83.16447     127.12199      30.83558      28.46717       0.76603       1.00000       0.36782     841.24921    2112.39746       0.00000    5667.23877     191.61472 
  10236.50000       0.00000      55.51401     287.57794       0.36005    -999.25000    -999.25000      86.06352     122.75067      31.46733      29.15664       0.75473       1.00000       0.38187     797.08221    2042.62817       0.00000    5667.37988     191.63249 
  10237.00000       0.00000      56.19873     300.38501       0.36856    -999.25000    -999.25000      82.18002     122.41744      31.58554      29.34150       0.73521       1.00000       0.39110     768.12323    2001.72217       0.00000    5667.49072     191.65425 
  10237.50000       0.00000      57.57665     304.40085       0.36746    -999.25000    -999.25000      80.24171     120.83180      31.63060      29.92198       0.81206       1.00000       0.39490     766.63971    1994.96155       0.00000    5667.60693     191.66888 
  10238.00000       0.00000      56.96036     296.81268       0.36305    -999.25000    -999.25000      81.97796     119.71909      31.54840      29.67152       0.85343       1.00000       0.39379     786.56519    2036.50049       0.00000    5667.76270     191.69923 
  10238.50000       0.00000      55.14198     294.03723       0.35681    -999.25000    -999.25000      81.26273     120.28922      31.64823      29.93682       0.92275       1.00000       0.38695     820.11823    2093.29370       0.00000    5667.91357     191.74216 
  10239.00000       0.00054      52.11371     291.79865       0.34528    -999.25000    -999.25000      84.41116     122.48901      31.27288      29.36032       0.93903       0.99950       0.37107     875.47937    2179.48193       0.00007    5668.05713     191.77669 
  10239.50000       0.00000      51.35356     295.52859       0.33966    -999.25000    -999.25000      83.09416     122.89825      30.75618      28.30677       0.96750       1.00000       0.35451     915.90875    2265.99658       0.00000    5668.25488     191.80724 
