~Version Information
VERS  .          2.0                              :CWLS Log Ascii Standard - Version 2.0
WRAP  .          NO                               :One line per depth step
~Well Information Block
#MNEM.UNIT       Data Type                        Information
#---------       ---------                        -------------------------------
STRT  .F         9700.00000                       :START DEPTH
STOP  .F         10647.00000                      :STOP DEPTH
STEP  .F          0.50000                         :INCREMENT
NULL  .          -999.25                          :NULL DATA VALUE
COMP  .          DENBURY ONSHORE, LLC             :COMPANY
WELL  .          CFU 31F #1                       :WELL
FLD   .          CRANFIELD FIELD UNIT             :FIELD
LOC   .                                           :LOCATION
PROV  .                                           :PROVINCE
STAT  .                                           :STATE
CNTY  .                                           :COUNTY
CTRY  .                                           :COUNTRY
DATE  .                                           :DATE
UWI   .          CFU 31F #1                       :UNIQUE WELL UWI
LIC   .                                           :LICENSE NUMBER
API   .          23-037-21488-0000                :API NUMBER
SRVC  .                                           :SERVICE COMPANY
~Parameter Information Block
#MNEM.UNIT       Value                            Description
#---------       ---------                        -------------
PDAT  .          GROUND LEVEL                     :Permanent Datum               
EPD   .ft        315.70                           :Elevation of Permanent Datum (PDAT) above Mean Sea Level
LMF   .          KELLY BUSHING                    :Logging Measured From (Name of Working Datum)
APD   .ft        18.00                            :Elevation of Working Datum (LMF) Above Permanent Datum
EDF   .ft        332.70                           :Elevation of Derrick Floor Above Mean Sea Level
EGL   .ft        315.70                           :Elevation of Ground Level Above Mean Sea Level
EKB   .ft        333.70                           :Elevation of Kelly Bushing Above Mean Sea Level
~Curve Information Block
#MNEM.UNIT       API Code            Curve    Description
#--------        --------------      -----    -------------------
DEPT  .F                             :0       Index
AT10  .OHMM                          :1       Array Induction Two Foot Resistivity A10
AT20  .OHMM                          :2       Array Induction Two Foot Resistivity A20
AT30  .OHMM                          :3       Array Induction Two Foot Resistivity A30
AT60  .OHMM                          :4       Array Induction Two Foot Resistivity A60
AT90  .OHMM                          :5       Array Induction Two Foot Resistivity A90
BS    .IN                            :6       Bit Size                      
DT    .US/F                          :7       Delta-T (also called Slowness or Interval Transit Time)
GR    .GAPI                          :8       Gamma Ray                     
HCAL  .IN                            :9       HRCC Caliper Calibrated       
HTNP  .V/V                           :10      High Resolution Thermal Neutron Porosity (Ratio Method) in Sand Lithology
KINT  .MD                            :11      Intrinsic Permeability        
PHIT  .V/V                           :12      Total Porosity_ includes all forms of porosity, including that occupied by bound fluids, and is independent of rock and fluid materials and of environmental effects
PIGN  .V/V                           :13      Effective Porosity, VISO, VPAR, and Bound Water Removed
SUWI  .V/V                           :14      Non-Clay Water Intergranular Water Saturation for Undisturbed Zone
VCHL  .V/V                           :15      Volume of Chlorite Relative to Total Volume
VCLC  .V/V                           :16      Volume of Calcite Relative to Total Volume
VILL  .V/V                           :17      Volume of Illite (dry) Relative to Total Volume
VKAO  .V/V                           :18      Volume of Kaolinite (dry) Relative to Total Volume
VQUA  .V/V                           :19      Volume of Quartz Relative to Total Volume
VUIW  .V/V                           :20      Volume of Irreducible Water In Undisturbed Zone
VUWA  .V/V                           :21      Volume of Water in Undisturbed Zone
VXBW  .V/V                           :22      Volume of Bound Water in Flushed Zone
~Ascii Data Section
# ...
  10175.00000       2.49710       2.81133       2.82752       2.80696       2.70948       8.75000      81.76756     102.53253      10.50003       0.32007       0.02663       0.15545       0.11339       1.00000       0.06671       0.00054       0.29122       0.05225       0.43383       0.10974       0.00364       0.04206 
  10175.50000       3.05399       3.38077       3.35863       3.29614       3.18300       8.75000      81.31706      98.15326      10.15692       0.29445       0.03200       0.14746       0.10707       1.00000       0.07223       0.00000       0.27643       0.04081       0.46307       0.09781       0.00926       0.04039 
  10176.00000       3.33419       3.81314       3.87455       3.59296       3.60150       8.75000      81.01326     102.68331       9.69944       0.27479       0.01000       0.13040       0.08640       1.00000       0.07164       0.00000       0.31429       0.03434       0.44932       0.08640       0.00000       0.04400 
  10176.50000       3.37519       3.80579       3.95721       3.71730       3.72813       8.75000      78.92854     104.28387       9.81376       0.28011       0.01000       0.11492       0.06684       1.00000       0.07554       0.00000       0.35773       0.01744       0.43437       0.06684       0.00000       0.04807 
  10177.00000       3.39603       3.82681       3.84348       3.64151       3.49857       8.75000      79.09538     109.33337       9.56219       0.27907       0.01000       0.11626       0.06780       1.00000       0.07049       0.00000       0.36687       0.01693       0.42946       0.06780       0.00000       0.04846 
  10177.50000       2.82570       3.11736       3.17426       3.08949       2.94042       8.75000      79.69999     106.43433       9.35631       0.28258       0.01000       0.12934       0.08526       1.00000       0.06896       0.00000       0.32465       0.02242       0.45463       0.08526       0.00000       0.04408 
  10178.00000       2.32352       2.58239       2.68032       2.61737       2.48684       8.75000      81.28453     108.72823       9.47068       0.29461       0.01687       0.14145       0.09887       1.00000       0.06102       0.00000       0.30588       0.04540       0.44625       0.09887       0.00000       0.04258 
  10178.50000       2.14883       2.36263       2.42660       2.41169       2.27643       8.75000      82.90858     106.58242      10.31707       0.31251       0.01494       0.15134       0.10669       1.00000       0.05624       0.00000       0.33386       0.03869       0.41988       0.10669       0.00000       0.04464 
  10179.00000       2.23856       2.43920       2.51178       2.52070       2.36831       8.75000      85.05134     107.38070      10.27130       0.31612       0.01000       0.15531       0.10772       1.00000       0.05327       0.00000       0.36706       0.03393       0.39043       0.10772       0.00000       0.04759 
  10179.50000       2.34798       2.65153       2.73007       2.71892       2.54969       8.75000      82.68140     106.10608      10.31703       0.31732       0.01000       0.14228       0.09341       1.00000       0.06147       0.00000       0.37357       0.02835       0.39433       0.09341       0.00000       0.04887 
  10180.00000       2.41649       2.80507       2.90331       2.89477       2.75996       8.75000      81.80933     111.12681      10.49997       0.31358       0.01000       0.13576       0.08523       1.00000       0.06028       0.00000       0.38839       0.03153       0.38404       0.08523       0.00000       0.05053 
  10180.50000       2.48986       3.05529       3.14079       2.99496       3.07012       8.75000      80.37006     108.69752       9.99682       0.31847       0.01000       0.12904       0.07870       1.00000       0.06853       0.00000       0.37834       0.03104       0.39305       0.07870       0.00000       0.05034 
  10181.00000       2.57684       2.94963       3.17818       3.09784       3.22803       8.75000      79.80940     109.55506      10.09976       0.30912       0.01000       0.13197       0.08345       1.00000       0.06872       0.00000       0.36523       0.02403       0.41006       0.08345       0.00000       0.04852 
  10181.50000       2.16732       2.47238       2.65051       2.77058       2.81892       8.75000      88.81649     113.59444      10.50003       0.29879       0.03934       0.18912       0.14518       1.00000       0.04370       0.00000       0.35030       0.02145       0.39543       0.14518       0.00000       0.04394 
  10182.00000       1.63926       1.72903       1.83005       1.89289       1.91015       8.75000      87.76302     128.95303      10.86607       0.33672       0.07557       0.21989       0.18237       1.00000       0.00000       0.11737       0.31513       0.05835       0.28925       0.18237       0.00000       0.03752 
  10182.50000       1.31964       1.43240       1.44537       1.48505       1.48992       8.75000      89.52779     143.81464      11.57513       0.36481       0.04602       0.22951       0.18594       1.00000       0.00000       0.02378       0.36425       0.07073       0.31172       0.18594       0.00000       0.04357 
  10183.00000       1.58723       1.74835       1.79048       1.94442       1.98224       8.75000      87.56225     143.09937      10.66018       0.35516       0.02680       0.20788       0.16154       1.00000       0.01168       0.00000       0.38788       0.05292       0.33964       0.16154       0.00000       0.04633 
  10183.50000       2.33521       2.61401       2.86250       2.98030       3.14988       8.75000      87.17049     133.29811       9.79093       0.32007       0.02227       0.18592       0.13999       1.00000       0.02496       0.00000       0.37651       0.04207       0.37054       0.13999       0.00000       0.04593 
  10184.00000       2.48306       3.01236       3.04416       3.14831       3.25485       8.75000      79.17890     117.13956      10.79744       0.29138       0.02399       0.14179       0.10146       1.00000       0.04986       0.00000       0.28464       0.06628       0.45743       0.09574       0.00572       0.04033 
  10184.50000       2.63424       3.08108       3.14162       3.15532       3.32598       8.75000      79.88890     109.85326      10.27133       0.29475       0.02132       0.13800       0.09765       1.00000       0.05713       0.00000       0.27412       0.07178       0.45896       0.08836       0.00929       0.04035 
  10185.00000       3.04413       3.71909       3.46219       3.41608       3.54937       8.75000      78.79414     109.26129      10.24844       0.29767       0.01000       0.12721       0.08342       1.00000       0.06104       0.00000       0.31395       0.05086       0.44694       0.08342       0.00000       0.04379 
  10185.50000       3.42187       4.23870       4.15063       3.97768       4.04204       8.75000      77.67056     104.96967      10.01966       0.28596       0.01000       0.11309       0.06811       1.00000       0.06824       0.00000       0.32539       0.03701       0.45628       0.06811       0.00000       0.04498 
  10186.00000       4.00316       4.89323       4.70064       4.58556       4.62019       8.75000      77.42521     102.67575       9.31059       0.26611       0.01000       0.10530       0.06043       1.00000       0.07345       0.00000       0.32809       0.02105       0.47211       0.06043       0.00000       0.04487 
  10186.50000       4.07606       5.30768       5.31749       5.24289       5.20818       8.75000      75.57178      95.56457       9.28769       0.24294       0.01000       0.09204       0.04953       1.00000       0.08244       0.00000       0.30048       0.01460       0.51044       0.04953       0.00000       0.04251 
  10187.00000       4.20800       5.08460       5.11266       5.03326       4.85146       8.75000      74.63662      96.35678       9.15045       0.23695       0.01000       0.08761       0.04649       1.00000       0.08397       0.00000       0.27970       0.02556       0.52316       0.04301       0.00348       0.04112 
