~Version Information
VERS  .          2.0                              :CWLS Log Ascii Standard - Version 2.0
WRAP  .          NO                               :One line per depth step
~Well Information Block
#MNEM.UNIT       Data Type                        Information
#---------       ---------                        -------------------------------
STRT  .F         9700.00000                       :START DEPTH
STOP  .F         10600.00000                      :STOP DEPTH
STEP  .F          0.50000                         :INCREMENT
NULL  .          -999.25                          :NULL DATA VALUE
COMP  .          DENBURY ONSHORE, LLC             :COMPANY
WELL  .          CFU 31F #1                       :WELL
FLD   .          CRANFIELD FIELD UNIT             :FIELD
LOC   .                                           :LOCATION
PROV  .                                           :PROVINCE
STAT  .                                           :STATE
CNTY  .                                           :COUNTY
CTRY  .                                           :COUNTRY
DATE  .                                           :DATE
UWI   .          CFU 31F #1                       :UNIQUE WELL UWI
LIC   .                                           :LICENSE NUMBER
API   .          23-037-21488-0000                :API NUMBER
SRVC  .                                           :SERVICE COMPANY
~Parameter Information Block
#MNEM.UNIT       Value                            Description
#---------       ---------                        -------------
PDAT  .          GROUND LEVEL                     :Permanent Datum               
EPD   .ft        315.70                           :Elevation of Permanent Datum (PDAT) above Mean Sea Level
LMF   .          KELLY BUSHING                    :Logging Measured From (Name of Working Datum)
APD   .ft        18.00                            :Elevation of Working Datum (LMF) Above Permanent Datum
EDF   .ft        332.70                           :Elevation of Derrick Floor Above Mean Sea Level
EGL   .ft        315.70                           :Elevation of Ground Level Above Mean Sea Level
EKB   .ft        333.70                           :Elevation of Kelly Bushing Above Mean Sea Level
~Curve Information Block
#MNEM.UNIT       API Code            Curve    Description
#--------        --------------      -----    -------------------
DEPT  .F                             :0       Index
SXGA  .                              :1       CO2 Saturation
GR    .GAPI                          :2       Gamma Ray                     
INFD_TDTL.CPS                        :3       Gross Inelastic Count Rate Far Detector (TDT-like)
PHIC  .V/V                           :4       TDT Count Rate Porosity       
QGD   .BB/D                          :5       Downhole CO2 Injection rate (Low Rate)
QTDH  .BB/D                          :6       Downhole CO2 Injection rate (High Rate)
SBNA  .CU                            :7       RST Sigma Borehole Near Apparent
SIBH_TDTL.CU                         :8       Sigma Borehole Corrected (TDT-like)
SIGM  .CU                            :9       Formation Sigma (Neutron Capture Cross Section)
SIGM_TDTL.CU                         :10      Formation Sigma (Neutron Capture Cros Section) (TDT-like)
SW    .V/V                           :11      Water Saturation Computed by Delta Sigma Method             
SXWI  .V/V                           :12      Non-Clay Water Intergranular Water Saturation for the Flushed Zone
TPHI  .V/V                           :13      Thermal Decay Porosity        
TSCF_TDTL.CPS                        :14      Total Selected Count Rate Far Detector (TDT-like)
TSCN_TDTL.CPS                        :15      Total Selected Count Rate Near Detector (TDT-like)
VXGA  .V/V                           :16      Volume of Gas in Flushed Zone 
WPRE  .PSI                           :17      Well Pressure                 
WTEP  .DEGF                          :18      Well Temperature              
~Ascii Data Section
   9700.00000       0.00000      57.39760     301.84201       0.24188    -999.25000    -999.25000      90.70900     133.78145      27.55261      25.02297       0.94355       1.00000       0.20424    1011.61902    1941.92773       0.00000    5507.45312     182.70374 
   9700.50000       0.00000      56.23179     294.48825       0.23922    -999.25000    -999.25000      93.96168     134.87161      28.05986      25.12508       0.95566       1.00000       0.20175     968.88556    1835.65601       0.00000    5507.67236     182.68225 
   9701.00000       0.00000      56.23179     274.11215       0.21684    -999.25000    -999.25000      96.09949     136.06528      28.56251      25.84046       0.96904       1.00000       0.20212     921.18268    1739.83081       0.00000    5507.75977     182.65257 
   9701.50000       0.00000      58.17424     272.56427       0.20671    -999.25000    -999.25000     101.52898     136.23897      28.78053      26.00494       0.95707       1.00000       0.19465     941.93512    1738.52319       0.00000    5507.94922     182.63332 
   9702.00000       0.00000      56.47857     283.08130       0.23757    -999.25000    -999.25000      95.50718     136.86307      27.79940      25.05435       0.86090       1.00000       0.20006     933.25238    1751.11633       0.00000    5508.00195     182.61754 
   9702.50000       0.00000      54.68668     295.33258       0.24577    -999.25000    -999.25000      94.81022     138.06410      27.43939      25.31765       0.98813       1.00000       0.20309     907.55688    1735.33691       0.00000    5508.20459     182.59976 
   9703.00000       0.00000      53.80499     294.58234       0.25543    -999.25000    -999.25000      94.42012     136.65565      28.17188      25.41124       1.00000       1.00000       0.21285     877.27264    1725.82776       0.00000    5508.34766     182.58054 
   9703.50000       0.00000      56.66234     284.32562       0.26521    -999.25000    -999.25000      94.61282     135.31226      30.44133      26.42048       1.00000       1.00000       0.22284     842.04297    1689.75989       0.00000    5508.44238     182.56607 
   9704.00000       0.00000      56.05256     282.36853       0.27697    -999.25000    -999.25000      93.52141     135.28938      31.95289      27.35648       1.00000       1.00000       0.22811     765.14307    1567.21313       0.00000    5508.51221     182.56267 
   9704.50000       0.00000      59.53993     286.83395       0.24854    -999.25000    -999.25000      95.53368     135.78819      32.11496      29.71266       1.00000       1.00000       0.22767     715.14020    1455.05505       0.00000    5508.65918     182.56458 
   9705.00000       0.00000      60.34314     290.02914       0.22498    -999.25000    -999.25000      92.41588     133.22766      31.30070      29.06009       1.00000       1.00000       0.21104     776.75769    1500.72156       0.00000    5508.75049     182.57076 
   9705.50000       0.00000      60.07024     300.86359       0.22474    -999.25000    -999.25000      94.95898     130.85532      30.27862      27.39340       1.00000       1.00000       0.19934     871.82440    1693.83533       0.00000    5508.82910     182.58650 
   9706.00000       0.00000      56.05209     300.69858       0.23175    -999.25000    -999.25000      92.44129     130.41687      28.44972      25.19559       1.00000       1.00000       0.18837    1044.23120    1953.67810       0.00000    5509.03857     182.60783 
   9706.50000       0.00000      53.14810     305.94046       0.20977    -999.25000    -999.25000      94.73928     129.23848      26.17371      23.08033       1.00000       1.00000       0.17997    1276.61047    2299.02515       0.00000    5509.24268     182.62822 
   9707.00000       0.00000      48.22857     316.83276       0.20164    -999.25000    -999.25000      94.46609     125.62552      23.81040      21.52094       1.00000       1.00000       0.17171    1484.19666    2676.90820       0.00000    5509.26758     182.65788 
   9707.50000       0.00000      43.77040     333.30536       0.18405    -999.25000    -999.25000      93.07948     123.40645      22.24417      20.62180       1.00000       1.00000       0.16329    1794.01733    3113.24805       0.00000    5509.48877     182.68257 
   9708.00000       0.00000      39.57584     349.18823       0.17159    -999.25000    -999.25000      88.54671     120.73855      21.07428      19.07560       1.00000       1.00000       0.15702    2102.27612    3586.17871       0.00000    5509.68848     182.71989 
   9708.50000       0.00000      36.26887     349.31216       0.17088    -999.25000    -999.25000      86.87746     119.08429      20.11413      18.16431       1.00000       1.00000       0.15361    2275.91553    3925.57056       0.00000    5509.87549     182.76324 
   9709.00000       0.00000      32.22011     335.47070       0.17161    -999.25000    -999.25000      87.70753     118.60391      19.40355      18.27477       1.00000       1.00000       0.15783    2296.01929    3971.25928       0.00000    5510.07129     182.81516 
   9709.50000       0.00000      31.51036     308.76880       0.18626    -999.25000    -999.25000      90.01845     120.93834      20.01253      18.69473       1.00000       1.00000       0.18340    2027.26477    3631.35181       0.00000    5510.10303     182.87866 
   9710.00000       0.00000      31.59547     281.32159       0.18400    -999.25000    -999.25000      92.48248     122.17570      22.95884      18.85845       1.00000       1.00000       0.20248    1742.13025    3067.21313       0.00000    5510.27051     182.95311 
   9710.50000       0.00000      35.43788     261.18784       0.22367    -999.25000    -999.25000      91.67502     125.74733      27.47685      21.64712       1.00000       1.00000       0.22162    1248.47827    2384.79248       0.00000    5510.32812     183.02261 
   9711.00000       0.00000      39.90018     271.19254       0.23404    -999.25000    -999.25000      85.46882     127.09855      31.80171      25.28297       1.00000       1.00000       0.23741     945.28735    1782.94873       0.00000    5510.46680     183.05525 
   9711.50000       0.00000      47.12669     282.41205       0.21565    -999.25000    -999.25000      89.50673     126.91888      33.13461      28.52823       1.00000       1.00000       0.25151     792.65466    1507.64673       0.00000    5510.57031     183.06180 
   9712.00000       0.00000      51.59516     314.00568       0.21921    -999.25000    -999.25000      86.26545     126.12714      32.53826      28.75009       1.00000       1.00000       0.24949     782.11023    1502.66528       0.00000    5510.77246     183.07184 
   9712.50000       0.00000      53.02309     325.51193       0.21888    -999.25000    -999.25000      84.89417     125.63085      30.99456      27.91771       0.94547       1.00000       0.23096     838.05231    1613.82666       0.00000    5510.93115     183.09320 
   9713.00000       0.00000      54.64200     333.79434       0.20491    -999.25000    -999.25000      88.33192     122.15166      31.16348      26.94172       1.00000       1.00000       0.21292     922.65729    1726.42456       0.00000    5511.04199     183.11050 
   9713.50000       0.00000      54.91536     340.70297       0.18646    -999.25000    -999.25000      86.85443     119.64722      31.09957      26.53021       0.99272       1.00000       0.20177    1007.16650    1803.20471       0.00000    5511.19092     183.13083 
   9714.00000       0.00000      53.48083     353.22525       0.17772    -999.25000    -999.25000      85.17171     118.01896      31.27841      27.36206       0.95628       1.00000       0.18888    1046.33911    1828.65845       0.00000    5511.35107     183.16745 
   9714.50000       0.00000      52.14625     358.42905       0.17501    -999.25000    -999.25000      83.73047     116.87086      30.93653      27.51277       0.90908       1.00000       0.17786    1082.83655    1880.82776       0.00000    5511.54248     183.20256 
