~Version Information
VERS  .          2.0                              :CWLS Log Ascii Standard - Version 2.0
WRAP  .          NO                               :One line per depth step
~Well Information Block
#MNEM.UNIT       Data Type                        Information
#---------       ---------                        -------------------------------
STRT  .F         9700.00000                       :START DEPTH
STOP  .F         10600.00000                      :STOP DEPTH
STEP  .F          0.50000                         :INCREMENT
NULL  .          -999.25                          :NULL DATA VALUE
COMP  .          DENBURY ONSHORE, LLC             :COMPANY
WELL  .          CFU 31F #1                       :WELL
FLD   .          CRANFIELD FIELD UNIT             :FIELD
LOC   .                                           :LOCATION
PROV  .                                           :PROVINCE
STAT  .                                           :STATE
CNTY  .                                           :COUNTY
CTRY  .                                           :COUNTRY
DATE  .                                           :DATE
UWI   .          CFU 31F #1                       :UNIQUE WELL UWI
LIC   .                                           :LICENSE NUMBER
API   .          23-037-21488-0000                :API NUMBER
SRVC  .                                           :SERVICE COMPANY
~Parameter Information Block
#MNEM.UNIT       Value                            Description
#---------       ---------                        -------------
PDAT  .          GROUND LEVEL                     :Permanent Datum               
EPD   .ft        315.70                           :Elevation of Permanent Datum (PDAT) above Mean Sea Level
LMF   .          KELLY BUSHING                    :Logging Measured From (Name of Working Datum)
APD   .ft        18.00                            :Elevation of Working Datum (LMF) Above Permanent Datum
EDF   .ft        332.70                           :Elevation of Derrick Floor Above Mean Sea Level
EGL   .ft        315.70                           :Elevation of Ground Level Above Mean Sea Level
EKB   .ft        333.70                           :Elevation of Kelly Bushing Above Mean Sea Level
~Curve Information Block
#MNEM.UNIT       API Code            Curve    Description
#--------        --------------      -----    -------------------
DEPT  .F                             :0       Index
SXGA  .                              :1       CO2 Saturation
GR    .GAPI                          :2       Gamma Ray                     
INFD_TDTL.CPS                        :3       Gross Inelastic Count Rate Far Detector (TDT-like)
PHIC  .V/V                           :4       TDT Count Rate Porosity       
QGD   .BB/D                          :5       Downhole CO2 Injection rate (Low Rate)
QTDH  .BB/D                          :6       Downhole CO2 Injection rate (High Rate)
SBNA  .CU                            :7       RST Sigma Borehole Near Apparent
SIBH_TDTL.CU                         :8       Sigma Borehole Corrected (TDT-like)
SIGM  .CU                            :9       Formation Sigma (Neutron Capture Cross Section)
SIGM_TDTL.CU                         :10      Formation Sigma (Neutron Capture Cros Section) (TDT-like)
SW    .V/V                           :11      Water Saturation Computed by Delta Sigma Method             
SXWI  .V/V                           :12      Non-Clay Water Intergranular Water Saturation for the Flushed Zone
TPHI  .V/V                           :13      Thermal Decay Porosity        
TSCF_TDTL.CPS                        :14      Total Selected Count Rate Far Detector (TDT-like)
TSCN_TDTL.CPS                        :15      Total Selected Count Rate Near Detector (TDT-like)
VXGA  .V/V                           :16      Volume of Gas in Flushed Zone 
WPRE  .PSI                           :17      Well Pressure                 
WTEP  .DEGF                          :18      Well Temperature              
~Ascii Data Section
# ...
  10000.00000       0.00000      54.45024     282.00958       0.27310    -999.25000    -999.25000      94.21383     139.28920      29.14024      25.47546       0.91528       1.00000       0.24756    1006.61731    2084.33545       0.00000    5602.41895     187.76436 
  10000.50000       0.00000      53.17686     298.76282       0.30690    -999.25000    -999.25000      91.33886     140.62628      28.70752      25.14991       0.90070       1.00000       0.26989     913.24536    2046.63586       0.00000    5602.53125     187.76547 
  10001.00000       0.00000      53.70667     294.03137       0.29598    -999.25000    -999.25000      92.07458     138.34505      28.84930      25.65836       0.94562       1.00000       0.28317     906.70679    1982.15173       0.00000    5602.70557     187.77011 
  10001.50000       0.00000      53.89106     298.97357       0.29911    -999.25000    -999.25000      89.95076     132.02042      29.22283      26.69263       0.92415       1.00000       0.29610     883.07819    1954.66309       0.00000    5602.90771     187.76997 
  10002.00000       0.00000      53.44483     292.75510       0.29041    -999.25000    -999.25000      85.11720     125.93700      31.24064      26.84579       0.99261       1.00000       0.28026     918.06830    2012.13354       0.00000    5603.08936     187.77138 
  10002.50000       0.00000      53.26174     304.94247       0.27627    -999.25000    -999.25000      83.97304     120.87193      30.69195      26.05377       0.96958       1.00000       0.26463     988.63641    2125.32104       0.00000    5603.19189     187.77406 
  10003.00000       0.00000      51.32631     313.93506       0.24625    -999.25000    -999.25000      87.68819     116.62349      29.03727      25.15135       0.91709       1.00000       0.24148    1120.83557    2258.97852       0.00000    5603.44092     187.78163 
  10003.50000       0.00000      48.64893     322.60229       0.25388    -999.25000    -999.25000      84.44743     119.03532      26.32194      23.80177       0.72152       1.00000       0.23635    1201.53589    2494.59912       0.00000    5603.55029     187.79221 
  10004.00000       0.00000      44.98395     321.07355       0.25250    -999.25000    -999.25000      83.85927     120.75925      26.05360      22.77732       0.77998       1.00000       0.23658    1255.18689    2605.13330       0.00000    5603.70215     187.80234 
  10004.50000       0.00000      42.13290     327.30887       0.24938    -999.25000    -999.25000      89.92190     122.66009      27.07590      23.40254       0.85769       1.00000       0.25020    1224.18555    2502.22119       0.00000    5603.95117     187.81381 
  10005.00000       0.00000      44.10410     331.20898       0.26655    -999.25000    -999.25000      83.65485     122.79361      28.97079      25.12146       0.85574       1.00000       0.27052    1070.42957    2255.41602       0.00000    5604.07812     187.82256 
  10005.50000       0.00000      47.72522     342.98657       0.28126    -999.25000    -999.25000      82.34743     123.25746      31.31096      26.85566       0.83251       1.00000       0.28332     954.15796    2055.09668       0.00000    5604.16064     187.83224 
  10006.00000       0.00000      50.31925     340.17822       0.28616    -999.25000    -999.25000      79.49431     117.28318      33.57130      28.37362       0.90806       1.00000       0.29010     865.91760    1881.69324       0.00000    5604.36914     187.84264 
  10006.50000       0.00000      54.75084     340.80786       0.28450    -999.25000    -999.25000      78.48940     116.67514      33.68287      29.39186       0.87222       1.00000       0.28947     827.82117    1773.07874       0.00000    5604.48145     187.85307 
  10007.00000       0.00000      55.30087     324.87491       0.29833    -999.25000    -999.25000      78.65864     115.18797      33.14363      29.41670       0.87554       1.00000       0.29284     795.03876    1771.89673       0.00000    5604.57568     187.87285 
  10007.50000       0.00000      54.67356     314.41278       0.30262    -999.25000    -999.25000      82.65807     117.25110      32.62832      28.96197       0.88135       1.00000       0.30300     794.53131    1789.80237       0.00000    5604.87061     187.88815 
  10008.00000       0.00000      54.16635     298.96930       0.31252    -999.25000    -999.25000      82.09954     116.44418      32.94347      29.03837       0.90530       1.00000       0.32489     774.67151    1790.54517       0.00000    5604.82031     187.90895 
  10008.50000       0.00000      53.18259     296.40601       0.32353    -999.25000    -999.25000      81.21347     122.57165      32.93520      29.55614       0.88249       1.00000       0.34634     751.34882    1755.00037       0.00000    5605.13525     187.92018 
  10009.00000       0.00000      50.89802     298.43344       0.33467    -999.25000    -999.25000      78.89802     120.13829      33.28410      29.94419       0.89276       1.00000       0.36193     724.39728    1740.68652       0.00000    5605.10742     187.93182 
  10009.50000       0.00000      51.41411     291.53040       0.33722    -999.25000    -999.25000      82.87793     116.06898      33.48180      30.00621       0.91994       1.00000       0.36738     710.99738    1731.29285       0.00000    5605.28906     187.94389 
  10010.00000       0.00000      50.33796     280.13376       0.33461    -999.25000    -999.25000      81.98685     113.01659      33.56424      30.55681       0.95913       1.00000       0.37523     701.37878    1700.98401       0.00000    5605.59668     187.95387 
  10010.50000       0.00000      49.45636     260.83740       0.34519    -999.25000    -999.25000      77.17680     114.65638      33.39641      30.71045       0.92544       1.00000       0.38577     681.85663    1687.02966       0.00000    5605.65869     187.96564 
  10011.00000       0.00000      49.80950     241.83279       0.35039    -999.25000    -999.25000      78.43088     110.53762      33.65382      30.93755       0.92763       1.00000       0.39389     659.21448    1660.73425       0.00000    5605.90332     187.97560 
  10011.50000       0.00000      50.07212     225.50842       0.35308    -999.25000    -999.25000      82.96017     111.54791      34.09561      30.93315       1.00000       1.00000       0.39580     652.69092    1650.31519       0.00000    5605.86963     187.99315 
  10012.00000       0.00000      51.14902     229.48375       0.32647    -999.25000    -999.25000      77.64957     116.72993      33.62312      30.38231       1.00000       1.00000       0.36859     720.67249    1703.28601       0.00000    5606.08545     188.00493 
  10012.50000       0.00000      53.55277     257.05713       0.31190    -999.25000    -999.25000      80.45503     121.26636      32.10195      28.03528       1.00000       1.00000       0.32540     819.98114    1891.38306       0.00000    5606.24707     188.01111 
  10013.00000       0.00000      51.76693     279.48300       0.27655    -999.25000    -999.25000      84.73551     123.10077      29.76551      26.89352       1.00000       1.00000       0.27370     972.66046    2070.01904       0.00000    5606.34424     188.02135 
  10013.50000       0.00000      51.41379     297.43628       0.25567    -999.25000    -999.25000      86.88952     124.04042      27.79763      25.46878       1.00000       1.00000       0.24044    1109.52087    2260.73706       0.00000    5606.58643     188.02274 
  10014.00000       0.00000      50.64304     303.62411       0.24988    -999.25000    -999.25000      90.45576     122.83085      26.91257      24.18389       1.00000       1.00000       0.22629    1191.95081    2424.93408       0.00000    5606.63232     188.01965 
  10014.50000       0.00000      48.05356     303.48346       0.24559    -999.25000    -999.25000      87.93528     122.30173      26.83109      23.49940       1.00000       1.00000       0.22416    1249.78406    2530.86597       0.00000    5606.91309     188.01544 
