~Version Information
VERS  .          2.0                              :CWLS Log Ascii Standard - Version 2.0
WRAP  .          NO                               :One line per depth step
~Well Information Block
#MNEM.UNIT       Data Type                        Information
#---------       ---------                        -------------------------------
STRT  .F         9700.00000                       :START DEPTH
STOP  .F         10600.00000                      :STOP DEPTH
STEP  .F          0.50000                         :INCREMENT
NULL  .          -999.25                          :NULL DATA VALUE
COMP  .          DENBURY ONSHORE, LLC             :COMPANY
WELL  .          CFU 31F #1                       :WELL
FLD   .          CRANFIELD FIELD UNIT             :FIELD
LOC   .                                           :LOCATION
PROV  .                                           :PROVINCE
STAT  .                                           :STATE
CNTY  .                                           :COUNTY
CTRY  .                                           :COUNTRY
DATE  .                                           :DATE
UWI   .          CFU 31F #1                       :UNIQUE WELL UWI
LIC   .                                           :LICENSE NUMBER
API   .          23-037-21488-0000                :API NUMBER
SRVC  .                                           :SERVICE COMPANY
~Parameter Information Block
#MNEM.UNIT       Value                            Description
#---------       ---------                        -------------
PDAT  .          GROUND LEVEL                     :Permanent Datum               
EPD   .ft        315.70                           :Elevation of Permanent Datum (PDAT) above Mean Sea Level
LMF   .          KELLY BUSHING                    :Logging Measured From (Name of Working Datum)
APD   .ft        18.00                            :Elevation of Working Datum (LMF) Above Permanent Datum
EDF   .ft        332.70                           :Elevation of Derrick Floor Above Mean Sea Level
EGL   .ft        315.70                           :Elevation of Ground Level Above Mean Sea Level
EKB   .ft        333.70                           :Elevation of Kelly Bushing Above Mean Sea Level
~Curve Information Block
#MNEM.UNIT       API Code            Curve    Description
#--------        --------------      -----    -------------------
DEPT  .F                             :0       Index
SXGA  .                              :1       CO2 Saturation
GR    .GAPI                          :2       Gamma Ray                     
INFD_TDTL.CPS                        :3       Gross Inelastic Count Rate Far Detector (TDT-like)
PHIC  .V/V                           :4       TDT Count Rate Porosity       
QGD   .BB/D                          :5       Downhole CO2 Injection rate (Low Rate)
QTDH  .BB/D                          :6       Downhole CO2 Injection rate (High Rate)
SBNA  .CU                            :7       RST Sigma Borehole Near Apparent
SIBH_TDTL.CU                         :8       Sigma Borehole Corrected (TDT-like)
SIGM  .CU                            :9       Formation Sigma (Neutron Capture Cross Section)
SIGM_TDTL.CU                         :10      Formation Sigma (Neutron Capture Cros Section) (TDT-like)
SW    .V/V                           :11      Water Saturation Computed by Delta Sigma Method             
SXWI  .V/V                           :12      Non-Clay Water Intergranular Water Saturation for the Flushed Zone
TPHI  .V/V                           :13      Thermal Decay Porosity        
TSCF_TDTL.CPS                        :14      Total Selected Count Rate Far Detector (TDT-like)
TSCN_TDTL.CPS                        :15      Total Selected Count Rate Near Detector (TDT-like)
VXGA  .V/V                           :16      Volume of Gas in Flushed Zone 
WPRE  .PSI                           :17      Well Pressure                 
WTEP  .DEGF                          :18      Well Temperature              
~Ascii Data Section
# ...
  10585.00000       0.00000      69.51521     380.56503       0.25353       0.00000       0.00000      97.59639     137.36929      26.12332      23.55996       0.74465       1.00000       0.24149    1412.91016    2869.80151       0.00000    5752.06982     264.09402 
  10585.50000       0.00000      72.19328     376.09311       0.26447       0.00000       0.00000      93.09780     137.23927      27.73763      25.69087       0.59547       1.00000       0.26370    1288.30945    2642.30493       0.00000    5752.32178     264.11179 
  10586.00000       0.00000      72.62471     381.70572       0.27125       0.00000       0.00000      95.61439     137.04932      29.00316      26.56203       0.74085       1.00000       0.27119    1227.52795    2541.68945       0.00000    5752.68164     264.13568 
  10586.50000       0.00000      71.15750     384.64230       0.27084       0.00000       0.00000      94.48061     134.99480      28.69051      26.11180       1.00000       1.00000       0.25636    1256.91650    2623.74390       0.00000    5752.91455     264.15738 
  10587.00000       0.00000      69.75528     381.32770       0.24188       0.00000       0.00000      93.21126     134.64746      27.30254      24.37421       1.00000       1.00000       0.22422    1451.78345    2848.36133       0.00000    5753.26562     264.17459 
  10587.50000       0.00525      66.31121     392.41223       0.22207       0.00000       0.00000      99.65743     132.01091      24.82409      22.28937       1.00000       0.99524       0.19920    1666.91467    3171.14819       0.00008    5753.38818     264.19241 
  10588.00000       0.05955      64.72392     398.18768       0.20388       0.00000       0.00000      97.06596     131.60876      23.27356      21.16224       1.00000       0.96399       0.17590    1890.43054    3451.58765       0.00109    5753.64893     264.20984 
  10588.50000       0.00987      61.53138     409.94598       0.19691       0.00000       0.00000     100.32769     132.92316      22.15459      20.07849       0.96472       0.99349       0.17047    2034.22009    3670.88940       0.00022    5753.94678     264.22342 
  10589.00000       0.00000      59.82447     403.08716       0.19659       0.00000       0.00000      96.43989     132.59914      21.91526      20.00119       1.00000       1.00000       0.17462    2011.83618    3628.93481       0.00000    5754.22852     264.24142 
  10589.50000       0.00000      63.70728     396.63489       0.20269       0.00000       0.00000     100.18085     132.55592      22.35313      20.53472       0.84450       1.00000       0.19364    1849.49084    3373.34619       0.00000    5754.47803     264.25543 
  10590.00000       0.00000      66.63364     387.68185       0.21856       0.00000       0.00000      96.25085     137.33015      24.21566      21.69423       0.77801       1.00000       0.21764    1633.01611    3058.20752       0.00000    5754.76074     264.27557 
  10590.50000       0.00000      68.70448     379.66309       0.25099       0.00000       0.00000      99.12130     139.30748      26.55396      23.11425       0.75340       1.00000       0.24559    1346.44238    2707.31006       0.00000    5755.03320     264.29541 
  10591.00000       0.00000      72.50099     371.04129       0.26613       0.00000       0.00000      98.92384     139.22681      28.98253      25.42259       0.97831       1.00000       0.26801    1148.13379    2349.09155       0.00000    5755.21924     264.31332 
  10591.50000       0.00000      73.57222     359.83398       0.29903       0.00000       0.00000      97.50304     142.56407      29.72724      27.13483       0.89919       1.00000       0.29257     963.30682    2094.17041       0.00000    5755.46289     264.33334 
  10592.00000       0.00000      71.59123     346.38190       0.30767       0.00000       0.00000      95.92977     143.53528      30.45247      27.49326       0.98576       1.00000       0.29904     902.89496    1991.39062       0.00000    5755.82031     264.35266 
  10592.50000       0.00000      74.09349     334.44965       0.30502       0.00000       0.00000      97.84254     141.15450      30.33393      27.67244       0.85232       1.00000       0.29565     867.71808    1902.78857       0.00000    5756.00635     264.36929 
  10593.00000       0.00000      75.75242     337.58807       0.29404       0.00000       0.00000      94.86945     139.15060      30.65706      27.66218       1.00000       1.00000       0.27874     885.17834    1894.99060       0.00000    5756.32129     264.38400 
  10593.50000       0.00000      76.78783     340.54990       0.28806       0.00000       0.00000      97.59999     141.23048      30.09071      26.86232       1.00000       1.00000       0.26412     931.35645    1972.10291       0.00000    5756.58643     264.39688 
  10594.00000       0.00000      81.21684     348.14279       0.25948       0.00000       0.00000      99.28790     137.64818      29.00592      26.06969       1.00000       1.00000       0.25085    1026.06421    2042.20142       0.00000    5756.85986     264.41068 
  10594.50000       0.00000      79.56030     354.16452       0.18665       0.00000       0.00000     101.93536     136.73727      27.65121      24.39981       1.00000       1.00000       0.21937    1304.92944    2316.45361       0.00000    5757.07959     264.41956 
  10595.00000       0.00000      74.29695     370.03992       0.19478       0.00000       0.00000      97.99554     132.71115      25.19243      20.35894       1.00000       1.00000       0.18099    1675.96094    2969.92993       0.00000    5757.38232     264.42087 
  10595.50000       0.56854      66.59810     389.28455       0.15548       0.00000       0.00000      98.35675     132.25677      21.97925      17.14026       1.00000       0.59738       0.14145    2347.04517    3809.30884       0.02709    5757.61523     264.42975 
  10596.00000       1.18820      57.53822     403.29657       0.13845       0.00000       0.00000      98.88813     132.42395      17.75080      14.95867       1.00000       0.35735       0.12182    2900.71289    4561.67773       0.04243    5757.92334     264.44324 
  10596.50000       1.46499      51.84615     403.79773       0.13458       0.00000       0.00000     101.66360     134.88295      15.01147      14.49016       0.98121       0.39521       0.11274    3264.76318    5096.89990       0.03014    5758.17871     264.44739 
  10597.00000       0.94919      51.03969     405.89465       0.12547       0.00000       0.00000     108.40720     134.68706      14.40732      13.87957       1.00000       0.53248       0.10889    3649.55273    5573.77441       0.01424    5758.46533     264.45242 
  10597.50000       0.56077      45.94890     405.25992       0.11290       0.00000       0.00000     101.12708     133.42989      14.87844      13.11123       1.00000       0.69144       0.10019    4065.96484    6007.51562       0.00919    5758.70361     264.46506 
  10598.00000       0.76262      46.20992     424.58423       0.10746       0.00000       0.00000     100.20863     130.25606      14.27935      13.16693       1.00000       0.57427       0.09213    4324.65283    6284.30957       0.01689    5758.95020     264.46967 
  10598.50000       1.14272      45.60593     429.53101       0.09810       0.00000       0.00000      97.85270     127.83041      12.92586      12.59234       1.00000       0.38717       0.08434    4605.18018    6517.45654       0.03984    5759.18896     264.48035 
  10599.00000       1.12328      41.37528     433.02948       0.09652       0.00000       0.00000      98.33429     128.17404      11.96728      12.50128       1.00000       0.28974       0.08557    4888.31885    6891.74707       0.06076    5759.50830     264.48532 
  10599.50000       0.96018      38.31251     424.09174       0.09952       0.00000       0.00000     103.19752     130.97931      12.47842      12.57669       1.00000       0.29075       0.08895    4880.88428    6943.44678       0.08003    5759.67334     264.49136 
