~Version Information
VERS  .          2.0                              :CWLS Log Ascii Standard - Version 2.0
WRAP  .          NO                               :One line per depth step
~Well Information Block
#MNEM.UNIT       Data Type                        Information
#---------       ---------                        -------------------------------
STRT  .F         9700.00000                       :START DEPTH
STOP  .F         10647.00000                      :STOP DEPTH
STEP  .F          0.50000                         :INCREMENT
NULL  .          -999.25                          :NULL DATA VALUE
COMP  .          DENBURY ONSHORE, LLC             :COMPANY
WELL  .          CFU 31F #1                       :WELL
FLD   .          CRANFIELD FIELD UNIT             :FIELD
LOC   .                                           :LOCATION
PROV  .                                           :PROVINCE
STAT  .                                           :STATE
CNTY  .                                           :COUNTY
CTRY  .                                           :COUNTRY
DATE  .                                           :DATE
UWI   .          CFU 31F #1                       :UNIQUE WELL UWI
LIC   .                                           :LICENSE NUMBER
API   .          23-037-21488-0000                :API NUMBER
SRVC  .                                           :SERVICE COMPANY
~Parameter Information Block
#MNEM.UNIT       Value                            Description
#---------       ---------                        -------------
PDAT  .          GROUND LEVEL                     :Permanent Datum               
EPD   .ft        315.70                           :Elevation of Permanent Datum (PDAT) above Mean Sea Level
LMF   .          KELLY BUSHING                    :Logging Measured From (Name of Working Datum)
APD   .ft        18.00                            :Elevation of Working Datum (LMF) Above Permanent Datum
EDF   .ft        332.70                           :Elevation of Derrick Floor Above Mean Sea Level
EGL   .ft        315.70                           :Elevation of Ground Level Above Mean Sea Level
EKB   .ft        333.70                           :Elevation of Kelly Bushing Above Mean Sea Level
~Curve Information Block
#MNEM.UNIT       API Code            Curve    Description
#--------        --------------      -----    -------------------
DEPT  .F                             :0       Index
AT10  .OHMM                          :1       Array Induction Two Foot Resistivity A10
AT20  .OHMM                          :2       Array Induction Two Foot Resistivity A20
AT30  .OHMM                          :3       Array Induction Two Foot Resistivity A30
AT60  .OHMM                          :4       Array Induction Two Foot Resistivity A60
AT90  .OHMM                          :5       Array Induction Two Foot Resistivity A90
BS    .IN                            :6       Bit Size                      
DT    .US/F                          :7       Delta-T (also called Slowness or Interval Transit Time)
GR    .GAPI                          :8       Gamma Ray                     
HCAL  .IN                            :9       HRCC Caliper Calibrated       
HTNP  .V/V                           :10      High Resolution Thermal Neutron Porosity (Ratio Method) in Sand Lithology
KINT  .MD                            :11      Intrinsic Permeability        
PHIT  .V/V                           :12      Total Porosity_ includes all forms of porosity, including that occupied by bound fluids, and is independent of rock and fluid materials and of environmental effects
PIGN  .V/V                           :13      Effective Porosity, VISO, VPAR, and Bound Water Removed
SUWI  .V/V                           :14      Non-Clay Water Intergranular Water Saturation for Undisturbed Zone
VCHL  .V/V                           :15      Volume of Chlorite Relative to Total Volume
VCLC  .V/V                           :16      Volume of Calcite Relative to Total Volume
VILL  .V/V                           :17      Volume of Illite (dry) Relative to Total Volume
VKAO  .V/V                           :18      Volume of Kaolinite (dry) Relative to Total Volume
VQUA  .V/V                           :19      Volume of Quartz Relative to Total Volume
VUIW  .V/V                           :20      Volume of Irreducible Water In Undisturbed Zone
VUWA  .V/V                           :21      Volume of Water in Undisturbed Zone
VXBW  .V/V                           :22      Volume of Bound Water in Flushed Zone
~Ascii Data Section
# ...
  10587.50000       8.13125       8.84231       9.32957       9.43832       9.31581       8.75000      67.94911     130.18434       8.57857       0.22484       0.01000       0.05091       0.00383       1.00000       0.07293       0.00000       0.34245       0.03279       0.50092       0.00383       0.00000       0.04708 
  10588.00000       8.16340       8.95785       9.23960       9.14613       9.35563       8.75000      70.87581     115.06741       8.53282       0.18143       0.01000       0.06071       0.01838       1.00000       0.07677       0.00000       0.31308       0.00000       0.54945       0.01838       0.00000       0.04233 
  10588.50000       8.27454       8.82210       8.83333       9.10044       9.15311       8.75000      70.87581     104.43201       8.64720       0.15699       0.01000       0.06034       0.02227       1.00000       0.08386       0.00000       0.26603       0.00000       0.58977       0.01946       0.00281       0.03806 
  10589.00000       6.93026       8.52804       8.63875       8.92523       8.79920       8.75000      70.87581      97.41726       8.57857       0.14228       0.01000       0.05807       0.02298       1.00000       0.08935       0.00000       0.23271       0.00000       0.61987       0.01723       0.00575       0.03509 
  10589.50000       5.45155       5.88955       6.02014       6.35643       6.44102       8.75000      70.87581      93.15516       8.62432       0.13914       0.01000       0.06291       0.02907       1.00000       0.09444       0.00000       0.21576       0.00000       0.62688       0.01999       0.00908       0.03384 
  10590.00000       4.45631       4.99224       5.17060       5.20369       5.31084       8.75000      70.87581      91.65981       8.60145       0.14218       0.01000       0.06451       0.03195       1.00000       0.09558       0.00000       0.19462       0.01408       0.63121       0.01955       0.01240       0.03256 
  10590.50000       4.37931       4.65574       4.76956       4.76989       4.69097       8.75000      70.87581      89.96506       8.60145       0.16609       0.01000       0.06905       0.03629       1.00000       0.09695       0.00000       0.19249       0.01853       0.62298       0.02192       0.01438       0.03276 
  10591.00000       4.07955       4.24141       4.29842       4.22026       4.28345       8.75000      70.87581      92.37406       8.69295       0.20300       0.01000       0.07594       0.04134       1.00000       0.09505       0.00000       0.20939       0.02245       0.59717       0.02753       0.01382       0.03460 
  10591.50000       3.77429       3.88130       3.88034       3.95506       4.13843       8.75000      70.87581      87.11781       8.67007       0.22530       0.01000       0.07866       0.04523       1.00000       0.09912       0.00000       0.18273       0.04252       0.59698       0.02565       0.01958       0.03343 
  10592.00000       3.85751       3.93596       3.94347       4.00292       4.13503       8.75000      70.87581      91.37991       8.87595       0.23237       0.01000       0.07576       0.04115       1.00000       0.09566       0.00000       0.18501       0.06393       0.57964       0.02368       0.01748       0.03460 
  10592.50000       3.89574       3.98613       3.97222       3.88814       3.97670       8.75000      70.87581     108.09560       8.67007       0.23987       0.01000       0.07458       0.03497       1.00000       0.08481       0.00000       0.24507       0.05994       0.53560       0.02787       0.00711       0.03960 
  10593.00000       3.76211       3.96525       3.99490       4.00050       4.05538       8.75000      70.87581     122.52686       8.64720       0.24084       0.01000       0.06858       0.02399       1.00000       0.07580       0.00000       0.29717       0.06629       0.49215       0.02374       0.00025       0.04459 
  10593.50000       4.13666       4.53544       4.38871       4.49701       4.43802       8.75000      70.87581     106.77563       8.64720       0.23170       0.01000       0.07021       0.02935       1.00000       0.08939       0.00000       0.25465       0.05524       0.53050       0.02445       0.00491       0.04086 
  10594.00000       4.99922       5.80928       5.85081       5.79048       5.66190       8.75000      70.87581      74.13421       8.63576       0.22804       0.01000       0.07312       0.03993       1.00000       0.11325       0.01437       0.16146       0.05008       0.58772       0.02026       0.01968       0.03319 
  10594.50000       5.05844       5.91106       5.50194       5.54285       5.41101       8.75000      70.87581      45.22608       8.67007       0.21811       0.03536       0.07690       0.05101       1.00000       0.13687       0.01397       0.07434       0.04071       0.65721       0.01025       0.04076       0.02589 
  10595.00000       5.32496       5.58838       5.50659       5.60614       5.30878       8.75000      70.87581      42.44645       8.72726       0.21580       0.03298       0.07676       0.05073       1.00000       0.13944       0.02362       0.07721       0.03335       0.64962       0.01161       0.03912       0.02603 
  10595.50000       7.64387       7.76381       8.10920       8.04889       7.72838       8.75000      70.87581      53.49203       8.64720       0.20983       0.01000       0.07772       0.04765       1.00000       0.12054       0.09881       0.15049       0.00531       0.54713       0.02629       0.02136       0.03007 
  10596.00000      11.08529      13.25117      15.04712      14.31512      12.87163       8.75000      70.87581      61.71177       8.62432       0.21260       0.01000       0.06866       0.03571       1.00000       0.09676       0.19978       0.20514       0.00000       0.42966       0.02929       0.00642       0.03296 
  10596.50000      11.11736      13.79127      14.30249      14.23908      13.44652       8.75000      70.87581      69.24728       8.60145       0.23045       0.01000       0.05871       0.02057       1.00000       0.09383       0.20323       0.25631       0.00000       0.38792       0.02021       0.00036       0.03814 
  10597.00000       9.19053      11.06280      11.76912      11.41069      11.47601       8.75000      70.87581      73.73119       8.60145       0.25834       0.01000       0.05614       0.01217       1.00000       0.11619       0.07497       0.28717       0.00000       0.46553       0.01189       0.00027       0.04397 
  10597.50000       9.77691      13.44045      13.93865      13.62553      15.23228       8.75000      70.87581      81.74051       8.64720       0.27048       0.01000       0.06329       0.01639       1.00000       0.12060       0.00188       0.30979       0.00000       0.50444       0.01639       0.00000       0.04690 
  10598.00000      16.01601      32.09476      29.23874      28.78828      27.74810       8.75000      70.87581      87.58064       8.67007       0.21623       0.01000       0.06422       0.02215       1.00000       0.09705       0.07226       0.28949       0.00007       0.47691       0.02153       0.00062       0.04207 
  10598.50000      19.63853      43.19549      61.99607      63.45209      52.25397       8.75000      70.87581      89.93803       8.60145       0.13603       0.01000       0.06683       0.03486       1.00000       0.06331       0.21125       0.23084       0.00000       0.42777       0.03019       0.00467       0.03197 
  10599.00000      28.15768      52.58389      73.42444      95.78768      63.66349       8.75000      70.87581      89.58273       8.55570       0.08908       0.01803       0.07687       0.05409       1.00000       0.05351       0.23039       0.15575       0.00000       0.48348       0.03601       0.01808       0.02278 
  10599.50000      20.72922      49.44746      60.11205      92.93666      53.64341       8.75000      70.87581      92.25250       7.93808       0.15000       0.09597       0.10493       0.08335       1.00000       0.05387       0.21711       0.14419       0.00000       0.47990       0.04769       0.03566       0.02158 
