~Version Information
VERS  .          2.0                              :CWLS Log Ascii Standard - Version 2.0
WRAP  .          NO                               :One line per depth step
~Well Information Block
#MNEM.UNIT       Data Type                        Information
#---------       ---------                        -------------------------------
STRT  .F         9700.00000                       :START DEPTH
STOP  .F         10600.00000                      :STOP DEPTH
STEP  .F          0.50000                         :INCREMENT
NULL  .          -999.25                          :NULL DATA VALUE
COMP  .          DENBURY ONSHORE, LLC             :COMPANY
WELL  .          CFU 31F #1                       :WELL
FLD   .          CRANFIELD FIELD UNIT             :FIELD
LOC   .                                           :LOCATION
PROV  .                                           :PROVINCE
STAT  .                                           :STATE
CNTY  .                                           :COUNTY
CTRY  .                                           :COUNTRY
DATE  .                                           :DATE
UWI   .          CFU 31F #1                       :UNIQUE WELL UWI
LIC   .                                           :LICENSE NUMBER
API   .          23-037-21488-0000                :API NUMBER
SRVC  .                                           :SERVICE COMPANY
~Parameter Information Block
#MNEM.UNIT       Value                            Description
#---------       ---------                        -------------
PDAT  .          GROUND LEVEL                     :Permanent Datum               
EPD   .ft        315.70                           :Elevation of Permanent Datum (PDAT) above Mean Sea Level
LMF   .          KELLY BUSHING                    :Logging Measured From (Name of Working Datum)
APD   .ft        18.00                            :Elevation of Working Datum (LMF) Above Permanent Datum
EDF   .ft        332.70                           :Elevation of Derrick Floor Above Mean Sea Level
EGL   .ft        315.70                           :Elevation of Ground Level Above Mean Sea Level
EKB   .ft        333.70                           :Elevation of Kelly Bushing Above Mean Sea Level
~Curve Information Block
#MNEM.UNIT       API Code            Curve    Description
#--------        --------------      -----    -------------------
DEPT  .F                             :0       Index
SXGA  .                              :1       CO2 Saturation
GR    .GAPI                          :2       Gamma Ray                     
INFD_TDTL.CPS                        :3       Gross Inelastic Count Rate Far Detector (TDT-like)
PHIC  .V/V                           :4       TDT Count Rate Porosity       
QGD   .BB/D                          :5       Downhole CO2 Injection rate (Low Rate)
QTDH  .BB/D                          :6       Downhole CO2 Injection rate (High Rate)
SBNA  .CU                            :7       RST Sigma Borehole Near Apparent
SIBH_TDTL.CU                         :8       Sigma Borehole Corrected (TDT-like)
SIGM  .CU                            :9       Formation Sigma (Neutron Capture Cross Section)
SIGM_TDTL.CU                         :10      Formation Sigma (Neutron Capture Cros Section) (TDT-like)
SW    .V/V                           :11      Water Saturation Computed by Delta Sigma Method             
SXWI  .V/V                           :12      Non-Clay Water Intergranular Water Saturation for the Flushed Zone
TPHI  .V/V                           :13      Thermal Decay Porosity        
TSCF_TDTL.CPS                        :14      Total Selected Count Rate Far Detector (TDT-like)
TSCN_TDTL.CPS                        :15      Total Selected Count Rate Near Detector (TDT-like)
VXGA  .V/V                           :16      Volume of Gas in Flushed Zone 
WPRE  .PSI                           :17      Well Pressure                 
WTEP  .DEGF                          :18      Well Temperature              
~Ascii Data Section
# ...
  10345.00000       0.00000      40.93047     148.63408       0.46000    -999.25000    -999.25000      69.04276      92.87693      32.78648      33.73540       1.00000       1.00000       0.51006     499.90399    1610.68140       0.00000    5693.02246     193.28104 
  10345.50000       0.00000      40.81757     149.57056       0.47813    -999.25000    -999.25000      70.70266      93.33879      32.92871      33.76255       0.98937       1.00000       0.51875     469.90802    1558.67639       0.00000    5693.09521     193.28743 
  10346.00000       0.00000      42.54749     152.13132       0.48741    -999.25000    -999.25000      73.30132      95.24429      32.95538      33.60680       0.96289       1.00000       0.52229     465.97739    1565.03796       0.00000    5693.23975     193.29385 
  10346.50000       0.00000      44.81642     158.52264       0.48725    -999.25000    -999.25000      74.80929     101.83022      32.83526      33.42711       0.97233       1.00000       0.51709     489.81314    1626.83752       0.00000    5693.30469     193.30243 
  10347.00000       0.00000      47.59974     170.46658       0.47664    -999.25000    -999.25000      77.16405     105.18718      32.42407      32.78355       0.95592       1.00000       0.50594     523.77185    1702.50513       0.00000    5693.41895     193.31364 
  10347.50000       0.00000      49.25543     183.28642       0.46774    -999.25000    -999.25000      81.78713     106.64050      31.80845      32.06311       0.89434       1.00000       0.49513     552.40637    1768.26782       0.00000    5693.48535     193.32356 
  10348.00000       0.00000      48.85565     192.91592       0.46445    -999.25000    -999.25000      77.31599     111.16709      31.65749      31.90517       0.82576       1.00000       0.48971     576.17480    1821.71130       0.00000    5693.54785     193.33029 
  10348.50000       0.00000      49.96910     212.48749       0.45967    -999.25000    -999.25000      77.92351     114.40878      31.84649      32.18647       0.67975       1.00000       0.48882     595.47638    1857.59058       0.00000    5693.63086     193.33490 
  10349.00000       0.00000      52.72783     245.06213       0.45167    -999.25000    -999.25000      81.98388     111.90288      32.08741      32.35964       0.73017       1.00000       0.48824     605.70105    1873.00037       0.00000    5693.70410     193.33894 
  10349.50000       0.00000      56.50970     277.50128       0.44557    -999.25000    -999.25000      79.83194     111.18098      31.83818      32.16152       0.85718       1.00000       0.48365     622.77112    1910.31018       0.00000    5693.79785     193.34258 
  10350.00000       0.00000      60.00321     295.51505       0.44090    -999.25000    -999.25000      75.36890     113.04738      31.46660      31.46397       0.93200       1.00000       0.47539     652.33142    1983.23853       0.00000    5693.92041     193.34628 
  10350.50000       0.00000      64.15282     302.69150       0.43086    -999.25000    -999.25000      75.10033     111.96072      31.14624      30.63862       0.93506       1.00000       0.46683     685.27032    2055.73901       0.00000    5694.05615     193.35022 
  10351.00000       0.00000      64.64745     300.54742       0.41654    -999.25000    -999.25000      80.21714     109.98487      31.23681      29.84170       0.93476       1.00000       0.45770     718.60590    2111.26416       0.00000    5694.18799     193.35512 
  10351.50000       0.00000      61.93412     297.56018       0.41381    -999.25000    -999.25000      80.69763     111.43799      31.37740      29.45025       0.95170       1.00000       0.44998     735.16217    2145.97656       0.00000    5694.36279     193.35927 
  10352.00000       0.00000      58.20458     294.43497       0.40986    -999.25000    -999.25000      77.33856     115.63860      31.32501      29.77690       0.95264       1.00000       0.44513     750.22400    2157.24463       0.00000    5694.47119     193.36153 
  10352.50000       0.00000      56.15216     289.77005       0.40156    -999.25000    -999.25000      77.37925     118.25589      31.07074      29.94686       0.84830       1.00000       0.44445     764.09961    2152.05322       0.00000    5694.58594     193.36198 
  10353.00000       0.00000      54.42278     279.31985       0.40065    -999.25000    -999.25000      81.76755     119.09105      30.57002      29.86265       0.72374       1.00000       0.44760     766.22693    2151.10254       0.00000    5694.73682     193.36195 
  10353.50000       0.00000      54.41206     276.54391       0.40714    -999.25000    -999.25000      85.78430     121.47421      30.23107      30.05098       0.68526       1.00000       0.45243     763.33691    2160.23511       0.00000    5694.84033     193.36826 
  10354.00000       0.00000      55.71376     282.20969       0.40760    -999.25000    -999.25000      83.11454     121.78627      30.18850      29.85147       0.71374       1.00000       0.45682     778.93549    2209.00830       0.00000    5694.88379     193.37956 
  10354.50000       0.00000      55.29949     292.36530       0.40342    -999.25000    -999.25000      83.28376     118.64487      30.36040      29.33998       0.72200       1.00000       0.45397     806.66736    2289.65869       0.00000    5694.99561     193.39148 
  10355.00000       0.00000      55.88425     299.22580       0.39323    -999.25000    -999.25000      79.57150     116.16701      30.12920      28.67242       0.67604       1.00000       0.43925     859.21967    2411.01831       0.00000    5695.09717     193.39827 
  10355.50000       0.00000      55.04355     303.49652       0.36807    -999.25000    -999.25000      77.84925     115.93945      29.07187      27.68498       0.57458       1.00000       0.40956     952.52112    2553.10498       0.00000    5695.14258     193.40521 
  10356.00000       0.00000      52.78876     309.23322       0.33910    -999.25000    -999.25000      83.01217     115.03825      28.14067      26.61661       0.48615       1.00000       0.36804    1049.62805    2665.45142       0.00000    5695.20947     193.41396 
  10356.50000       0.00000      49.19013     310.80017       0.31602    -999.25000    -999.25000      84.25353     115.60511      27.25274      25.80344       0.13842       1.00000       0.32992    1128.50940    2731.56226       0.00000    5695.29980     193.42560 
  10357.00000       0.00000      47.15999     311.43903       0.30019    -999.25000    -999.25000      80.89362     116.97465      26.77222      25.13727       0.00000       1.00000       0.30892    1187.41565    2773.78735       0.00000    5695.33740     193.43678 
  10357.50000       0.00000      44.39849     312.64777       0.29682    -999.25000    -999.25000      81.46745     118.17607      26.39705      24.89890       0.00000       1.00000       0.31025    1197.60144    2772.31421       0.00000    5695.32617     193.44507 
  10358.00000       0.00000      43.13369     309.67355       0.30606    -999.25000    -999.25000      81.09101     117.92917      26.49339      25.35518       0.36337       1.00000       0.32428    1143.30396    2696.09937       0.00000    5695.38086     193.45250 
  10358.50000       0.00000      43.31411     308.70230       0.32490    -999.25000    -999.25000      81.47417     118.18623      27.39469      26.22511       0.20123       1.00000       0.34430    1059.92761    2594.17969       0.00000    5695.52295     193.46283 
  10359.00000       0.00000      43.96602     308.06821       0.34136    -999.25000    -999.25000      79.37823     117.27444      28.90324      27.58435       0.54616       1.00000       0.36437     983.04596    2485.08643       0.00000    5695.64355     193.47200 
  10359.50000       0.00000      45.05193     305.79599       0.35716    -999.25000    -999.25000      79.05032     114.76416      30.58934      29.08380       0.48303       1.00000       0.38002     899.66766    2345.67993       0.00000    5695.70752     193.48026 
