~Version Information
VERS  .          2.0                              :CWLS Log Ascii Standard - Version 2.0
WRAP  .          NO                               :One line per depth step
~Well Information Block
#MNEM.UNIT       Data Type                        Information
#---------       ---------                        -------------------------------
STRT  .F         9700.00000                       :START DEPTH
STOP  .F         10647.00000                      :STOP DEPTH
STEP  .F          0.50000                         :INCREMENT
NULL  .          -999.25                          :NULL DATA VALUE
COMP  .          DENBURY ONSHORE, LLC             :COMPANY
WELL  .          CFU 31F #1                       :WELL
FLD   .          CRANFIELD FIELD UNIT             :FIELD
LOC   .                                           :LOCATION
PROV  .                                           :PROVINCE
STAT  .                                           :STATE
CNTY  .                                           :COUNTY
CTRY  .                                           :COUNTRY
DATE  .                                           :DATE
UWI   .          CFU 31F #1                       :UNIQUE WELL UWI
LIC   .                                           :LICENSE NUMBER
API   .          23-037-21488-0000                :API NUMBER
SRVC  .                                           :SERVICE COMPANY
~Parameter Information Block
#MNEM.UNIT       Value                            Description
#---------       ---------                        -------------
PDAT  .          GROUND LEVEL                     :Permanent Datum               
EPD   .ft        315.70                           :Elevation of Permanent Datum (PDAT) above Mean Sea Level
LMF   .          KELLY BUSHING                    :Logging Measured From (Name of Working Datum)
APD   .ft        18.00                            :Elevation of Working Datum (LMF) Above Permanent Datum
EDF   .ft        332.70                           :Elevation of Derrick Floor Above Mean Sea Level
EGL   .ft        315.70                           :Elevation of Ground Level Above Mean Sea Level
EKB   .ft        333.70                           :Elevation of Kelly Bushing Above Mean Sea Level
~Curve Information Block
#MNEM.UNIT       API Code            Curve    Description
#--------        --------------      -----    -------------------
DEPT  .F                             :0       Index
AT10  .OHMM                          :1       Array Induction Two Foot Resistivity A10
AT20  .OHMM                          :2       Array Induction Two Foot Resistivity A20
AT30  .OHMM                          :3       Array Induction Two Foot Resistivity A30
AT60  .OHMM                          :4       Array Induction Two Foot Resistivity A60
AT90  .OHMM                          :5       Array Induction Two Foot Resistivity A90
BS    .IN                            :6       Bit Size                      
DT    .US/F                          :7       Delta-T (also called Slowness or Interval Transit Time)
GR    .GAPI                          :8       Gamma Ray                     
HCAL  .IN                            :9       HRCC Caliper Calibrated       
HTNP  .V/V                           :10      High Resolution Thermal Neutron Porosity (Ratio Method) in Sand Lithology
KINT  .MD                            :11      Intrinsic Permeability        
PHIT  .V/V                           :12      Total Porosity_ includes all forms of porosity, including that occupied by bound fluids, and is independent of rock and fluid materials and of environmental effects
PIGN  .V/V                           :13      Effective Porosity, VISO, VPAR, and Bound Water Removed
SUWI  .V/V                           :14      Non-Clay Water Intergranular Water Saturation for Undisturbed Zone
VCHL  .V/V                           :15      Volume of Chlorite Relative to Total Volume
VCLC  .V/V                           :16      Volume of Calcite Relative to Total Volume
VILL  .V/V                           :17      Volume of Illite (dry) Relative to Total Volume
VKAO  .V/V                           :18      Volume of Kaolinite (dry) Relative to Total Volume
VQUA  .V/V                           :19      Volume of Quartz Relative to Total Volume
VUIW  .V/V                           :20      Volume of Irreducible Water In Undisturbed Zone
VUWA  .V/V                           :21      Volume of Water in Undisturbed Zone
VXBW  .V/V                           :22      Volume of Bound Water in Flushed Zone
~Ascii Data Section
# ...
   9937.50000       3.17756       2.87097       3.10181       2.85654       2.95316       8.75000      77.78396     120.51926       9.97393       0.26541       0.01000       0.11614       0.07364       1.00000       0.05220       0.00000       0.29971       0.07098       0.46097       0.07356       0.00008       0.04250 
   9938.00000       4.16163       4.01351       4.33396       3.82259       4.44623       8.75000      77.44115     106.47033       9.56213       0.23508       0.01351       0.11199       0.07323       1.00000       0.06495       0.00000       0.27001       0.03884       0.51421       0.06515       0.00808       0.03876 
   9938.50000       4.10065       4.51434       4.81606       4.34781       5.62391       8.75000      76.13919     105.65134       9.40206       0.22282       0.01016       0.10475       0.06573       1.00000       0.06835       0.00000       0.28203       0.01592       0.52895       0.06138       0.00435       0.03902 
   9939.00000       3.55533       4.22250       4.28364       4.06971       5.01265       8.75000      77.13082     106.06842       9.44780       0.22493       0.01337       0.11087       0.07186       1.00000       0.06558       0.00000       0.28562       0.01443       0.52350       0.06806       0.00380       0.03901 
   9939.50000       3.35623       3.87317       3.85032       3.82281       4.37716       8.75000      75.45928     109.13150       9.65364       0.23184       0.01000       0.10180       0.06211       1.00000       0.06501       0.00000       0.28385       0.02959       0.51976       0.05842       0.00369       0.03968 
   9940.00000       3.20080       3.67975       3.64264       3.66247       3.88828       8.75000      76.59412     108.75836       9.65368       0.24674       0.01052       0.11176       0.07157       1.00000       0.06250       0.00000       0.29474       0.02322       0.50778       0.07019       0.00139       0.04018 
   9940.50000       3.05859       3.46633       3.50025       3.52138       3.58340       8.75000      79.07068     106.46445      10.00823       0.25567       0.01368       0.12287       0.08192       1.00000       0.05798       0.00000       0.30532       0.02541       0.48842       0.08192       0.00000       0.04095 
   9941.00000       2.93694       3.24558       3.30830       3.24672       3.33304       8.75000      79.07220     111.46600       9.76809       0.26152       0.01493       0.12702       0.08579       1.00000       0.05369       0.00000       0.31370       0.02320       0.48238       0.08579       0.00000       0.04123 
   9941.50000       2.78846       3.05192       3.12195       3.11316       3.11536       8.75000      81.78648     115.99606       9.58506       0.26228       0.01618       0.13781       0.09540       1.00000       0.04536       0.00000       0.33087       0.02741       0.45854       0.09540       0.00000       0.04241 
   9942.00000       2.68007       2.88479       2.94755       2.88474       3.00624       8.75000      82.85444     118.91557      10.20267       0.28075       0.01000       0.14305       0.09682       1.00000       0.03964       0.00000       0.37596       0.02115       0.42021       0.09682       0.00000       0.04623 
   9942.50000       2.65155       2.84209       2.89887       2.77799       2.95520       8.75000      83.10069     123.48739      10.17979       0.28716       0.01000       0.14181       0.09330       1.00000       0.03640       0.00000       0.39837       0.02488       0.39854       0.09330       0.00000       0.04851 
   9943.00000       2.64150       2.78962       2.83651       2.76877       2.90015       8.75000      84.82114     126.62927      10.40849       0.29333       0.01000       0.14962       0.09826       1.00000       0.03112       0.00000       0.43754       0.01241       0.36931       0.09826       0.00000       0.05137 
   9943.50000       2.64156       2.80322       2.79669       2.82666       2.85610       8.75000      84.54963     123.74451      10.30557       0.28733       0.01000       0.14949       0.09976       1.00000       0.03526       0.00000       0.41797       0.01248       0.38481       0.09976       0.00000       0.04973 
   9944.00000       2.63404       2.85981       2.87199       2.86540       2.85498       8.75000      83.86156     125.15698      10.22554       0.29100       0.01000       0.14873       0.09903       1.00000       0.03628       0.00000       0.41636       0.01303       0.38561       0.09903       0.00000       0.04970 
   9944.50000       2.78221       2.94902       2.97606       3.00548       2.95527       8.75000      83.16386     124.39933      10.41996       0.27897       0.01000       0.14561       0.09734       1.00000       0.03653       0.00000       0.40330       0.01209       0.40246       0.09734       0.00000       0.04827 
   9945.00000       3.09187       3.33981       3.30636       3.34663       3.18946       8.75000      81.25164     126.44995      10.03110       0.27946       0.01000       0.14201       0.09578       1.00000       0.03799       0.00000       0.38093       0.01554       0.42352       0.09578       0.00000       0.04624 
   9945.50000       3.24593       3.81981       3.83017       3.84590       3.71053       8.75000      75.33136     124.79904       9.83667       0.27905       0.01000       0.11663       0.07528       1.00000       0.04815       0.00000       0.30297       0.05397       0.47828       0.07528       0.00000       0.04135 
   9946.00000       3.32115       3.44508       3.50944       3.53201       3.46789       8.75000      78.79037     119.92619      10.15694       0.27482       0.01324       0.12948       0.08778       1.00000       0.04364       0.00000       0.31464       0.04748       0.46476       0.08778       0.00000       0.04170 
   9946.50000       3.15735       3.27502       3.32874       3.37092       3.23773       8.75000      76.09486     113.11219      10.17977       0.27650       0.01000       0.10970       0.06823       1.00000       0.05546       0.00000       0.29277       0.06034       0.48173       0.06641       0.00182       0.04147 
   9947.00000       3.67821       3.60488       3.68312       3.63139       3.65499       8.75000      74.99485     101.90628       9.49357       0.25416       0.01000       0.10016       0.06134       1.00000       0.06909       0.00000       0.26649       0.03853       0.52573       0.05375       0.00759       0.03882 
   9947.50000       4.09938       4.25578       4.35215       4.13861       4.30852       8.75000      72.53587      83.13794       9.21904       0.21915       0.03900       0.09364       0.06359       1.00000       0.08645       0.00000       0.17572       0.02301       0.62118       0.03443       0.02916       0.03005 
   9948.00000       4.30047       4.43999       4.46400       4.31090       4.47049       8.75000      72.75744      67.67504       8.96744       0.16917       0.34075       0.09909       0.07784       1.00000       0.09362       0.00000       0.09960       0.00019       0.70749       0.02004       0.05780       0.02125 
   9948.50000       3.83534       3.91590       3.89665       3.80528       4.07437       8.75000      70.99728      55.29887       8.96744       0.15065       0.95277       0.09431       0.07900       1.00000       0.10339       0.00000       0.03314       0.00201       0.76714       0.00131       0.07769       0.01531 
   9949.00000       3.49989       3.70883       3.71904       3.64579       3.78115       8.75000      71.09921      56.74526       8.99032       0.14564       0.98016       0.09412       0.07898       1.00000       0.10071       0.00000       0.03547       0.00000       0.76970       0.00165       0.07734       0.01513 
   9949.50000       3.90278       4.15824       4.10479       3.98791       4.15061       8.75000      70.68915      61.29650       8.99031       0.14312       0.57556       0.08876       0.07237       1.00000       0.09864       0.00000       0.04516       0.00724       0.76020       0.00438       0.06799       0.01639 
