~Version Information
VERS  .          2.0                              :CWLS Log Ascii Standard - Version 2.0
WRAP  .          NO                               :One line per depth step
~Well Information Block
#MNEM.UNIT       Data Type                        Information
#---------       ---------                        -------------------------------
STRT  .F         9700.00000                       :START DEPTH
STOP  .F         10600.00000                      :STOP DEPTH
STEP  .F          0.50000                         :INCREMENT
NULL  .          -999.25                          :NULL DATA VALUE
COMP  .          DENBURY ONSHORE, LLC             :COMPANY
WELL  .          CFU 31F #1                       :WELL
FLD   .          CRANFIELD FIELD UNIT             :FIELD
LOC   .                                           :LOCATION
PROV  .                                           :PROVINCE
STAT  .                                           :STATE
CNTY  .                                           :COUNTY
CTRY  .                                           :COUNTRY
DATE  .                                           :DATE
UWI   .          CFU 31F #1                       :UNIQUE WELL UWI
LIC   .                                           :LICENSE NUMBER
API   .          23-037-21488-0000                :API NUMBER
SRVC  .                                           :SERVICE COMPANY
~Parameter Information Block
#MNEM.UNIT       Value                            Description
#---------       ---------                        -------------
PDAT  .          GROUND LEVEL                     :Permanent Datum               
EPD   .ft        315.70                           :Elevation of Permanent Datum (PDAT) above Mean Sea Level
LMF   .          KELLY BUSHING                    :Logging Measured From (Name of Working Datum)
APD   .ft        18.00                            :Elevation of Working Datum (LMF) Above Permanent Datum
EDF   .ft        332.70                           :Elevation of Derrick Floor Above Mean Sea Level
EGL   .ft        315.70                           :Elevation of Ground Level Above Mean Sea Level
EKB   .ft        333.70                           :Elevation of Kelly Bushing Above Mean Sea Level
~Curve Information Block
#MNEM.UNIT       API Code            Curve    Description
#--------        --------------      -----    -------------------
DEPT  .F                             :0       Index
SXGA  .                              :1       CO2 Saturation
GR    .GAPI                          :2       Gamma Ray                     
INFD_TDTL.CPS                        :3       Gross Inelastic Count Rate Far Detector (TDT-like)
PHIC  .V/V                           :4       TDT Count Rate Porosity       
SBNA  .CU                            :5       RST Sigma Borehole Near Apparent
SIBH_TDTL.CU                         :6       Sigma Borehole Corrected (TDT-like)
SIGM  .CU                            :7       Formation Sigma (Neutron Capture Cross Section)
SIGM_TDTL.CU                         :8       Formation Sigma (Neutron Capture Cros Section) (TDT-like)
SXWI  .V/V                           :9       Non-Clay Water Intergranular Water Saturation for the Flushed Zone
TPHI  .V/V                           :10      Thermal Decay Porosity        
TSCF_TDTL.CPS                        :11      Total Selected Count Rate Far Detector (TDT-like)
TSCN_TDTL.CPS                        :12      Total Selected Count Rate Near Detector (TDT-like)
VXGA  .V/V                           :13      Volume of Gas in Flushed Zone 
WPRE  .PSI                           :14      Well Pressure                 
WTEP  .DEGF                          :15      Well Temperature              
~Ascii Data Section
# ...
  10114.00000       0.00000      50.50933     259.96490       0.29690      86.83562     126.29489      27.48816      25.90400       1.00000       0.32478    1201.62842    2730.09253       0.00000    4549.00244     255.63847 
  10114.50000       0.00000      49.98286     271.92581       0.28784      86.49146     128.74352      26.63980      24.82096       1.00000       0.30868    1270.89038    2834.72925       0.00000    4549.23486     255.65878 
  10115.00000       0.00000      48.48950     280.06265       0.29137      88.56446     130.27339      26.44514      24.20277       1.00000       0.30478    1263.04688    2839.10767       0.00000    4549.45117     255.68059 
  10115.50000       0.00000      48.31993     282.40399       0.29295      88.95399     130.86433      27.12465      24.33519       1.00000       0.31216    1229.82397    2767.26123       0.00000    4549.69287     255.70305 
  10116.00000       0.00000      50.84803     282.64835       0.30399      86.58939     133.72238      27.89578      25.11585       1.00000       0.32756    1160.31384    2651.53760       0.00000    4549.92578     255.72354 
  10116.50000       0.00000      51.94736     280.66507       0.31681      86.04199     131.98956      28.76645      26.03823       1.00000       0.34540    1079.14783    2532.56104       0.00000    4550.12354     255.73582 
  10117.00000       0.00000      52.65690     273.52274       0.32931      86.38021     127.31915      29.15985      27.39213       1.00000       0.36535     998.49127    2410.69946       0.00000    4550.42480     255.74040 
  10117.50000       0.00419      52.82567     269.80624       0.33691      83.76326     123.81805      29.75538      28.50805       0.99648       0.38447     949.70844    2333.21973       0.00037    4550.66260     255.74554 
  10118.00000       0.00000      52.74868     268.55499       0.34875      83.20502     121.04971      30.27167      28.99942       1.00000       0.40282     910.46582    2301.59399       0.00000    4550.89209     255.74625 
  10118.50000       0.00000      51.54435     268.05731       0.35727      82.23222     118.05391      30.83211      29.14442       1.00000       0.41730     884.22662    2289.04395       0.00000    4551.10986     255.74258 
  10119.00000       0.00000      50.48502     268.12579       0.35981      81.59779     116.23719      31.11609      29.26817       1.00000       0.42495     873.78278    2281.01172       0.00000    4551.35645     255.74170 
  10119.50000       0.00000      49.64234     268.42059       0.36030      82.25903     116.71214      31.18706      29.34093       1.00000       0.42465     876.00635    2286.96826       0.00000    4551.57764     255.74518 
  10120.00000       0.00000      48.78140     267.68381       0.36338      81.63580     116.84948      30.80012      29.21935       1.00000       0.42020     874.30762    2298.60449       0.00000    4551.81055     255.75488 
  10120.50000       0.00000      49.66056     270.78354       0.36202      84.21363     117.63009      30.52288      29.31256       1.00000       0.41516     883.61676    2313.01562       0.00000    4552.04834     255.76328 
  10121.00000       0.00000      49.86273     270.11478       0.35323      82.41393     117.64699      30.27157      29.30352       1.00000       0.40794     910.57349    2339.85474       0.00000    4552.27686     255.77463 
  10121.50000       0.00000      49.42902     265.25497       0.35111      83.15381     117.86266      30.16923      29.21879       1.00000       0.39685     922.03809    2359.70508       0.00000    4552.55859     255.78574 
  10122.00000       0.00000      49.72857     260.11191       0.35417      83.66633     119.71904      29.92718      28.79424       1.00000       0.38662     919.70703    2365.17212       0.00000    4552.80469     255.80101 
  10122.50000       0.00000      50.62227     263.40112       0.35105      83.29103     121.21088      29.68755      28.47869       1.00000       0.38106     931.37317    2375.57788       0.00000    4553.00830     255.81346 
  10123.00000       0.00000      48.86530     265.92957       0.34771      84.23429     122.03121      29.65544      28.03809       1.00000       0.37913     948.71417    2403.84058       0.00000    4553.24072     255.83057 
  10123.50000       0.00000      47.49909     266.41617       0.34652      84.33658     124.41907      29.67311      27.86994       1.00000       0.37488     961.59448    2422.13403       0.00000    4553.46924     255.84312 
  10124.00000       0.00000      47.01002     264.46332       0.34615      83.68771     124.19011      29.59619      27.81646       1.00000       0.37396     966.48828    2434.72876       0.00000    4553.69775     255.85307 
  10124.50000       0.00000      45.64277     269.88333       0.34767      86.34663     120.94445      29.74147      27.81625       1.00000       0.37754     963.83228    2451.35107       0.00000    4553.99756     255.86969 
  10125.00000       0.00000      44.80000     274.24347       0.34886      81.21886     121.47551      29.96383      27.94275       1.00000       0.38456     964.65686    2456.86719       0.00000    4554.16309     255.88457 
  10125.50000       0.00000      45.37057     277.48856       0.35003      82.38364     121.42332      30.28327      28.40290       1.00000       0.38657     955.03644    2433.90479       0.00000    4554.36816     255.90599 
  10126.00000       0.00000      45.03531     279.54953       0.35257      84.96366     119.33406      30.14618      28.67202       1.00000       0.38304     937.80481    2408.94019       0.00000    4554.60107     255.92534 
  10126.50000       0.00000      46.72363     280.19211       0.35386      84.83814     118.17712      30.14685      28.76906       1.00000       0.38217     926.82275    2390.78467       0.00000    4554.80908     255.94159 
  10127.00000       0.00000      47.08245     276.87799       0.35669      84.35593     118.62647      30.06406      29.06544       1.00000       0.38856     916.22192    2372.35034       0.00000    4555.08350     255.95810 
  10127.50000       0.00000      47.65627     271.58966       0.36868      81.34938     117.85065      30.47424      29.59129       1.00000       0.40571     879.17950    2331.88550       0.00000    4555.35986     255.97058 
  10128.00000       0.00000      49.64568     268.08148       0.37711      82.70073     115.42012      30.92676      30.21016       1.00000       0.42257     843.70319    2281.23633       0.00000    4555.56787     255.98329 
  10128.50000       0.00000      53.38651     262.50635       0.38840      82.84708     115.98448      31.48258      30.92734       1.00000       0.43698     806.43701    2220.27295       0.00000    4555.80518     255.99330 
  10129.00000       0.00000      54.28793     255.54132       0.39721      81.75609     118.73362      31.68608      31.57474       1.00000       0.44245     775.58820    2153.05957       0.00000    4556.05273     256.00504 
  10129.50000       0.00000      55.41388     236.83607       0.40367      84.37280     119.58671      31.90354      32.22651       1.00000       0.45010     748.59027    2092.48120       0.00000    4556.19238     256.02158 
  10130.00000       0.00000      54.57487     217.68129       0.41253      83.26513     119.99458      32.13762      32.25431       1.00000       0.45900     719.27570    2041.97070       0.00000    4556.46582     256.02203 
  10130.50000       0.00000      52.21311     197.43680       0.41836      82.91068     120.95786      32.72484      32.07026       1.00000       0.46971     696.93048    1996.58484       0.00000    4556.74512     256.02170 
  10131.00000       0.00000      49.74802     190.27905       0.41944      86.20576     120.51662      32.98779      31.95995       1.00000       0.47401     689.36877    1980.75342       0.00000    4557.00684     256.03616 
  10131.50000       0.00000      48.83626     199.02296       0.42158      81.61374     120.07509      32.83773      31.60459       1.00000       0.47067     696.70514    2016.56689       0.00000    4557.19043     256.04971 
