~Version Information
VERS  .          2.0                              :CWLS Log Ascii Standard - Version 2.0
WRAP  .          NO                               :One line per depth step
~Well Information Block
#MNEM.UNIT       Data Type                        Information
#---------       ---------                        -------------------------------
STRT  .F         9700.00000                       :START DEPTH
STOP  .F         10600.00000                      :STOP DEPTH
STEP  .F          0.50000                         :INCREMENT
NULL  .          -999.25                          :NULL DATA VALUE
COMP  .          DENBURY ONSHORE, LLC             :COMPANY
WELL  .          CFU 31F #1                       :WELL
FLD   .          CRANFIELD FIELD UNIT             :FIELD
LOC   .                                           :LOCATION
PROV  .                                           :PROVINCE
STAT  .                                           :STATE
CNTY  .                                           :COUNTY
CTRY  .                                           :COUNTRY
DATE  .                                           :DATE
UWI   .          CFU 31F #1                       :UNIQUE WELL UWI
LIC   .                                           :LICENSE NUMBER
API   .          23-037-21488-0000                :API NUMBER
SRVC  .                                           :SERVICE COMPANY
~Parameter Information Block
#MNEM.UNIT       Value                            Description
#---------       ---------                        -------------
PDAT  .          GROUND LEVEL                     :Permanent Datum               
EPD   .ft        315.70                           :Elevation of Permanent Datum (PDAT) above Mean Sea Level
LMF   .          KELLY BUSHING                    :Logging Measured From (Name of Working Datum)
APD   .ft        18.00                            :Elevation of Working Datum (LMF) Above Permanent Datum
EDF   .ft        332.70                           :Elevation of Derrick Floor Above Mean Sea Level
EGL   .ft        315.70                           :Elevation of Ground Level Above Mean Sea Level
EKB   .ft        333.70                           :Elevation of Kelly Bushing Above Mean Sea Level
~Curve Information Block
#MNEM.UNIT       API Code            Curve    Description
#--------        --------------      -----    -------------------
DEPT  .F                             :0       Index
SXGA  .                              :1       CO2 Saturation
GR    .GAPI                          :2       Gamma Ray                     
INFD_TDTL.CPS                        :3       Gross Inelastic Count Rate Far Detector (TDT-like)
PHIC  .V/V                           :4       TDT Count Rate Porosity       
SBNA  .CU                            :5       RST Sigma Borehole Near Apparent
SIBH_TDTL.CU                         :6       Sigma Borehole Corrected (TDT-like)
SIGM  .CU                            :7       Formation Sigma (Neutron Capture Cross Section)
SIGM_TDTL.CU                         :8       Formation Sigma (Neutron Capture Cros Section) (TDT-like)
SXWI  .V/V                           :9       Non-Clay Water Intergranular Water Saturation for the Flushed Zone
TPHI  .V/V                           :10      Thermal Decay Porosity        
TSCF_TDTL.CPS                        :11      Total Selected Count Rate Far Detector (TDT-like)
TSCN_TDTL.CPS                        :12      Total Selected Count Rate Near Detector (TDT-like)
VXGA  .V/V                           :13      Volume of Gas in Flushed Zone 
WPRE  .PSI                           :14      Well Pressure                 
WTEP  .DEGF                          :15      Well Temperature              
~Ascii Data Section
# ...
  10294.00000       0.00000      55.09372     263.34036       0.28196      99.06168     141.62308      29.72650      26.83630       1.00000       0.27306     896.92346    1862.65088       0.00000    4633.67236     259.88602 
  10294.50000       0.00000      53.86496     261.75348       0.30447      93.41960     142.53554      30.45138      27.57599       1.00000       0.30986     852.92230    1862.32568       0.00000    4633.92578     259.89401 
  10295.00000       0.00000      51.29260     253.20491       0.31339      90.83344     138.39967      31.78003      28.40590       1.00000       0.34011     847.29242    1895.95886       0.00000    4634.15625     259.90134 
  10295.50000       0.00000      50.27360     254.43210       0.30557      81.88460     129.61882      31.64347      28.09183       1.00000       0.34747     912.41632    2047.17407       0.00000    4634.34863     259.91483 
  10296.00000       0.01746      45.25793     254.44847       0.28827      88.56242     123.45097      29.71823      25.66685       0.98466       0.32188    1078.83691    2397.93799       0.00195    4634.58154     259.92789 
  10296.50000       0.09653      39.92097     251.64545       0.27185      82.12920     118.87753      26.21569      23.58533       0.91234       0.29149    1302.23730    2847.65845       0.01325    4634.88135     259.93924 
  10297.00000       0.03247      35.02364     256.14554       0.25215      81.94933     117.72491      23.89283      22.17809       0.96978       0.26595    1565.00708    3309.07202       0.00466    4635.12305     259.95505 
  10297.50000       0.00000      29.04116     265.96948       0.24927      85.73035     114.34987      22.58434      21.14332       1.00000       0.26129    1745.25220    3708.07520       0.00000    4635.34082     259.96652 
  10298.00000       0.00000      24.05360     275.33661       0.24801      85.54303     115.89667      22.32181      20.55308       1.00000       0.26149    1877.64307    3983.46484       0.00000    4635.58105     259.97495 
  10298.50000       0.02508      22.46207     276.74936       0.25593      83.99867     117.30829      22.06051      20.66860       0.97769       0.27377    1883.96655    4068.28760       0.00315    4635.73535     259.98355 
  10299.00000       0.11843      23.78020     279.72595       0.25532      84.97061     114.23835      21.97665      21.09400       0.89378       0.28395    1882.62866    4082.09692       0.01625    4636.03125     259.99472 
  10299.50000       0.15745      25.19269     281.24701       0.25874      84.15250     112.30224      22.05900      21.44015       0.85655       0.28935    1858.82495    4075.55469       0.02368    4636.26709     260.00800 
  10300.00000       0.15638      24.71983     288.78168       0.25586      80.32219     113.45581      22.28025      21.51000       0.85472       0.28503    1845.20801    4008.51562       0.02545    4636.48682     260.01801 
  10300.50000       0.15356      24.17388     291.65341       0.25124      82.63206     111.11784      22.55686      21.51236       0.85720       0.27490    1815.36316    3907.34644       0.02479    4636.75928     260.03183 
  10301.00000       0.09406      23.35310     296.73370       0.24629      83.98785     110.23659      22.92316      21.70957       0.91311       0.26603    1796.76538    3820.72681       0.01392    4637.03516     260.04712 
  10301.50000       0.00000      22.25332     295.63550       0.24203      81.30640     111.88940      23.23827      21.83112       1.00000       0.26055    1792.35596    3757.60938       0.00000    4637.23486     260.05685 
  10302.00000       0.00000      21.02904     294.54971       0.24354      81.98666     115.08182      23.42560      21.95254       1.00000       0.26063    1780.96155    3727.73779       0.00000    4637.51709     260.06882 
  10302.50000       0.00000      21.24501     294.48788       0.24429      82.92326     116.65760      23.22637      22.03350       1.00000       0.26372    1786.09753    3736.64355       0.00000    4637.73779     260.07779 
  10303.00000       0.00000      21.92366     294.64798       0.24730      85.68406     118.81205      22.81857      21.99879       1.00000       0.27029    1794.23206    3772.60132       0.00000    4637.95996     260.08694 
  10303.50000       0.00000      22.55483     293.98471       0.24917      85.79786     119.19913      22.44081      21.73020       1.00000       0.27681    1807.94373    3821.82666       0.00000    4638.17969     260.09393 
  10304.00000       0.00000      22.07450     290.71997       0.25370      84.07017     121.46279      22.39671      21.62101       1.00000       0.28170    1810.66809    3859.20898       0.00000    4638.41943     260.09854 
  10304.50000       0.00000      23.18977     291.16470       0.25912      81.48882     118.63693      22.62884      21.30133       1.00000       0.28706    1784.75903    3868.42529       0.00000    4638.62451     260.10611 
  10305.00000       0.00000      24.46002     289.45898       0.26113      88.01299     116.17635      22.97881      21.46445       1.00000       0.29128    1759.60925    3843.86597       0.00000    4638.88477     260.11230 
  10305.50000       0.07307      25.34587     289.75665       0.26101      83.67703     115.02738      23.33554      21.93571       0.93178       0.29597    1730.95764    3784.52563       0.01103    4639.11523     260.12149 
  10306.00000       0.16662      26.75300     278.93268       0.26522      83.47329     117.16691      23.59382      22.42151       0.84479       0.29699    1706.50903    3755.08569       0.02684    4639.33105     260.12656 
  10306.50000       0.18837      29.01662     277.25238       0.26745      83.19009     115.62977      23.67479      22.29069       0.82568       0.29929    1705.94873    3783.93530       0.02911    4639.57031     260.13348 
  10307.00000       0.21131      29.15977     275.55182       0.26344      84.70238     116.79799      23.28929      22.22097       0.80501       0.30032    1769.23022    3887.15186       0.03342    4639.80225     260.14243 
  10307.50000       0.25019      28.97962     276.84235       0.25950      81.94725     117.84787      22.56221      21.91243       0.76901       0.30096    1844.17065    4016.54199       0.04275    4640.01025     260.14960 
  10308.00000       0.26444      27.93254     272.89401       0.26214      85.35648     117.91143      21.69733      21.37824       0.75239       0.29871    1876.06006    4114.42334       0.05079    4640.28906     260.15637 
  10308.50000       0.25459      27.86405     270.27402       0.26421      82.69780     115.28783      21.47835      20.90540       0.75606       0.29992    1880.18787    4154.94385       0.05356    4640.50195     260.16153 
  10309.00000       0.26628      26.61173     271.86530       0.26500      82.67149     117.15019      21.71439      20.91075       0.74388       0.30568    1857.01331    4095.54736       0.06058    4640.73730     260.17361 
  10309.50000       0.24077      26.80702     257.39996       0.27954      83.34299     120.04948      22.32202      21.16949       0.76864       0.31536    1734.03760    3920.28955       0.05548    4641.00293     260.18222 
  10310.00000       0.19609      26.35167     236.46327       0.29629      85.28102     121.13673      23.02951      21.56892       0.81200       0.32605    1580.37610    3680.83472       0.04383    4641.20068     260.18832 
  10310.50000       0.15815      26.52182     216.92107       0.31167      88.22046     123.32722      23.80341      22.60688       0.84920       0.34103    1409.97717    3371.37134       0.03376    4641.43896     260.19449 
  10311.00000       0.06251      29.42137     220.94142       0.32265      84.35382     124.44282      25.30198      24.31618       0.94073       0.35956    1239.30835    3017.61011       0.01226    4641.67822     260.20264 
  10311.50000       0.00000      34.44259     236.10844       0.33289      84.39082     122.83947      27.35721      26.07412       1.00000       0.37107    1090.89343    2703.18774       0.00000    4641.95850     260.21277 
