~Version Information
VERS  .          2.0                              :CWLS Log Ascii Standard - Version 2.0
WRAP  .          NO                               :One line per depth step
~Well Information Block
#MNEM.UNIT       Data Type                        Information
#---------       ---------                        -------------------------------
STRT  .F         9700.00000                       :START DEPTH
STOP  .F         10647.00000                      :STOP DEPTH
STEP  .F          0.50000                         :INCREMENT
NULL  .          -999.25                          :NULL DATA VALUE
COMP  .          DENBURY ONSHORE, LLC             :COMPANY
WELL  .          CFU 31F #1                       :WELL
FLD   .          CRANFIELD FIELD UNIT             :FIELD
LOC   .                                           :LOCATION
PROV  .                                           :PROVINCE
STAT  .                                           :STATE
CNTY  .                                           :COUNTY
CTRY  .                                           :COUNTRY
DATE  .                                           :DATE
UWI   .          CFU 31F #1                       :UNIQUE WELL UWI
LIC   .                                           :LICENSE NUMBER
API   .          23-037-21488-0000                :API NUMBER
SRVC  .                                           :SERVICE COMPANY
~Parameter Information Block
#MNEM.UNIT       Value                            Description
#---------       ---------                        -------------
PDAT  .          GROUND LEVEL                     :Permanent Datum               
EPD   .ft        315.70                           :Elevation of Permanent Datum (PDAT) above Mean Sea Level
LMF   .          KELLY BUSHING                    :Logging Measured From (Name of Working Datum)
APD   .ft        18.00                            :Elevation of Working Datum (LMF) Above Permanent Datum
EDF   .ft        332.70                           :Elevation of Derrick Floor Above Mean Sea Level
EGL   .ft        315.70                           :Elevation of Ground Level Above Mean Sea Level
EKB   .ft        333.70                           :Elevation of Kelly Bushing Above Mean Sea Level
~Curve Information Block
#MNEM.UNIT       API Code            Curve    Description
#--------        --------------      -----    -------------------
DEPT  .F                             :0       Index
AT10  .OHMM                          :1       Array Induction Two Foot Resistivity A10
AT20  .OHMM                          :2       Array Induction Two Foot Resistivity A20
AT30  .OHMM                          :3       Array Induction Two Foot Resistivity A30
AT60  .OHMM                          :4       Array Induction Two Foot Resistivity A60
AT90  .OHMM                          :5       Array Induction Two Foot Resistivity A90
BS    .IN                            :6       Bit Size                      
DT    .US/F                          :7       Delta-T (also called Slowness or Interval Transit Time)
GR    .GAPI                          :8       Gamma Ray                     
HCAL  .IN                            :9       HRCC Caliper Calibrated       
HTNP  .V/V                           :10      High Resolution Thermal Neutron Porosity (Ratio Method) in Sand Lithology
KINT  .MD                            :11      Intrinsic Permeability        
PHIT  .V/V                           :12      Total Porosity_ includes all forms of porosity, including that occupied by bound fluids, and is independent of rock and fluid materials and of environmental effects
PIGN  .V/V                           :13      Effective Porosity, VISO, VPAR, and Bound Water Removed
SUWI  .V/V                           :14      Non-Clay Water Intergranular Water Saturation for Undisturbed Zone
VCHL  .V/V                           :15      Volume of Chlorite Relative to Total Volume
VCLC  .V/V                           :16      Volume of Calcite Relative to Total Volume
VILL  .V/V                           :17      Volume of Illite (dry) Relative to Total Volume
VKAO  .V/V                           :18      Volume of Kaolinite (dry) Relative to Total Volume
VQUA  .V/V                           :19      Volume of Quartz Relative to Total Volume
VUIW  .V/V                           :20      Volume of Irreducible Water In Undisturbed Zone
VUWA  .V/V                           :21      Volume of Water in Undisturbed Zone
VXBW  .V/V                           :22      Volume of Bound Water in Flushed Zone
~Ascii Data Section
# ...
   9875.00000       3.54275       2.83209       2.60402       2.16568       1.68386       8.75000      72.87090      53.60069       8.67007       0.19001       2.02864       0.11264       0.09745       1.00000       0.10347       0.00000       0.03309       0.00000       0.75079       0.00177       0.09568       0.01519 
   9875.50000       3.72618       3.05676       2.98178       2.49597       1.95411       8.75000      71.90960      55.88123       8.83019       0.20316       1.29279       0.10953       0.09266       1.00000       0.10463       0.00000       0.04748       0.00000       0.73836       0.00647       0.08619       0.01687 
   9876.00000       4.01645       3.43727       3.59359       2.95395       2.37227       8.75000      70.68729      55.40438       8.88738       0.20441       1.26895       0.10571       0.08944       1.00000       0.10684       0.00000       0.03961       0.00000       0.74785       0.00374       0.08570       0.01627 
   9876.50000       3.60404       3.41869       3.78331       3.13086       2.83828       8.75000      71.84283      56.86415       9.15049       0.18592       1.41542       0.11129       0.09465       1.00000       0.10984       0.00000       0.03440       0.00961       0.73486       0.00206       0.09259       0.01664 
   9877.00000       2.74124       2.78631       3.07579       2.78927       2.74617       8.75000      74.88822      70.47569       9.85962       0.18836       1.37646       0.12368       0.10564       1.00000       0.09223       0.00000       0.04362       0.04846       0.69201       0.00592       0.09972       0.01804 
   9877.50000       2.38144       2.44772       2.65239       2.81052       2.73563       8.75000      78.73442      98.05567      11.18625       0.22026       0.24700       0.13595       0.10845       1.00000       0.05919       0.00000       0.14557       0.08419       0.57511       0.04687       0.06158       0.02750 
   9878.00000       2.19149       2.26483       2.51374       2.85181       3.13396       8.75000      85.36160     119.09007      11.11768       0.28533       0.04453       0.16809       0.12794       1.00000       0.02970       0.00000       0.30245       0.06911       0.43064       0.12794       0.00000       0.04015 
   9878.50000       1.95866       2.07933       2.32574       2.49753       2.69725       8.75000      84.13327     126.24277      11.34635       0.34831       0.01000       0.16116       0.11284       1.00000       0.02752       0.00000       0.36927       0.08895       0.35309       0.11284       0.00000       0.04833 
   9879.00000       2.13609       2.52570       2.87991       3.03350       3.34687       8.75000      80.46973     126.45130      11.14051       0.35603       0.01000       0.13474       0.08467       1.00000       0.03711       0.00000       0.36281       0.11118       0.35416       0.08467       0.00000       0.05007 
   9879.50000       2.88418       3.49907       3.92164       4.15349       4.94435       8.75000      75.38937     121.01214      11.20911       0.31470       0.01000       0.09755       0.05123       1.00000       0.05200       0.00000       0.30076       0.13159       0.41810       0.05123       0.00000       0.04632 
   9880.00000       4.24869       5.72714       6.14591       7.10793       7.69237       8.75000      69.98920     117.36129      10.47718       0.26162       0.01000       0.06221       0.02074       1.00000       0.06750       0.00000       0.23931       0.13183       0.49916       0.01602       0.00472       0.04146 
   9880.50000       3.09705       4.29432       4.60881       4.88531       5.49710       8.75000      72.31621     104.56010      10.64868       0.25338       0.01000       0.08485       0.04467       1.00000       0.07359       0.00000       0.26114       0.06160       0.51881       0.03826       0.00642       0.04018 
   9881.00000       2.84242       3.44336       3.65214       3.84647       4.05394       8.75000      71.65917     105.64783      11.02619       0.27562       0.01000       0.07883       0.04179       1.00000       0.06968       0.00000       0.18955       0.14305       0.51889       0.02459       0.01720       0.03704 
   9881.50000       3.16729       3.99366       4.27000       4.38510       4.52295       8.75000      73.23705     103.09967      11.59809       0.29426       0.01000       0.07879       0.04126       1.00000       0.06451       0.00000       0.17574       0.18452       0.49644       0.02203       0.01922       0.03753 
   9882.00000       3.63302       4.83597       5.12026       5.26178       5.24699       8.75000      71.96245     104.43133      11.41501       0.29231       0.01000       0.05431       0.01697       1.00000       0.06538       0.00000       0.13718       0.24729       0.49585       0.00642       0.01055       0.03734 
   9882.50000       4.15614       5.51541       5.41541       5.36639       5.10180       8.75000      70.18415      97.35065      11.25476       0.28544       0.01000       0.03601       0.00010       1.00000       0.07837       0.00000       0.10121       0.26478       0.51963       0.00000       0.00001       0.03600 
   9883.00000       4.09525       5.54337       5.45250       5.21361       5.00829       8.75000      70.73487      97.81345      10.47720       0.25680       0.01000       0.07076       0.03092       1.00000       0.08037       0.00000       0.25086       0.06178       0.53624       0.02523       0.00569       0.03984 
   9883.50000       4.18944       5.46503       5.55505       5.24169       4.95958       8.75000      70.28451      98.89941      10.50005       0.23822       0.01000       0.06569       0.02973       1.00000       0.07903       0.00000       0.19090       0.10605       0.55835       0.01766       0.01207       0.03596 
   9884.00000       3.96842       4.66012       4.58010       4.20058       4.01919       8.75000      71.54831     103.22338      11.10620       0.24559       0.01000       0.07114       0.03546       1.00000       0.06972       0.00000       0.17444       0.14723       0.53747       0.01892       0.01654       0.03568 
   9884.50000       3.55308       3.87569       3.99486       3.91072       3.80082       8.75000      72.88829     108.64535      11.30065       0.27091       0.01000       0.07673       0.03787       1.00000       0.06222       0.00000       0.20476       0.15950       0.49680       0.02444       0.01343       0.03886 
   9885.00000       3.76912       3.63526       4.15194       4.05743       3.89232       8.75000      72.35219     117.89802      11.12907       0.28831       0.01000       0.07214       0.03023       1.00000       0.05674       0.00000       0.23302       0.16970       0.46840       0.02258       0.00765       0.04191 
   9885.50000       3.71939       3.98307       4.27346       4.09224       3.95795       8.75000      73.53688     122.90491      11.18629       0.28533       0.01000       0.09146       0.04776       1.00000       0.05014       0.00000       0.29061       0.11003       0.45776       0.04609       0.00167       0.04369 
   9886.00000       3.01173       3.12722       3.31631       3.35516       3.27512       8.75000      79.19377     130.41225      11.59807       0.28921       0.01000       0.12358       0.07517       1.00000       0.03367       0.00000       0.37224       0.07385       0.39666       0.07517       0.00000       0.04841 
   9886.50000       2.86125       2.65285       2.68964       2.59847       2.64266       8.75000      80.73257     127.35859      12.46726       0.29999       0.01000       0.13176       0.07970       1.00000       0.03503       0.00000       0.41875       0.04938       0.36507       0.07970       0.00000       0.05206 
   9887.00000       2.93639       2.90629       3.04029       3.04636       3.03149       8.75000      82.75775     124.89986      11.23191       0.28645       0.01000       0.13277       0.07857       1.00000       0.04187       0.00000       0.44956       0.01788       0.35792       0.07857       0.00000       0.05420 
