~Version Information
VERS  .          2.0                              :CWLS Log Ascii Standard - Version 2.0
WRAP  .          NO                               :One line per depth step
~Well Information Block
#MNEM.UNIT       Data Type                        Information
#---------       ---------                        -------------------------------
STRT  .F         9700.00000                       :START DEPTH
STOP  .F         10600.00000                      :STOP DEPTH
STEP  .F          0.50000                         :INCREMENT
NULL  .          -999.25                          :NULL DATA VALUE
COMP  .          DENBURY ONSHORE, LLC             :COMPANY
WELL  .          CFU 31F #1                       :WELL
FLD   .          CRANFIELD FIELD UNIT             :FIELD
LOC   .                                           :LOCATION
PROV  .                                           :PROVINCE
STAT  .                                           :STATE
CNTY  .                                           :COUNTY
CTRY  .                                           :COUNTRY
DATE  .                                           :DATE
UWI   .          CFU 31F #1                       :UNIQUE WELL UWI
LIC   .                                           :LICENSE NUMBER
API   .          23-037-21488-0000                :API NUMBER
SRVC  .                                           :SERVICE COMPANY
~Parameter Information Block
#MNEM.UNIT       Value                            Description
#---------       ---------                        -------------
PDAT  .          GROUND LEVEL                     :Permanent Datum               
EPD   .ft        315.70                           :Elevation of Permanent Datum (PDAT) above Mean Sea Level
LMF   .          KELLY BUSHING                    :Logging Measured From (Name of Working Datum)
APD   .ft        18.00                            :Elevation of Working Datum (LMF) Above Permanent Datum
EDF   .ft        332.70                           :Elevation of Derrick Floor Above Mean Sea Level
EGL   .ft        315.70                           :Elevation of Ground Level Above Mean Sea Level
EKB   .ft        333.70                           :Elevation of Kelly Bushing Above Mean Sea Level
~Curve Information Block
#MNEM.UNIT       API Code            Curve    Description
#--------        --------------      -----    -------------------
DEPT  .F                             :0       Index
SXGA  .                              :1       CO2 Saturation
GR    .GAPI                          :2       Gamma Ray                     
INFD_TDTL.CPS                        :3       Gross Inelastic Count Rate Far Detector (TDT-like)
PHIC  .V/V                           :4       TDT Count Rate Porosity       
QGD   .BB/D                          :5       Downhole CO2 Injection rate (Low Rate)
QTDH  .BB/D                          :6       Downhole CO2 Injection rate (High Rate)
SBNA  .CU                            :7       RST Sigma Borehole Near Apparent
SIBH_TDTL.CU                         :8       Sigma Borehole Corrected (TDT-like)
SIGM  .CU                            :9       Formation Sigma (Neutron Capture Cross Section)
SIGM_TDTL.CU                         :10      Formation Sigma (Neutron Capture Cros Section) (TDT-like)
SW    .V/V                           :11      Water Saturation Computed by Delta Sigma Method             
SXWI  .V/V                           :12      Non-Clay Water Intergranular Water Saturation for the Flushed Zone
TPHI  .V/V                           :13      Thermal Decay Porosity        
TSCF_TDTL.CPS                        :14      Total Selected Count Rate Far Detector (TDT-like)
TSCN_TDTL.CPS                        :15      Total Selected Count Rate Near Detector (TDT-like)
VXGA  .V/V                           :16      Volume of Gas in Flushed Zone 
WPRE  .PSI                           :17      Well Pressure                 
WTEP  .DEGF                          :18      Well Temperature              
~Ascii Data Section
# ...
   9940.00000       0.00000      60.03548     293.59106       0.27407    -999.25000    -999.25000      84.60927     124.07859      30.01464      26.11835       1.00000       1.00000       0.27156     910.44971    1924.07092       0.00000    5585.82910     186.81271 
   9940.50000       0.00000      61.14682     298.27988       0.28009    -999.25000    -999.25000      84.43915     123.62154      30.64057      26.66782       1.00000       1.00000       0.28449     865.51825    1849.19983       0.00000    5585.96143     186.79047 
   9941.00000       0.00000      63.13544     305.06021       0.28545    -999.25000    -999.25000      85.01191     123.36687      31.54101      27.44985       1.00000       1.00000       0.29721     815.69183    1754.08057       0.00000    5586.08447     186.77206 
   9941.50000       0.00000      64.93757     306.16534       0.29091    -999.25000    -999.25000      83.25632     122.75018      32.36114      28.07239       1.00000       1.00000       0.30889     770.49127    1671.07275       0.00000    5586.15771     186.75598 
   9942.00000       0.00000      65.80630     305.29498       0.29714    -999.25000    -999.25000      82.73221     120.60432      33.20113      28.47307       1.00000       1.00000       0.31588     729.68488    1606.42847       0.00000    5586.36035     186.74055 
   9942.50000       0.00000      65.79629     303.24817       0.30414    -999.25000    -999.25000      82.88038     120.43894      33.47995      28.82007       0.98018       1.00000       0.32189     698.56561    1560.21838       0.00000    5586.53320     186.71983 
   9943.00000       0.00000      65.24593     303.05798       0.30143    -999.25000    -999.25000      81.17055     121.62048      33.20589      29.33878       0.94110       1.00000       0.32402     690.83002    1521.35437       0.00000    5586.71191     186.70529 
   9943.50000       0.00000      65.51350     296.88321       0.29467    -999.25000    -999.25000      83.86051     122.17424      32.76575      29.62176       0.92801       1.00000       0.32270     701.89465    1513.83398       0.00000    5586.83203     186.69766 
   9944.00000       0.00000      65.11887     287.60526       0.29305    -999.25000    -999.25000      84.76620     125.72212      32.57635      29.44169       0.93250       1.00000       0.31146     704.37128    1503.89282       0.00000    5586.93359     186.69920 
   9944.50000       0.00000      63.48421     277.01492       0.29268    -999.25000    -999.25000      85.18081     128.22905      32.54598      29.05407       0.96136       1.00000       0.30026     700.23901    1490.50305       0.00000    5587.08398     186.70395 
   9945.00000       0.00000      62.51961     274.14804       0.29352    -999.25000    -999.25000      90.80887     129.90860      32.40049      28.91116       0.95194       1.00000       0.29725     686.25653    1459.37537       0.00000    5587.20850     186.71056 
   9945.50000       0.00000      62.18531     278.10660       0.29274    -999.25000    -999.25000      90.17003     130.74879      32.56830      28.22026       1.00000       1.00000       0.29968     686.45355    1462.46069       0.00000    5587.36182     186.72380 
   9946.00000       0.00000      60.91765     279.16565       0.28390    -999.25000    -999.25000      90.32402     132.68079      32.73652      27.64310       1.00000       1.00000       0.29270     705.39905    1485.45093       0.00000    5587.57568     186.73956 
   9946.50000       0.00000      58.54565     276.46350       0.23599    -999.25000    -999.25000      87.41973     132.00500      32.04088      26.86555       1.00000       1.00000       0.25871     820.74762    1616.03723       0.00000    5587.75049     186.76079 
   9947.00000       0.00000      56.39472     276.45331       0.24433    -999.25000    -999.25000      89.43401     131.02203      29.41269      24.10899       0.87142       1.00000       0.22095     990.80432    1932.78967       0.00000    5587.87646     186.79050 
   9947.50000       0.00000      52.67186     279.29587       0.21215    -999.25000    -999.25000      96.25052     130.49341      25.64152      20.72915       0.74715       1.00000       0.19084    1316.41370    2427.84253       0.00000    5588.03955     186.82324 
   9948.00000       0.00000      46.92616     289.46411       0.18637    -999.25000    -999.25000      94.99268     128.89886      21.73116      18.62339       0.77092       1.00000       0.17927    1710.88684    3007.17236       0.00000    5588.11719     186.85956 
   9948.50000       0.00000      41.39754     294.45859       0.19048    -999.25000    -999.25000      95.83038     130.07996      19.14762      17.34016       0.89702       1.00000       0.17309    1955.09424    3506.72583       0.00000    5588.32715     186.89540 
   9949.00000       0.00000      37.63305     296.57556       0.18390    -999.25000    -999.25000      90.70199     130.10194      17.96588      16.69835       0.94273       1.00000       0.16722    2171.34424    3848.07324       0.00000    5588.40332     186.93130 
   9949.50000       0.00000      36.15745     286.50711       0.18418    -999.25000    -999.25000      95.69535     127.58155      18.08388      16.77050       0.99299       1.00000       0.16768    2229.64380    3971.62061       0.00000    5588.53174     186.97388 
   9950.00000       0.00000      33.58020     276.10236       0.18893    -999.25000    -999.25000      99.86865     127.12788      18.61101      17.45412       1.00000       1.00000       0.17122    2131.89502    3840.32031       0.00000    5588.61768     187.01964 
   9950.50000       0.00000      35.19194     259.81686       0.18686    -999.25000    -999.25000      88.74218     129.02823      19.07088      18.03373       1.00000       1.00000       0.17627    1984.49756    3528.19629       0.00000    5588.78906     187.09029 
   9951.00000       0.00000      38.18074     245.31081       0.18891    -999.25000    -999.25000      97.84111     129.70535      19.48431      18.58965       1.00000       1.00000       0.17674    1829.06946    3247.90796       0.00000    5588.84424     187.14395 
   9951.50000       0.00000      39.01925     239.15375       0.18972    -999.25000    -999.25000      96.40501     127.08381      20.18115      18.93924       1.00000       1.00000       0.17002    1764.48438    3141.03906       0.00000    5588.99268     187.20265 
   9952.00000       0.00000      39.05438     243.03165       0.18092    -999.25000    -999.25000      97.12070     130.07590      20.22125      18.65447       0.99672       1.00000       0.16444    1808.50708    3128.69238       0.00000    5589.04053     187.22115 
   9952.50000       0.00000      39.91933     266.65311       0.17956    -999.25000    -999.25000      95.39020     130.13335      19.77849      18.23699       1.00000       1.00000       0.16016    1894.62183    3279.40137       0.00000    5589.21484     187.20767 
   9953.00000       0.00000      39.54003     296.92456       0.18065    -999.25000    -999.25000      96.83906     133.61732      18.78720      17.93120       1.00000       1.00000       0.16085    2007.95715    3487.25879       0.00000    5589.42676     187.19037 
   9953.50000       0.00000      36.74448     309.71320       0.17123    -999.25000    -999.25000      97.91341     131.22633      18.44123      17.53730       1.00000       1.00000       0.15859    2136.52075    3632.52490       0.00000    5589.54395     187.16060 
   9954.00000       0.00000      36.24888     311.31183       0.17518    -999.25000    -999.25000     100.82881     130.12520      18.59323      17.75331       1.00000       1.00000       0.15792    2110.05444    3631.66528       0.00000    5589.66895     187.14664 
   9954.50000       0.00000      37.59962     302.64203       0.17293    -999.25000    -999.25000      94.56744     128.61911      19.38773      18.02758       1.00000       1.00000       0.15540    2048.48975    3496.71533       0.00000    5589.86572     187.15663 
