~Version Information
VERS  .          2.0                              :CWLS Log Ascii Standard - Version 2.0
WRAP  .          NO                               :One line per depth step
~Well Information Block
#MNEM.UNIT       Data Type                        Information
#---------       ---------                        -------------------------------
STRT  .F         9700.00000                       :START DEPTH
STOP  .F         10647.00000                      :STOP DEPTH
STEP  .F          0.50000                         :INCREMENT
NULL  .          -999.25                          :NULL DATA VALUE
COMP  .          DENBURY ONSHORE, LLC             :COMPANY
WELL  .          CFU 31F #1                       :WELL
FLD   .          CRANFIELD FIELD UNIT             :FIELD
LOC   .                                           :LOCATION
PROV  .                                           :PROVINCE
STAT  .                                           :STATE
CNTY  .                                           :COUNTY
CTRY  .                                           :COUNTRY
DATE  .                                           :DATE
UWI   .          CFU 31F #1                       :UNIQUE WELL UWI
LIC   .                                           :LICENSE NUMBER
API   .          23-037-21488-0000                :API NUMBER
SRVC  .                                           :SERVICE COMPANY
~Parameter Information Block
#MNEM.UNIT       Value                            Description
#---------       ---------                        -------------
PDAT  .          GROUND LEVEL                     :Permanent Datum               
EPD   .ft        315.70                           :Elevation of Permanent Datum (PDAT) above Mean Sea Level
LMF   .          KELLY BUSHING                    :Logging Measured From (Name of Working Datum)
APD   .ft        18.00                            :Elevation of Working Datum (LMF) Above Permanent Datum
EDF   .ft        332.70                           :Elevation of Derrick Floor Above Mean Sea Level
EGL   .ft        315.70                           :Elevation of Ground Level Above Mean Sea Level
EKB   .ft        333.70                           :Elevation of Kelly Bushing Above Mean Sea Level
~Curve Information Block
#MNEM.UNIT       API Code            Curve    Description
#--------        --------------      -----    -------------------
DEPT  .F                             :0       Index
AT10  .OHMM                          :1       Array Induction Two Foot Resistivity A10
AT20  .OHMM                          :2       Array Induction Two Foot Resistivity A20
AT30  .OHMM                          :3       Array Induction Two Foot Resistivity A30
AT60  .OHMM                          :4       Array Induction Two Foot Resistivity A60
AT90  .OHMM                          :5       Array Induction Two Foot Resistivity A90
BS    .IN                            :6       Bit Size                      
DT    .US/F                          :7       Delta-T (also called Slowness or Interval Transit Time)
GR    .GAPI                          :8       Gamma Ray                     
HCAL  .IN                            :9       HRCC Caliper Calibrated       
HTNP  .V/V                           :10      High Resolution Thermal Neutron Porosity (Ratio Method) in Sand Lithology
KINT  .MD                            :11      Intrinsic Permeability        
PHIT  .V/V                           :12      Total Porosity_ includes all forms of porosity, including that occupied by bound fluids, and is independent of rock and fluid materials and of environmental effects
PIGN  .V/V                           :13      Effective Porosity, VISO, VPAR, and Bound Water Removed
SUWI  .V/V                           :14      Non-Clay Water Intergranular Water Saturation for Undisturbed Zone
VCHL  .V/V                           :15      Volume of Chlorite Relative to Total Volume
VCLC  .V/V                           :16      Volume of Calcite Relative to Total Volume
VILL  .V/V                           :17      Volume of Illite (dry) Relative to Total Volume
VKAO  .V/V                           :18      Volume of Kaolinite (dry) Relative to Total Volume
VQUA  .V/V                           :19      Volume of Quartz Relative to Total Volume
VUIW  .V/V                           :20      Volume of Irreducible Water In Undisturbed Zone
VUWA  .V/V                           :21      Volume of Water in Undisturbed Zone
VXBW  .V/V                           :22      Volume of Bound Water in Flushed Zone
~Ascii Data Section
# ...
  10237.50000       2.58522       2.80033       2.83298       2.83051       2.72082       8.75000      85.34256     111.49758      10.70586       0.36950       0.01000       0.15836       0.10164       1.00000       0.05540       0.00000       0.45608       0.02270       0.30746       0.10164       0.00000       0.05672 
  10238.00000       2.57816       2.80241       2.80983       2.88055       2.80084       8.75000      86.17322     113.81239      10.31707       0.36243       0.01000       0.16589       0.11102       1.00000       0.05292       0.00000       0.44083       0.02391       0.31645       0.11102       0.00000       0.05488 
  10238.50000       2.61844       2.84604       2.90233       2.99769       2.90128       8.75000      88.09119     110.24274      10.40854       0.34966       0.01000       0.17790       0.12653       1.00000       0.05019       0.00000       0.40985       0.02609       0.33597       0.12653       0.00000       0.05137 
  10239.00000       2.88082       3.21955       3.18938       3.26370       3.12694       8.75000      88.67817     107.65881      10.88893       0.31596       0.01046       0.17406       0.12462       1.00000       0.04766       0.00000       0.39901       0.01830       0.36097       0.12462       0.00000       0.04944 
  10239.50000       3.23186       3.71370       3.82356       3.64108       3.55581       8.75000      85.48585     101.78481       9.99683       0.29363       0.01316       0.15554       0.10903       1.00000       0.06006       0.00000       0.36587       0.00612       0.41241       0.10903       0.00000       0.04651 
  10240.00000       3.19660       3.71347       3.79707       3.67017       3.67784       8.75000      81.75901      95.83059       9.63080       0.27981       0.01000       0.13012       0.08555       1.00000       0.07259       0.00000       0.32687       0.01983       0.45059       0.08555       0.00000       0.04457 
  10240.50000       2.86248       3.17766       3.24632       3.32570       3.36023       8.75000      81.63274      97.24708       9.89390       0.29546       0.01000       0.13269       0.08752       1.00000       0.06916       0.00000       0.33258       0.02585       0.43973       0.08752       0.00000       0.04517 
  10241.00000       2.65564       2.89101       2.96813       3.03941       3.10328       8.75000      83.00104     103.42892      10.38566       0.29151       0.01000       0.13568       0.08965       1.00000       0.05703       0.00000       0.34488       0.04046       0.42195       0.08965       0.00000       0.04603 
  10241.50000       2.67723       2.78734       2.92812       3.01173       2.95538       8.75000      83.07017     106.69668      10.48860       0.28343       0.01000       0.13571       0.09003       1.00000       0.05181       0.00000       0.34690       0.04088       0.42471       0.09003       0.00000       0.04568 
  10242.00000       2.87302       3.05480       3.27062       3.34065       3.23347       8.75000      83.17950     106.23389      10.45431       0.25476       0.01580       0.13738       0.09495       1.00000       0.05030       0.00000       0.32328       0.03210       0.45694       0.09495       0.00000       0.04243 
  10242.50000       3.31230       3.71555       3.94659       4.02135       3.83675       8.75000      81.99252     106.72523      10.52287       0.25278       0.01122       0.13049       0.08734       1.00000       0.05256       0.00000       0.32952       0.02868       0.45876       0.08734       0.00000       0.04315 
  10243.00000       2.69711       3.17934       3.34102       3.39298       3.33121       8.75000      81.61399     110.36438       9.76807       0.29481       0.01122       0.14092       0.09607       1.00000       0.05591       0.00000       0.34255       0.02753       0.43310       0.09607       0.00000       0.04485 
  10243.50000       2.37932       2.60578       2.65232       2.69335       2.73447       8.75000      84.38925     108.69541      10.47719       0.32040       0.01000       0.15355       0.10548       1.00000       0.05302       0.00000       0.37030       0.03645       0.38668       0.10548       0.00000       0.04807 
  10244.00000       2.18281       2.44662       2.51061       2.52335       2.48609       8.75000      85.76601     109.11249      10.68305       0.32688       0.01000       0.16336       0.11461       1.00000       0.05131       0.00000       0.38097       0.03199       0.37237       0.11461       0.00000       0.04875 
  10244.50000       2.28930       2.53599       2.50986       2.52824       2.48539       8.75000      87.41579     105.33795      10.70593       0.31877       0.01000       0.16657       0.11772       1.00000       0.05330       0.00000       0.38161       0.02890       0.36963       0.11772       0.00000       0.04885 
  10245.00000       2.29301       2.47540       2.50654       2.51533       2.47608       8.75000      87.72283     108.72094      10.93467       0.32575       0.01000       0.16878       0.11776       1.00000       0.05079       0.00000       0.40723       0.02393       0.34927       0.11776       0.00000       0.05102 
  10245.50000       2.26276       2.52787       2.57699       2.57761       2.51849       8.75000      86.41231     105.86692      10.24847       0.34576       0.01000       0.16530       0.11404       1.00000       0.05966       0.00000       0.39735       0.02888       0.34881       0.11404       0.00000       0.05126 
  10246.00000       2.25441       2.59308       2.60439       2.62252       2.55849       8.75000      86.47941     111.21574      10.39711       0.35083       0.01000       0.16130       0.10660       1.00000       0.05569       0.00000       0.43422       0.02759       0.32120       0.10660       0.00000       0.05470 
  10246.50000       2.21088       2.44915       2.50180       2.51574       2.45632       8.75000      87.83917     111.40911      10.75168       0.34781       0.01000       0.16998       0.11590       1.00000       0.05141       0.00000       0.43354       0.02644       0.31863       0.11590       0.00000       0.05408 
  10247.00000       2.26376       2.41684       2.53028       2.55781       2.50288       8.75000      85.75912     114.50530      11.02614       0.34732       0.01000       0.16330       0.11068       1.00000       0.05023       0.00000       0.41175       0.04302       0.33170       0.11068       0.00000       0.05262 
  10247.50000       2.72327       2.86088       2.90020       2.89770       2.85540       8.75000      84.06058     105.95528      10.66016       0.32908       0.01207       0.16003       0.11316       1.00000       0.05971       0.00000       0.35108       0.03851       0.39066       0.11316       0.00000       0.04688 
  10248.00000       3.69725       4.15523       4.12238       4.21357       4.04378       8.75000      80.87189     102.61735      10.24841       0.27211       0.01414       0.13576       0.09254       1.00000       0.06724       0.00000       0.32185       0.01654       0.45861       0.09254       0.00000       0.04322 
  10248.50000       2.99022       3.91079       4.14095       4.23444       4.05163       8.75000      80.22955      97.78735       9.53931       0.25446       0.01886       0.12884       0.08807       1.00000       0.07346       0.00000       0.29432       0.01346       0.48992       0.08623       0.00184       0.04077 
  10249.00000       2.60663       3.02715       3.22058       3.26513       3.19803       8.75000      78.59560     101.70383       9.99682       0.27004       0.01096       0.12112       0.07947       1.00000       0.07030       0.00000       0.29220       0.03731       0.47907       0.07719       0.00228       0.04165 
  10249.50000       2.94013       3.33163       3.42465       3.40910       3.33546       8.75000      80.71095      98.80082      10.36275       0.27787       0.01113       0.12689       0.08452       1.00000       0.06535       0.00000       0.29833       0.04738       0.46205       0.08400       0.00052       0.04238 
