~Version Information
VERS  .          2.0                              :CWLS Log Ascii Standard - Version 2.0
WRAP  .          NO                               :One line per depth step
~Well Information Block
#MNEM.UNIT       Data Type                        Information
#---------       ---------                        -------------------------------
STRT  .F         9700.00000                       :START DEPTH
STOP  .F         10647.00000                      :STOP DEPTH
STEP  .F          0.50000                         :INCREMENT
NULL  .          -999.25                          :NULL DATA VALUE
COMP  .          DENBURY ONSHORE, LLC             :COMPANY
WELL  .          CFU 31F #1                       :WELL
FLD   .          CRANFIELD FIELD UNIT             :FIELD
LOC   .                                           :LOCATION
PROV  .                                           :PROVINCE
STAT  .                                           :STATE
CNTY  .                                           :COUNTY
CTRY  .                                           :COUNTRY
DATE  .                                           :DATE
UWI   .          CFU 31F #1                       :UNIQUE WELL UWI
LIC   .                                           :LICENSE NUMBER
API   .          23-037-21488-0000                :API NUMBER
SRVC  .                                           :SERVICE COMPANY
~Parameter Information Block
#MNEM.UNIT       Value                            Description
#---------       ---------                        -------------
PDAT  .          GROUND LEVEL                     :Permanent Datum               
EPD   .ft        315.70                           :Elevation of Permanent Datum (PDAT) above Mean Sea Level
LMF   .          KELLY BUSHING                    :Logging Measured From (Name of Working Datum)
APD   .ft        18.00                            :Elevation of Working Datum (LMF) Above Permanent Datum
EDF   .ft        332.70                           :Elevation of Derrick Floor Above Mean Sea Level
EGL   .ft        315.70                           :Elevation of Ground Level Above Mean Sea Level
EKB   .ft        333.70                           :Elevation of Kelly Bushing Above Mean Sea Level
~Curve Information Block
#MNEM.UNIT       API Code            Curve    Description
#--------        --------------      -----    -------------------
DEPT  .F                             :0       Index
AT10  .OHMM                          :1       Array Induction Two Foot Resistivity A10
AT20  .OHMM                          :2       Array Induction Two Foot Resistivity A20
AT30  .OHMM                          :3       Array Induction Two Foot Resistivity A30
AT60  .OHMM                          :4       Array Induction Two Foot Resistivity A60
AT90  .OHMM                          :5       Array Induction Two Foot Resistivity A90
BS    .IN                            :6       Bit Size                      
DT    .US/F                          :7       Delta-T (also called Slowness or Interval Transit Time)
GR    .GAPI                          :8       Gamma Ray                     
HCAL  .IN                            :9       HRCC Caliper Calibrated       
HTNP  .V/V                           :10      High Resolution Thermal Neutron Porosity (Ratio Method) in Sand Lithology
KINT  .MD                            :11      Intrinsic Permeability        
PHIT  .V/V                           :12      Total Porosity_ includes all forms of porosity, including that occupied by bound fluids, and is independent of rock and fluid materials and of environmental effects
PIGN  .V/V                           :13      Effective Porosity, VISO, VPAR, and Bound Water Removed
SUWI  .V/V                           :14      Non-Clay Water Intergranular Water Saturation for Undisturbed Zone
VCHL  .V/V                           :15      Volume of Chlorite Relative to Total Volume
VCLC  .V/V                           :16      Volume of Calcite Relative to Total Volume
VILL  .V/V                           :17      Volume of Illite (dry) Relative to Total Volume
VKAO  .V/V                           :18      Volume of Kaolinite (dry) Relative to Total Volume
VQUA  .V/V                           :19      Volume of Quartz Relative to Total Volume
VUIW  .V/V                           :20      Volume of Irreducible Water In Undisturbed Zone
VUWA  .V/V                           :21      Volume of Water in Undisturbed Zone
VXBW  .V/V                           :22      Volume of Bound Water in Flushed Zone
~Ascii Data Section
# ...
  10475.00000       0.69322       0.44004       0.37719       0.33721       0.33120       8.75000      95.99633      40.84873       8.21258       0.31169     135.16335       0.27435       0.26322       1.00000       0.07453       0.00000       0.02562       0.00000       0.62550       0.00000       0.26322       0.01113 
  10475.50000       0.72120       0.44166       0.38042       0.34126       0.33506       8.75000      96.20616      39.08263       8.20115       0.30762     153.82030       0.27418       0.26365       1.00000       0.07373       0.00000       0.02086       0.00000       0.63123       0.00000       0.26365       0.01053 
  10476.00000       0.70018       0.42716       0.37157       0.33486       0.32886       8.75000      97.00318      39.94131       8.21258       0.29655     178.21681       0.27557       0.26565       1.00000       0.07049       0.00000       0.01854       0.00000       0.63541       0.00000       0.26565       0.00992 
  10476.50000       0.67427       0.40826       0.35866       0.32727       0.32113       8.75000      97.93173      37.32400       8.26977       0.28754     225.80713       0.27822       0.26920       1.00000       0.07054       0.00000       0.01019       0.00000       0.64105       0.00000       0.26920       0.00902 
  10477.00000       0.65006       0.39749       0.35254       0.32227       0.32100       8.75000      97.14238      37.63034       8.30408       0.29319     210.34367       0.27707       0.26778       1.00000       0.07327       0.00000       0.00991       0.00000       0.63974       0.00000       0.26778       0.00930 
  10477.50000       0.65094       0.40362       0.35607       0.32519       0.32630       8.75000      96.37534      34.85230       8.48708       0.31952     139.18741       0.27766       0.26638       1.00000       0.08124       0.00000       0.02001       0.00000       0.62109       0.00000       0.26638       0.01128 
  10478.00000       0.66797       0.41333       0.35676       0.32599       0.32769       8.75000      95.28706      34.55009       8.69295       0.31707     112.04303       0.27038       0.25852       1.00000       0.08559       0.00000       0.02086       0.00000       0.62317       0.00000       0.25852       0.01186 
  10478.50000       0.67444       0.42247       0.36017       0.32930       0.33008       8.75000      94.22554      35.92621       8.83019       0.31227      84.47926       0.26140       0.24880       1.00000       0.08727       0.00000       0.02593       0.00000       0.62540       0.00000       0.24880       0.01260 
  10479.00000       0.62606       0.41570       0.35696       0.32767       0.32807       8.75000      94.77396      34.74606       8.77301       0.29699     129.69354       0.26123       0.25067       1.00000       0.08196       0.00000       0.01256       0.00000       0.64425       0.00000       0.25067       0.01056 
  10479.50000       0.57107       0.40787       0.35123       0.32412       0.32405       8.75000      93.93993      35.78875       8.76157       0.28731     168.31471       0.25944       0.25019       1.00000       0.08183       0.00000       0.00050       0.00000       0.65823       0.00000       0.25019       0.00925 
  10480.00000       0.54066       0.41817       0.35975       0.33515       0.33263       8.75000      94.62079      31.96276       8.80732       0.29593     187.76349       0.26601       0.25682       1.00000       0.08183       0.00000       0.00000       0.00000       0.65215       0.00000       0.25682       0.00919 
  10480.50000       0.63176       0.46223       0.39240       0.36857       0.36147       8.75000      94.06079      34.87827       8.73870       0.29545     148.60754       0.26177       0.25179       1.00000       0.08247       0.00000       0.00664       0.00000       0.64911       0.00000       0.25179       0.00998 
  10481.00000       0.79070       0.54089       0.45073       0.42699       0.41327       8.75000      91.88348      34.37622       8.30408       0.28375     118.05347       0.24653       0.23650       1.00000       0.08742       0.00000       0.00195       0.00000       0.66409       0.00000       0.23650       0.01003 
  10481.50000       1.09142       0.63336       0.52688       0.50827       0.48506       8.75000      90.17943      33.69802       8.28121       0.25525      84.95290       0.22722       0.21709       1.00000       0.09013       0.00000       0.00000       0.00000       0.68265       0.00000       0.21709       0.01013 
  10482.00000       1.49958       0.72200       0.61468       0.61651       0.57418       8.75000      84.67148      29.10464       8.23546       0.23790      35.28103       0.19261       0.18120       1.00000       0.10156       0.00000       0.00000       0.00000       0.70582       0.00000       0.18120       0.01141 
  10482.50000       2.87857       0.89859       0.78593       0.79968       0.71934       8.75000      81.34702      29.81523       8.22402       0.21853      15.53864       0.16420       0.15168       1.00000       0.11145       0.00000       0.00000       0.00000       0.72434       0.00000       0.15168       0.01252 
  10483.00000       8.69267       1.24442       1.11419       1.16970       1.04096       8.75000      77.63232      32.88886       8.16683       0.20254       6.06223       0.13615       0.12247       1.00000       0.12179       0.00000       0.00000       0.00000       0.74205       0.00000       0.12247       0.01368 
  10483.50000      21.61032       1.80998       1.52494       1.50604       1.48101       8.75000      74.11714      48.63374       8.44133       0.19450       1.13756       0.11273       0.09478       1.00000       0.11817       0.00859       0.04342       0.00000       0.71709       0.00709       0.08769       0.01795 
  10484.00000      33.20049       1.69140       1.43161       1.35869       1.45698       8.75000      76.04226      71.78136       8.55570       0.22075       0.19852       0.12422       0.09657       1.00000       0.10155       0.03402       0.15080       0.00000       0.58941       0.04494       0.05163       0.02764 
  10484.50000      11.90247       1.23266       1.06511       0.96821       1.07723       8.75000      78.38850      80.81803       8.48708       0.25837       0.10882       0.13669       0.10370       1.00000       0.09533       0.02064       0.20696       0.00000       0.54038       0.06850       0.03520       0.03299 
  10485.00000       4.36920       0.94699       0.79794       0.70125       0.77771       8.75000      83.24509      69.24946       8.49852       0.26570       0.53827       0.16411       0.13497       1.00000       0.09577       0.00000       0.17077       0.00000       0.56935       0.07015       0.06482       0.02914 
  10485.50000       1.55021       0.74261       0.61521       0.51651       0.57494       8.75000      91.48019      45.39125       8.46420       0.26758      11.49685       0.21153       0.19318       1.00000       0.08403       0.00000       0.08279       0.00000       0.62165       0.03909       0.15409       0.01835 
  10486.00000       0.98099       0.59960       0.48717       0.41913       0.44223       8.75000      93.87247      33.97035       8.41845       0.26543      82.65710       0.24127       0.23002       1.00000       0.08282       0.00000       0.01808       0.00000       0.65783       0.00000       0.23002       0.01125 
  10486.50000       0.68345       0.50015       0.40908       0.35226       0.36053       8.75000      96.06815      32.71913       8.39558       0.28453     175.78975       0.26538       0.25598       1.00000       0.07811       0.00000       0.00587       0.00000       0.65063       0.00000       0.25598       0.00941 
  10487.00000       0.60194       0.44768       0.36635       0.31470       0.31427       8.75000      96.90102      30.32572       8.41845       0.29896     246.60925       0.27670       0.26810       1.00000       0.07655       0.00000       0.00000       0.00000       0.64675       0.00000       0.26810       0.00860 
